     2.10           OBSERVATION DATA    M (MIXED)           RINEX VERSION / TYPE
ComNav                                                      PGM / RUN BY / DATE 
comnav12                                                    MARKER NAME         
                                                            OBSERVER / AGENCY   
N31L04806           ComNav              55.0                REC # / TYPE / VERS 
                    Unknown                                 ANT # / TYPE        
  3752842.7775 -4538356.2935 -2442730.7161                  APPROX POSITION XYZ 
        1.8000        0.0000        0.0000                  ANTENNA: DELTA H/E/N
     1     1                                                WAVELENGTH FACT L1/2
     8    C1    L1    S1    D1    L2    S2    D2    P2      # / TYPES OF OBSERV 
     1.000                                                  INTERVAL
  2023     7    24    20    57   15.000000      GPS         TIME OF FIRST OBS   
                                                            END OF HEADER       
 23  7 24 20 57 15.0000000  0 15G24G11G28G25G29G12G20G05G18R14R13R12            
                                R24R23R17                                       
  22169960.492   116503981.83606        37.000       -3020.133    90782303.16004
        24.000       -2353.332    22169966.086  
  22328166.336   117335220.02307        42.000       -2745.117    91430107.07005
        31.000       -2139.078    22328168.906  
  24222307.148   127289087.30107        43.000        2615.266    99186297.55504
        24.000        2037.871    24222307.250  
  21404911.039   112483486.57407        46.000        2128.469    87649570.91006
        37.000        1658.543    21404914.344  
  22030509.273   115771107.53107        47.000         545.629    90211260.87506
        38.000         425.156    22030511.867  
  21077822.992   110764713.77708        50.000         199.039    86310162.58208
        51.000         155.090    21077823.883  
  22404269.188   117735232.99607        43.000         271.883    91741746.06605
        30.000         211.863    22404271.719  
  22841860.219   120034792.90607        44.000        1745.430    93533622.35207
        43.000        1360.070    22841862.539  
  23933435.055   125771078.23006        38.000        3485.230    98003446.03103
        20.000        2715.758    23933443.898  
  19951080.156   106350518.32008        51.000        2422.969    82717044.36707
        47.000        1884.320    19951082.844  
  19969882.086   106637977.39106        40.000       -1800.629    82940653.81307
        43.000       -1400.848    19969884.445  
  23607104.898   126104906.18407        44.000       -3804.172    98081608.25406
        40.000       -2958.711    23607105.797  
  19764842.305   105691477.75008        48.000       -1638.727    82204437.44107
        44.000       -1274.832    19764840.609  
  22795676.617   121941489.87907        45.000       -3658.426                  
                                                
  20913834.352   111914090.70708        51.000        1765.691    87044324.66408
        49.000        1373.262    20913833.555  
 23  7 24 20 57 16.0000000  0 14G24G11G28G25G29G12G20G05G18R14R13R24            
                                R23R17                                          
  22170536.922   116507012.36306        37.000       -3021.008    90784664.59804
        24.000       -2354.023    22170542.664  
  22328690.547   117337974.40607        43.000       -2745.598    91432253.34405
        31.000       -2139.414    22328693.063  
  24221810.953   127286481.66807        43.000        2614.898    99184267.19504
        24.000        2037.621    24221811.414  
  21404507.547   112481367.43007        46.000        2128.598    87647919.62906
        37.000        1658.660    21404511.102  
  22030407.188   115770571.38307        46.000         545.266    90210843.10206
        38.000         424.879    22030409.797  
  21077786.914   110764524.44108        50.000         198.523    86310015.05108
        51.000         154.703    21077787.859  
  22404219.117   117734971.03907        43.000         271.211    91741541.94505
        30.000         211.332    22404221.828  
  22841529.789   120033057.07807        44.000        1745.039    93532269.75807
        43.000        1359.770    22841532.203  
  23932773.234   125767602.60206        38.000        3484.863    98000737.75403
        20.000        2715.453    23932782.594  
  19950627.484   106348105.18408        51.000        2421.969    82715167.48007
        47.000        1883.801    19950630.234  
  19970220.961   106639788.27306        40.000       -1802.129    82942062.25407
        42.000       -1401.191    19970223.578  
  19765150.539   105693126.31607        47.000       -1639.727    82205719.65607
        44.000       -1275.191    19765148.805  
  22796362.445   121945157.98407        45.000       -3658.957                  
                                                
  20913506.219   111912334.95308        51.000        1764.574    87042959.07408
        49.000        1372.895    20913505.359  
 23  7 24 20 57 17.0000000  0 14G24G11G28G25G29G12G20G05G18R14R13R24            
                                R23R17                                          
  22171113.266   116510042.75006        36.000       -3021.266    90787025.93004
        24.000       -2354.246    22171119.367  
  22329214.617   117340728.76207        42.000       -2745.375    91434399.58605
        31.000       -2139.219    22329217.250  
  24221315.188   127283876.03107        43.000        2614.582    99182236.84004
        24.000        2037.336    24221315.641  
  21404104.234   112479248.05907        46.000        2128.504    87646268.16806
        37.000        1658.590    21404107.813  
  22030305.063   115770035.00007        46.000         545.410    90210425.14106
        38.000         424.992    22030307.711  
  21077750.898   110764335.03508        50.000         198.402    86309867.45308
        51.000         154.609    21077751.852  
  22404169.188   117734709.24207        43.000         270.359    91741337.94505
        30.000         210.652    22404172.000  
  22841199.219   120031321.12507        44.000        1744.828    93530917.07007
        43.000        1359.605    22841201.852  
  23932111.336   125764126.81306        38.000        3484.316    97998029.35503
        20.000        2715.031    23932121.094  
  19950175.016   106345692.20708        51.000        2421.891    82713290.71507
        47.000        1883.715    19950177.398  
  19970560.375   106641599.49206        40.000       -1802.840    82943470.96907
        43.000       -1401.609    19970562.711  
  19765459.234   105694774.97708        48.000       -1639.594    82207001.94107
        44.000       -1275.152    19765456.859  
  22797048.328   121948825.66007        45.000       -3658.406                  
                                                
  20913178.586   111910579.43408        51.000        1764.648    87041593.67608
        49.000        1372.492    20913177.422  
 23  7 24 20 57 18.0000000  0 14G24G11G28G25G29G12G20G05G18R14R13R24            
                                R23R17                                          
  22171687.531   116513059.90206        36.000       -3022.055    90789376.96104
        24.000       -2354.852    22171693.625  
  22329736.266   117343469.93407        43.000       -2745.934    91436535.56305
        32.000       -2139.715    22329738.898  
  24220816.883   127281257.27707        43.000        2613.941    99180196.25004
        24.000        2036.836    24220817.367  
  21403698.563   112477115.32007        46.000        2128.086    87644606.28906
        37.000        1658.246    21403701.961  
  22030200.320   115769485.29707        46.000         544.879    90209996.80106
        38.000         424.578    22030203.094  
  21077712.219   110764132.43408        50.000         197.813    86309709.58208
        51.000         154.133    21077713.328  
  22404116.992   117734434.44507        43.000         269.801    91741123.81305
        30.000         210.238    22404119.719  
  22840866.383   120029571.94107        44.000        1744.316    93529554.07007
        43.000        1359.203    22840868.953  
  23931447.523   125760637.70306        38.000        3484.758    97995310.58603
        20.000        2715.438    23931456.680  
  19949719.969   106343266.03508        51.000        2421.215    82711403.69107
        47.000        1883.172    19949722.234  
  19970897.313   106643397.65606        40.000       -1803.113    82944869.56607
        43.000       -1402.598    19970899.469  
  19765765.063   105696410.39508        48.000       -1640.414    82208273.92607
        44.000       -1275.809    19765762.492  
  22797731.430   121952479.54307        45.000       -3658.504                  
                                                
  20912848.188   111908810.75408        51.000        1763.668    87040218.03908
        49.000        1371.566    20912846.789  
 23  7 24 20 57 19.0000000  0 14G24G11G28G25G29G12G20G05G18R14R13R24            
                                R23R17                                          
  22172261.984   116516078.88706        36.000       -3022.066    90791729.41003
        23.000       -2354.816    22172268.117  
  22330258.289   117346213.09007        43.000       -2746.359    91438673.08205
        32.000       -2140.016    22330260.930  
  24220319.109   127278640.53107        43.000        2613.625    99178157.23004
        24.000        2036.566    24220319.367  
  21403292.922   112474984.37507        46.000        2128.016    87642945.81306
        37.000        1658.180    21403296.445  
  22030095.797   115768937.35907        46.000         545.242    90209569.84006
        38.000         424.855    22030098.789  
  21077674.273   110763931.76208        50.000         197.934    86309553.21508
        51.000         154.230    21077675.141  
  22404065.273   117734161.83607        43.000         269.660    91740911.39805
        30.000         210.117    22404067.898  
  22840534.016   120027824.69507        44.000        1744.383    93528192.58207
        43.000        1359.281    22840536.453  
  23930784.398   125757150.44106        38.000        3483.883    97992593.23003
        20.000        2714.656    23930793.094  
  19949265.219   106340842.02308        51.000        2420.938    82709518.35507
        47.000        1882.820    19949267.383  
  19971234.711   106645198.17206        41.000       -1802.957    82946269.99207
        43.000       -1402.906    19971236.602  
  19766070.977   105698047.91007        47.000       -1640.621    82209547.55507
        44.000       -1276.016    19766068.633  
  22798414.414   121956135.00007        45.000       -3658.047                  
                                                
  20912517.836   111907044.32808        51.000        1763.262    87038844.15608
        49.000        1371.332    20912516.531  
 23  7 24 20 57 20.0000000  0 14G24G11G28G25G29G12G20G05G18R14R13R24            
                                R23R17                                          
  22172838.563   116519110.00406        36.000       -3022.215    90794091.31603
        23.000       -2354.965    22172844.977  
  22330782.609   117348968.44907        43.000       -2746.625    91440820.11705
        32.000       -2140.227    22330785.242  
  24219823.477   127276036.05107        43.000        2613.109    99176127.77704
        25.000        2036.199    24219823.828  
  21402889.766   112472865.43807        46.000        2127.836    87641294.69906
        37.000        1658.055    21402893.250  
  22029994.047   115768401.48407        47.000         544.547    90209152.27706
        38.000         424.336    22029996.789  
  21077638.469   110763743.29708        50.000         197.145    86309406.35908
        51.000         153.629    21077639.281  
  22404015.531   117733901.65607        43.000         269.020    91740708.66404
        29.000         209.629    22404018.359  
  22840203.797   120026089.61707        45.000        1743.816    93526840.57807
        43.000        1358.809    22840206.258  
  23930122.453   125753675.24606        38.000        3484.207    97989885.31303
        20.000        2714.930    23930131.977  
  19948812.789   106338430.60908        51.000        2420.246    82707642.80907
        47.000        1882.375    19948814.844  
  19971574.492   106647011.52706        41.000       -1804.695    82947680.35207
        42.000       -1403.637    19971576.086  
  19766379.016   105699698.02007        47.000       -1641.395    82210830.96907
        43.000       -1276.508    19766376.883  
  22799099.977   121959802.54707        45.000       -3658.695                  
                                                
  20912189.805   111905290.60508        51.000        1762.566    87037480.14508
        48.000        1370.797    20912188.672  
 23  7 24 20 57 21.0000000  0 14G24G11G28G25G29G12G20G05G18R14R13R24            
                                R23R17                                          
  22173413.797   116522133.71906        36.000       -3022.082    90796447.45303
        23.000       -2354.816    22173420.469  
  22331306.109   117351716.51207        44.000       -2746.852    91442961.45705
        32.000       -2140.375    22331308.195  
  24219326.406   127273424.28907        43.000        2612.773    99174092.62904
        25.000        2035.938    24219326.984  
  21402484.766   112470738.98407        46.000        2127.672    87639637.72306
        37.000        1657.922    21402488.625  
  22029890.602   115767858.09407        47.000         544.512    90208728.85906
        38.000         424.301    22029893.391  
  21077601.086   110763547.47708        50.000         196.973    86309253.77308
        51.000         153.488    21077602.047  
  22403964.680   117733634.35507        43.000         268.434    91740500.37504
        29.000         209.180    22403967.523  
  22839872.383   120024347.14507        45.000        1743.512    93525482.80507
        43.000        1358.598    22839874.656  
  23929460.102   125750192.60206        38.000        3483.723    97987171.55903
        20.000        2714.598    23929469.320  
  19948359.320   106336011.98008        51.000        2419.707    82705761.65607
        47.000        1881.977    19948361.188  
  19971912.961   106648817.77006        41.000       -1805.406    82949085.21507
        43.000       -1404.039    19971914.430  
  19766686.328   105701340.81307        47.000       -1641.750    82212108.69507
        43.000       -1276.977    19766684.133  
  22799784.469   121963462.21107        45.000       -3658.348                  
                                                
  20911860.969   111903529.65208        51.000        1761.941    87036110.51608
        48.000        1370.496    20911859.688  
 23  7 24 20 57 22.0000000  0 14G24G11G28G25G29G12G20G05G18R14R13R24            
                                R23R17                                          
  22173985.930   116525143.58606        36.000       -3023.008    90798792.79703
        23.000       -2355.543    22173993.359  
  22331826.344   117354450.76607        44.000       -2746.891    91445092.04705
        32.000       -2140.438    22331828.547  
  24218826.875   127270798.78507        43.000        2612.594    99172046.78904
        25.000        2035.762    24218827.383  
  21402077.672   112468598.54707        46.000        2127.652    87637969.84406
        37.000        1657.910    21402081.320  
  22029784.453   115767300.72707        46.000         544.715    90208294.54706
        38.000         424.453    22029787.328  
  21077561.109   110763337.83208        50.000         196.844    86309090.41008
        51.000         153.371    21077562.180  
  22403911.336   117733353.44107        43.000         268.059    91740281.48404
        29.000         208.879    22403914.078  
  22839538.188   120022590.82407        44.000        1743.520    93524114.24207
        43.000        1358.594    22839540.414  
  23928795.023   125746696.03506        38.000        3483.355    97984446.95703
        20.000        2714.297    23928804.016  
  19947903.156   106333579.52008        51.000        2419.984    82703869.76607
        47.000        1881.629    19947904.977  
  19972248.289   106650610.30506        41.000       -1805.000    82950479.43007
        43.000       -1404.418    19972250.195  
  19766990.883   105702969.65207        47.000       -1641.281    82213375.59807
        43.000       -1276.934    19766988.430  
  22800465.945   121967107.38307        45.000       -3657.492                  
                                                
  20911529.172   111901754.82408        51.000        1762.414    87034730.11708
        49.000        1370.188    20911527.883  
 23  7 24 20 57 23.0000000  0 14G24G11G28G25G29G12G20G05G18R14R13R24            
                                R23R17                                          
  22174560.906   116528160.09406        36.000       -3023.785    90801143.33204
        24.000       -2356.145    22174567.445  
  22332348.133   117357191.80507        44.000       -2747.785    91447227.92605
        32.000       -2141.133    22332350.164  
  24218328.492   127268180.07807        43.000        2612.176    99170006.23804
        25.000        2035.453    24218329.031  
  21401671.352   112466464.69507        46.000        2127.074    87636307.10906
        37.000        1657.457    21401675.273  
  22029679.656   115766749.95707        47.000         544.254    90207865.37906
        38.000         424.086    22029682.492  
  21077522.422   110763134.93808        50.000         196.262    86308932.31608
        51.000         152.922    21077523.586  
  22403859.000   117733079.52707        43.000         267.180    91740068.04304
        29.000         208.164    22403861.977  
  22839205.352   120020841.24207        45.000        1743.023    93522750.93807
        43.000        1358.176    22839207.461  
  23928131.570   125743206.09006        38.000        3483.617    97981727.53503
        20.000        2714.504    23928139.891  
  19947447.930   106331154.14508        51.000        2418.504    82701983.35207
        47.000        1880.977    19947449.844  
  19972585.266   106652410.12506        41.000       -1806.957    82951879.27307
        43.000       -1405.121    19972587.148  
  19767296.211   105704605.57407        46.000       -1642.676    82214647.96907
        43.000       -1277.668    19767294.195  
  22801147.711   121970759.10507        44.000       -3658.266                  
                                                
  20911198.180   111899987.18008        51.000        1760.539    87033355.27308
        49.000        1369.609    20911197.563  
 23  7 24 20 57 24.0000000  0 14G24G11G28G25G29G12G20G05G18R14R13R24            
                                R23R17                                          
  22175137.727   116531192.80106        36.000       -3023.039    90803506.48004
        24.000       -2355.594    22175144.734  
  22332872.641   117359949.13707        44.000       -2747.805    91449376.50005
        32.000       -2141.160    22332874.891  
  24217833.063   127265577.74607        43.000        2611.859    99167978.46104
        25.000        2035.184    24217833.797  
  21401268.445   112464346.94907        47.000        2127.305    87634656.92206
        37.000        1657.648    21401272.273  
  22029578.227   115766215.32807        47.000         544.133    90207448.79706
        38.000         424.000    22029580.719  
  21077487.016   110762948.31608        50.000         196.313    86308786.90208
        51.000         152.977    21077488.086  
  22403810.063   117732822.13707        43.000         266.996    91739867.48404
        29.000         208.035    22403813.000  
  22838875.305   120019107.90207        45.000        1742.855    93521400.28907
        43.000        1358.066    22838877.602  
  23927470.570   125739732.35906        38.000        3482.941    97979020.73403
        20.000        2714.004    23927478.930  
  19946995.891   106328745.47308        51.000        2418.016    82700109.93007
        47.000        1880.836    19946997.969  
  19972925.305   106654226.89106        41.000       -1807.320    82953292.32007
        42.000       -1405.711    19972927.391  
  19767605.086   105706258.21907        46.000       -1643.441    82215933.34807
        43.000       -1277.656    19767603.008  
  22801833.188   121974427.04707        45.000       -3658.477                  
                                                
  20910870.664   111898236.40208        51.000        1759.949    87031993.54308
        49.000        1369.262    20910870.422  
 23  7 24 20 57 25.0000000  0 14G24G11G28G25G29G12G20G05G18R14R13R24            
                                R23R17                                          
  22175714.422   116534225.28906        37.000       -3023.551    90805869.44104
        24.000       -2355.973    22175722.008  
  22333397.867   117362706.30907        44.000       -2748.488    91451524.94505
        32.000       -2141.691    22333399.578  
  24217337.555   127262975.26607        43.000        2611.137    99165950.55504
        25.000        2034.637    24217338.617  
  21400865.570   112462228.83207        47.000        2127.242    87633006.43806
        37.000        1657.598    21400869.227  
  22029476.102   115765680.34007        47.000         543.805    90207031.91806
        38.000         423.770    22029478.914  
  21077451.469   110762761.49608        50.000         195.535    86308641.32808
        51.000         152.359    21077452.570  
  22403761.039   117732564.77007        43.000         266.055    91739666.94104
        29.000         207.301    22403764.070  
  22838545.148   120017374.34007        44.000        1742.277    93520049.46507
        43.000        1357.633    22838547.695  
  23926809.055   125736258.28506        38.000        3482.824    97976313.66003
        20.000        2713.883    23926817.930  
  19946544.117   106326336.75008        51.000        2417.461    82698236.49607
        47.000        1880.125    19946546.016  
  19973265.992   106656043.83206        41.000       -1808.891    82954705.49207
        43.000       -1406.574    19973267.656  
  19767914.164   105707910.75807        46.000       -1643.781    82217218.66007
        43.000       -1278.316    19767912.031  
  22802518.805   121978094.33607        44.000       -3658.203                  
                                                
  20910543.625   111896485.65608        51.000        1759.500    87030631.87908
        49.000        1368.449    20910543.422  
 23  7 24 20 57 26.0000000  0 14G24G11G28G25G29G12G20G05G18R14R13R24            
                                R23R17                                          
  22176289.875   116537244.37106        37.000       -3023.719    90808221.96904
        24.000       -2356.098    22176296.805  
  22333919.875   117365450.18407        45.000       -2748.613    91453663.02705
        33.000       -2141.742    22333921.688  
  24216840.211   127260359.56307        43.000        2610.730    99163912.34004
        25.000        2034.344    24216840.922  
  21400460.125   112460097.24207        47.000        2126.945    87631345.45706
        37.000        1657.359    21400463.609  
  22029371.805   115765131.88307        47.000         543.688    90206604.55106
        38.000         423.648    22029374.570  
  21077413.359   110762561.37508        50.000         195.277    86308485.38708
        51.000         152.160    21077414.508  
  22403709.578   117732294.33207        43.000         265.293    91739456.21104
        29.000         206.723    22403712.633  
  22838212.664   120015627.44507        44.000        1742.102    93518688.24607
        43.000        1357.488    22838215.266  
  23926145.398   125732770.80106        38.000        3482.855    97973596.15203
        20.000        2713.855    23926154.289  
  19946089.648   106323914.77708        51.000        2417.051    82696352.73007
        47.000        1879.941    19946091.773  
  19973603.945   106657847.65206        41.000       -1808.859    82956108.46507
        42.000       -1407.078    19973605.484  
  19768220.766   105709549.94107        46.000       -1643.824    82218493.57407
        43.000       -1278.828    19768218.516  
  22803202.055   121981747.77307        44.000       -3658.219                  
                                                
  20910213.977   111894721.65608        51.000        1759.188    87029259.87508
        49.000        1368.023    20910213.844  
 23  7 24 20 57 27.0000000  0 14G24G11G28G25G29G12G20G05G18R14R13R24            
                                R23R17                                          
  22176863.523   116540259.32806        36.000       -3024.094    90810571.29704
        24.000       -2356.434    22176870.680  
  22334441.234   117368190.01207        45.000       -2748.473    91455797.95305
        33.000       -2141.645    22334443.078  
  24216341.773   127257739.84007        44.000        2610.715    99161871.00404
        25.000        2034.336    24216342.430  
  21400053.508   112457961.42207        47.000        2126.797    87629681.18006
        37.000        1657.234    21400057.227  
  22029266.500   115764579.21507        47.000         543.676    90206173.90206
        38.000         423.656    22029269.398  
  21077374.531   110762357.18008        50.000         195.293    86308326.27708
        51.000         152.180    21077375.672  
  22403657.320   117732020.03907        43.000         264.750    91739242.48004
        29.000         206.285    22403660.383  
  22837879.250   120013876.43807        44.000        1741.934    93517323.82807
        43.000        1357.336    22837882.086  
  23925481.422   125729279.14106        39.000        3482.480    97970875.37903
        20.000        2713.637    23925490.000  
  19945634.430   106321488.91408        51.000        2416.836    82694465.94507
        47.000        1879.445    19945636.797  
  19973940.734   106659647.71906        41.000       -1808.898    82957508.51207
        43.000       -1407.270    19973942.531  
  19768526.344   105711185.14807        46.000       -1644.160    82219765.39807
        42.000       -1278.867    19768524.023  
  22803884.109   121985396.68807        45.000       -3657.605                  
                                                
  20909883.383   111892953.78108        51.000        1758.645    87027884.84408
        49.000        1367.645    20909883.453  
 23  7 24 20 57 28.0000000  0 14G24G11G28G25G29G12G20G05G18R14R13R24            
                                R23R17                                          
  22177439.148   116543286.43406        36.000       -3024.828    90812930.09004
        24.000       -2357.004    22177446.914  
  22334964.953   117370942.06607        45.000       -2749.219    91457942.41405
        33.000       -2142.250    22334966.742  
  24215845.164   127255132.37507        44.000        2610.211    99159839.21904
        25.000        2033.898    24215846.242  
  21399649.227   112455837.60207        47.000        2126.828    87628026.26206
        38.000        1657.285    21399653.094  
  22029163.734   115764038.55907        47.000         543.641    90205752.61706
        38.000         423.613    22029166.469  
  21077337.977   110762165.16808        50.000         194.887    86308176.66008
        51.000         151.855    21077339.164  
  22403607.703   117731758.13707        43.000         264.770    91739038.39504
        29.000         206.309    22403610.539  
  22837548.672   120012137.58207        44.000        1741.695    93515968.87907
        43.000        1357.184    22837551.195  
  23924819.406   125725799.54306        38.000        3482.512    97968164.00403
        20.000        2713.645    23924827.961  
  19945181.531   106319075.63708        51.000        2416.145    82692588.94907
        47.000        1879.105    19945184.078  
  19974280.414   106661460.56306        41.000       -1810.172    82958918.49207
        43.000       -1407.953    19974282.086  
  19768834.359   105712832.93407        46.000       -1645.082    82221047.01207
        42.000       -1279.750    19768831.898  
  22804568.164   121989057.64507        45.000       -3657.922                  
                                                
  20909555.117   111891198.56608        51.000        1758.031    87026519.66808
        49.000        1367.383    20909555.430  
 23  7 24 20 57 29.0000000  0 14G24G11G28G25G29G12G20G05G18R14R13R24            
                                R23R17                                          
  22178016.875   116546317.39506        36.000       -3025.273    90815291.87104
        24.000       -2357.355    22178023.945  
  22335489.453   117373698.07407        45.000       -2749.723    91460089.95305
        33.000       -2142.641    22335491.211  
  24215350.023   127252528.94507        44.000        2609.547    99157810.57404
        25.000        2033.410    24215350.922  
  21399245.766   112453717.57807        47.000        2126.355    87626374.28906
        38.000        1656.922    21399249.672  
  22029061.484   115763501.71107        47.000         543.398    90205334.29306
        38.000         423.453    22029064.305  
  21077302.172   110761977.10908        50.000         194.320    86308030.12108
        51.000         151.422    21077303.398  
  22403558.656   117731500.43407        43.000         263.777    91738837.59004
        29.000         205.543    22403561.461  
  22837218.531   120010402.65607        44.000        1741.484    93514616.98807
        43.000        1357.004    22837221.047  
  23924157.523   125722323.79306        38.000        3482.305    97965455.63303
        20.000        2713.488    23924166.672  
  19944729.688   106316666.55508        51.000        2415.328    82690715.22307
        46.000        1878.641    19944732.188  
  19974620.781   106663277.76206        41.000       -1810.949    82960331.88707
        43.000       -1408.590    19974622.547  
  19769143.133   105714484.84007        46.000       -1645.605    82222331.84407
        42.000       -1280.121    19769140.516  
  22805253.664   121992722.21107        44.000       -3658.027                  
                                                
  20909228.133   111889447.60908        51.000        1757.219    87025157.84008
        49.000        1366.742    20909228.188  
 23  7 24 20 57 30.0000000  0 14G24G11G28G25G29G12G20G05G18R14R13R24            
                                R23R17                                          
  22178589.563   116549336.87906        36.000       -3024.836    90817644.70704
        24.000       -2356.961    22178598.680  
  22336011.914   117376442.70307        45.000       -2749.914    91462228.62505
        33.000       -2142.793    22336013.508  
  24214852.391   127249914.14507        43.000        2609.383    99155773.06304
        25.000        2033.293    24214853.445  
  21398840.320   112451585.94507        47.000        2126.492    87624713.28106
        38.000        1656.992    21398844.047  
  22028957.234   115762953.29707        47.000         543.113    90204906.96106
        38.000         423.188    22028959.945  
  21077264.148   110761777.62508        50.000         194.180    86307874.67608
        51.000         151.305    21077265.469  
  22403507.352   117731231.51607        42.000         263.512    91738628.03504
        29.000         205.344    22403510.297  
  22836886.141   120008656.30107        44.000        1740.891    93513256.18807
        43.000        1356.539    22836888.727  
  23923494.305   125718836.52006        38.000        3482.160    97962738.28503
        20.000        2713.340    23923502.961  
  19944275.492   106314246.14108        51.000        2414.527    82688832.68407
        46.000        1878.207    19944277.977  
  19974959.172   106665083.77006        41.000       -1812.039    82961736.54707
        43.000       -1409.309    19974960.734  
  19769449.820   105716125.31307        46.000       -1646.430    82223607.75407
        42.000       -1280.336    19769447.438  
  22805936.477   121996374.82807        44.000       -3658.020                  
                                                
  20908898.969   111887685.33608        51.000        1756.371    87023787.17208
        48.000        1366.223    20908898.898  
 23  7 24 20 57 31.0000000  0 14G24G11G28G25G29G12G20G05G18R14R13R24            
                                R23R17                                          
  22179164.633   116552358.79706        36.000       -3025.145    90819999.44904
        24.000       -2357.242    22179173.953  
  22336534.773   117379189.87507        45.000       -2750.832    91464369.28505
        33.000       -2143.508    22336536.273  
  24214355.570   127247301.95707        43.000        2608.707    99153737.59004
        25.000        2032.734    24214356.305  
  21398434.859   112449456.68407        47.000        2125.938    87623054.11706
        38.000        1656.559    21398438.875  
  22028853.281   115762407.24607        47.000         542.660    90204481.46906
        38.000         422.848    22028856.008  
  21077226.680   110761580.67608        50.000         193.605    86307721.20708
        51.000         150.859    21077228.000  
  22403456.578   117730965.35507        43.000         262.520    91738420.64104
        29.000         204.551    22403459.688  
  22836554.000   120006912.41007        44.000        1740.785    93511897.31307
        43.000        1356.453    22836556.898  
  23922831.195   125715351.66006        38.000        3481.539    97960022.83603
        20.000        2712.906    23922839.719  
  19943821.820   106311828.48408        51.000        2414.031    82686952.28507
        46.000        1877.633    19943824.461  
  19975297.656   106666892.69106        41.000       -1812.703    82963143.49207
        43.000       -1409.762    19975299.367  
  19769756.930   105717768.52307        46.000       -1646.918    82224885.82007
        42.000       -1280.965    19769754.711  
  22806619.328   122000029.59807        44.000       -3657.801                  
                                                
  20908569.875   111885925.85208        51.000        1755.824    87022418.69508
        49.000        1365.512    20908569.922  
 23  7 24 20 57 32.0000000  0 14G24G11G28G25G29G12G20G05G18R14R13R24            
                                R23R17                                          
  22179743.031   116555392.57806        36.000       -3025.348    90822363.43804
        24.000       -2357.414    22179751.406  
  22337059.648   117381948.99607        45.000       -2750.906    91466519.25405
        33.000       -2143.578    22337061.328  
  24213860.539   127244701.72307        43.000        2608.730    99151711.44504
        25.000        2032.770    24213861.555  
  21398032.016   112447339.16007        47.000        2125.973    87621404.10206
        38.000        1656.590    21398035.945  
  22028751.617   115761872.95707        47.000         542.578    90204065.14506
        38.000         422.789    22028754.297  
  21077191.555   110761395.62108        50.000         193.398    86307577.01608
        51.000         150.703    21077192.805  
  22403408.797   117730711.31607        43.000         262.336    91738222.69504
        29.000         204.410    22403411.344  
  22836224.461   120005180.43407        44.000        1740.402    93510547.72307
        43.000        1356.168    22836227.328  
  23922170.367   125711878.59006        38.000        3481.828    97957316.55503
        20.000        2713.105    23922178.867  
  19943370.703   106309423.13308        51.000        2413.695    82685081.46107
        47.000        1877.398    19943373.266  
  19975638.852   106668714.12906        41.000       -1813.227    82964560.16407
        43.000       -1410.145    19975640.438  
  19770066.273   105719424.03507        45.000       -1647.273    82226173.44107
        42.000       -1281.258    19770064.070  
  22807304.734   122003696.15207        44.000       -3658.250                  
                                                
  20908243.359   111884178.76608        51.000        1755.438    87021059.85508
        48.000        1365.301    20908243.508  
 23  7 24 20 57 33.0000000  0 14G24G11G28G25G29G12G20G05G18R14R13R24            
                                R23R17                                          
  22180319.180   116558419.28106        36.000       -3025.660    90824721.89804
        24.000       -2357.605    22180327.641  
  22337583.422   117384701.10507        45.000       -2750.574    91468663.75405
        33.000       -2143.313    22337585.070  
  24213364.297   127242094.58207        43.000        2608.309    99149679.89804
        25.000        2032.441    24213365.430  
  21397628.008   112445214.46907        47.000        2126.434    87619748.49206
        38.000        1656.953    21397631.641  
  22028648.398   115761331.50407        47.000         542.965    90203643.23006
        38.000         423.094    22028651.305  
  21077155.016   110761203.56608        50.000         193.656    86307427.35508
        51.000         150.906    21077156.289  
  22403358.781   117730450.50807        42.000         261.957    91738019.46504
        29.000         204.125    22403361.672  
  22835893.641   120003441.45307        44.000        1740.438    93509192.66407
        43.000        1356.188    22835896.422  
  23921507.719   125708398.43006        38.000        3481.730    97954604.73803
        20.000        2713.098    23921516.625  
  19942918.352   106307010.85908        51.000        2413.738    82683205.25007
        47.000        1877.281    19942920.938  
  19975978.617   106670528.83606        41.000       -1813.566    82965971.60507
        43.000       -1410.316    19975980.336  
  19770374.602   105721072.55507        45.000       -1647.184    82227455.62107
        42.000       -1281.059    19770372.031  
  22807988.898   122007355.18807        43.000       -3657.102                  
                                                
  20907915.906   111882424.80508        51.000        1755.402    87019695.66808
        49.000        1365.223    20907915.734  
 23  7 24 20 57 34.0000000  0 14G24G11G28G25G29G12G20G05G18R14R13R24            
                                R23R17                                          
  22180892.961   116561438.24606        36.000       -3025.883    90827074.32404
        24.000       -2357.770    22180902.289  
  22338105.547   117387445.59807        45.000       -2751.621    91470802.32005
        33.000       -2144.121    22338107.320  
  24212867.047   127239479.82407        43.000        2607.703    99147642.42604
        25.000        2031.977    24212868.000  
  21397222.000   112443081.93007        47.000        2125.297    87618086.77706
        38.000        1656.074    21397225.883  
  22028544.164   115760782.22707        47.000         542.066    90203215.22706
        38.000         422.371    22028546.781  
  21077117.047   110761003.84008        51.000         192.484    86307271.72308
        51.000         149.977    21077118.320  
  22403307.813   117730182.23407        42.000         261.102    91737810.42204
        29.000         203.473    22403310.602  
  22835561.242   120001694.75807        44.000        1739.531    93507831.60207
        43.000        1355.453    22835564.055  
  23920844.219   125704910.47706        38.000        3481.105    97951886.85903
        20.000        2712.570    23920852.805  
  19942464.445   106304591.00008        51.000        2412.613    82681323.13307
        47.000        1876.305    19942467.117  
  19976316.734   106672336.12906        41.000       -1814.953    82967377.28107
        43.000       -1411.578    19976318.813  
  19770681.227   105722713.37907        45.000       -1648.238    82228731.81606
        41.000       -1281.859    19770678.898  
  22808671.336   122011006.03507        44.000       -3657.723                  
                                                
  20907586.563   111880663.30108        51.000        1753.934    87018325.60208
        49.000        1364.391    20907586.563  
 23  7 24 20 57 35.0000000  0 14G24G11G28G25G29G12G20G05G18R14R13R24            
                                R23R17                                          
  22181469.477   116564465.91406        36.000       -3026.266    90829433.52704
        24.000       -2358.012    22181478.570  
  22338629.523   117390198.82007        45.000       -2751.766    91472947.69505
        33.000       -2144.254    22338631.266  
  24212370.805   127236873.87907        43.000        2607.195    99145611.82004
        25.000        2031.574    24212372.016  
  21396818.102   112440957.94107        47.000        2125.555    87616431.72706
        38.000        1656.281    21396821.719  
  22028441.031   115760241.52007        47.000         542.113    90202793.89806
        39.000         422.422    22028443.891  
  21077080.727   110760812.84808        51.000         192.258    86307122.89808
        51.000         149.828    21077082.000  
  22403258.461   117729922.93007        43.000         260.590    91737608.36304
        29.000         203.043    22403261.188  
  22835230.945   119999956.75407        44.000        1739.344    93506477.32407
        43.000        1355.332    22835233.336  
  23920182.047   125701431.14106        38.000        3481.254    97949175.70303
        20.000        2712.688    23920190.711  
  19942012.023   106302180.21108        51.000        2412.332    82679448.07807
        47.000        1876.148    19942014.750  
  19976657.063   106674152.71506        41.000       -1815.293    82968790.16407
        43.000       -1411.898    19976658.914  
  19770989.961   105724363.22307        45.000       -1648.250    82230015.03507
        42.000       -1282.070    19770987.547  
  22809355.109   122014665.41407        44.000       -3657.488                  
                                                
  20907258.992   111878910.96508        51.000        1754.109    87016962.68008
        49.000        1364.035    20907259.109  
 23  7 24 20 57 36.0000000  0 14G24G11G28G25G29G12G20G05G18R14R13R24            
                                R23R17                                          
  22182045.758   116567490.85906        36.000       -3025.227    90831790.60904
        24.000       -2357.313    22182054.398  
  22339152.984   117392949.52707        45.000       -2752.375    91475091.09805
        33.000       -2144.695    22339154.703  
  24211874.273   127234265.43007        43.000        2606.852    99143579.26204
        24.000        2031.324    24211875.695  
  21396413.398   112438831.23807        47.000        2125.086    87614774.55106
        38.000        1655.910    21396417.039  
  22028337.695   115759698.10207        47.000         541.891    90202370.45706
        39.000         422.258    22028340.523  
  21077043.891   110760619.28108        51.000         191.953    86306972.06608
        51.000         149.578    21077045.195  
  22403208.391   117729661.27707        42.000         260.156    91737404.48004
        28.000         202.711    22403211.328  
  22834899.781   119998216.15607        45.000        1739.078    93505121.01607
        43.000        1355.113    22834902.109  
  23919519.305   125697949.14106        38.000        3480.461    97946462.48003
        20.000        2711.973    23919528.133  
  19941559.180   106299767.08208        51.000        2411.434    82677571.19907
        46.000        1875.355    19941562.094  
  19976996.961   106675967.03906        41.000       -1816.066    82970201.32007
        43.000       -1412.563    19976998.852  
  19771297.805   105726010.64807        45.000       -1649.000    82231296.37106
        41.000       -1282.801    19771295.445  
  22810038.953   122018321.82007        44.000       -3657.730                  
                                                
  20906931.234   111877156.29708        51.000        1752.965    87015597.93808
        49.000        1363.398    20906931.273  
 23  7 24 20 57 37.0000000  0 14G24G11G28G25G29G12G20G05G18R14R13R24            
                                R23R17                                          
  22182619.750   116570509.87506        36.000       -3027.445    90834143.07004
        24.000       -2359.051    22182629.063  
  22339675.180   117395694.25807        45.000       -2752.668    91477229.85205
        33.000       -2144.938    22339677.016  
  24211376.734   127231651.07407        43.000        2606.527    99141542.10204
        24.000        2031.109    24211378.234  
  21396007.664   112436698.37107        47.000        2125.207    87613112.57406
        38.000        1656.000    21396011.180  
  22028232.969   115759148.54307        47.000         542.094    90201942.23006
        39.000         422.430    22028235.984  
  21077005.828   110760419.74608        51.000         191.891    86306816.58208
        51.000         149.520    21077007.258  
  22403157.469   117729393.87107        42.000         259.918    91737196.11704
        28.000         202.539    22403160.383  
  22834567.336   119996469.53907        44.000        1738.980    93503760.00807
        43.000        1355.039    22834569.727  
  23918855.430   125694461.07406        38.000        3480.207    97943744.52703
        20.000        2711.855    23918864.078  
  19941105.328   106297348.10508        51.000        2411.117    82675689.77707
        47.000        1875.348    19941108.141  
  19977335.531   106677775.67606        41.000       -1816.504    82971608.03507
        43.000       -1412.883    19977337.570  
  19771604.531   105727652.18007        45.000       -1649.398    82232573.13706
        41.000       -1283.047    19771602.453  
  22810720.813   122021971.76607        43.000       -3657.863                  
                                                
  20906602.078   111875395.78108        51.000        1752.559    87014228.65608
        49.000        1363.148    20906602.203  
 23  7 24 20 57 38.0000000  0 14G24G11G28G25G29G12G20G05G18R14R13R24            
                                R23R17                                          
  22183196.844   116573539.84406        36.000       -3026.371    90836504.08204
        24.000       -2358.242    22183205.906  
  22340199.898   117398450.11707        45.000       -2752.883    91479377.27705
        33.000       -2145.113    22340201.398  
  24210881.461   127229047.87107        43.000        2606.270    99139513.63304
        24.000        2030.887    24210882.805  
  21395603.633   112434576.42607        47.000        2125.125    87611459.11306
        38.000        1655.945    21395607.383  
  22028130.461   115758609.92607        47.000         541.805    90201522.52706
        39.000         422.184    22028133.508  
  21076970.047   110760231.28908        51.000         191.676    86306669.73408
        51.000         149.367    21076971.414  
  22403108.594   117729137.80107        42.000         259.059    91736996.58604
        28.000         201.859    22403111.648  
  22834237.070   119994733.99207        45.000        1738.949    93502407.63307
        43.000        1355.039    22834239.461  
  23918193.563   125690983.97706        38.000        3480.027    97941035.09403
        20.000        2711.723    23918202.141  
  19940653.586   106294940.58608        51.000        2410.613    82673817.25407
        47.000        1874.879    19940656.594  
  19977676.164   106679595.96506        41.000       -1816.789    82973023.82807
        43.000       -1413.563    19977678.383  
  19771913.430   105729305.14107        45.000       -1650.020    82233858.75806
        41.000       -1283.113    19771911.289  
  22811405.195   122025632.65207        44.000       -3657.688                  
                                                
  20906275.047   111873646.81608        51.000        1752.270    87012868.35208
        49.000        1362.797    20906275.563  
 23  7 24 20 57 39.0000000  0 14G24G11G28G25G29G12G20G05G18R14R13R24            
                                R23R17                                          
  22183774.273   116576573.22706        36.000       -3027.457    90838867.73404
        25.000       -2359.000    22183783.297  
  22340725.180   117401209.42607        45.000       -2753.320    91481527.38305
        33.000       -2145.449    22340726.523  
  24210386.398   127226448.18807        43.000        2605.676    99137487.91004
        24.000        2030.406    24210388.180  
  21395200.711   112432457.78107        47.000        2124.547    87609808.22306
        38.000        1655.492    21395204.242  
  22028028.813   115758074.59807        47.000         541.188    90201105.38706
        39.000         421.711    22028031.648  
  21076934.758   110760046.28908        51.000         190.906    86306525.57408
        51.000         148.762    21076936.250  
  22403060.461   117728885.39107        42.000         257.941    91736799.90204
        28.000         200.977    22403063.570  
  22833907.734   119993001.86707        45.000        1738.488    93501057.92207
        43.000        1354.664    22833909.836  
  23917532.820   125687510.19906        38.000        3479.945    97938328.25003
        20.000        2711.637    23917541.023  
  19940202.758   106292536.75808        51.000        2409.719    82671947.60507
        47.000        1874.102    19940205.438  
  19978018.250   106681420.16806        41.000       -1818.184    82974442.62107
        43.000       -1414.188    19978020.102  
  19772223.430   105730961.71907        45.000       -1650.367    82235147.19906
        41.000       -1283.742    19772221.281  
  22812090.375   122029296.69907        44.000       -3657.672                  
                                                
  20905949.125   111871901.67208        51.000        1751.027    87011511.00008
        49.000        1361.969    20905949.461  
 23  7 24 20 57 40.0000000  0 14G24G11G28G25G29G12G20G05G18R14R13R24            
                                R23R17                                          
  22184349.172   116579595.01206        36.000       -3027.332    90841222.35904
        25.000       -2358.953    22184358.531  
  22341248.211   117403957.28107        45.000       -2753.414    91483668.57405
        33.000       -2145.512    22341249.461  
  24209889.789   127223837.08607        43.000        2605.371    99135453.27704
        25.000        2030.156    24209891.414  
  21394795.180   112430327.45707        47.000        2124.832    87608148.22706
        38.000        1655.723    21394798.859  
  22027924.688   115757527.61307        47.000         541.555    90200679.16006
        39.000         421.992    22027927.586  
  21076897.617   110759849.79708        50.000         191.098    86306372.46108
        51.000         148.914    21076898.883  
  22403010.742   117728621.72707        42.000         257.828    91736594.45304
        28.000         200.910    22403013.414  
  22833575.719   119991258.23007        44.000        1738.168    93499699.25007
        43.000        1354.410    22833578.039  
  23916869.656   125684024.85506        38.000        3479.605    97935612.40203
        20.000        2711.371    23916877.758  
  19939749.766   106290121.43008        51.000        2409.547    82670069.02307
        47.000        1874.402    19939752.414  
  19978357.258   106683233.02306        40.000       -1819.102    82975852.64107
        43.000       -1414.488    19978359.711  
  19772531.242   105732606.71507        45.000       -1650.582    82236426.66006
        41.000       -1283.598    19772529.211  
  22812773.586   122032948.60507        44.000       -3657.684                  
                                                
  20905620.969   111870145.03508        51.000        1750.957    87010144.75008
        49.000        1361.672    20905621.219  
 23  7 24 20 57 41.0000000  0 14G24G11G28G25G29G12G20G05G18R14R13R24            
                                R23R17                                          
  22184924.188   116582619.04706        36.000       -3027.230    90843578.75404
        25.000       -2358.934    22184934.102  
  22341771.609   117406707.48807        46.000       -2753.879    91485811.59805
        33.000       -2145.883    22341772.844  
  24209393.141   127221228.36707        43.000        2604.895    99133420.51204
        25.000        2029.777    24209395.070  
  21394390.352   112428199.28907        47.000        2124.273    87606489.91806
        38.000        1655.273    21394393.898  
  22027821.055   115756982.82007        47.000         540.984    90200254.64806
        39.000         421.527    22027823.906  
  21076860.641   110759655.64508        50.000         190.109    86306221.18008
        51.000         148.133    21076861.953  
  22402960.977   117728360.60207        42.000         256.953    91736390.97304
        28.000         200.211    22402963.695  
  22833244.578   119989516.90607        44.000        1737.504    93498342.38307
        43.000        1353.898    22833246.680  
  23916207.094   125680541.69106        38.000        3479.207    97932898.25403
        20.000        2711.086    23916215.086  
  19939297.008   106287708.71908        51.000        2408.645    82668192.48007
        47.000        1873.316    19939299.781  
  19978696.984   106685048.64806        40.000       -1819.539    82977264.79307
        43.000       -1415.063    19978699.617  
  19772838.945   105734254.30507        45.000       -1651.617    82237708.12506
        41.000       -1284.680    19772837.375  
  22813456.258   122036602.52007        44.000       -3657.773                  
                                                
  20905292.891   111868391.07408        51.000        1749.938    87008780.56608
        49.000        1361.000    20905293.492  
 23  7 24 20 57 42.0000000  0 14G24G11G28G25G29G12G20G05G18R14R13R24            
                                R23R17                                          
  22185501.320   116585655.66006        36.000       -3028.211    90845944.94904
        25.000       -2359.629    22185512.078  
  22342297.578   117409470.30507        46.000       -2754.164    91487964.44505
        34.000       -2146.090    22342298.594  
  24208899.141   127218632.29707        43.000        2604.969    99131397.60904
        25.000        2029.844    24208901.078  
  21393987.563   112426083.53907        47.000        2124.664    87604841.28506
        38.000        1655.566    21393991.297  
  22027719.602   115756450.43807        47.000         541.273    90199839.80506
        39.000         421.777    22027722.594  
  21076826.102   110759474.05508        51.000         190.320    86306079.68408
        51.000         148.297    21076827.406  
  22402913.625   117728112.29307        42.000         256.875    91736197.48404
        28.000         200.156    22402916.383  
  22832915.406   119987788.14807        44.000        1737.473    93496995.29707
        43.000        1353.875    22832917.711  
  23915546.820   125677071.02006        38.000        3479.555    97930193.83603
        20.000        2711.320    23915554.578  
  19938846.781   106285308.98808        51.000        2408.484    82666326.02707
        46.000        1873.027    19938849.375  
  19979039.430   106686877.48006        41.000       -1820.055    82978687.22307
        43.000       -1415.656    19979042.203  
  19773149.359   105735914.85207        45.000       -1651.496    82238999.66806
        41.000       -1284.734    19773148.133  
  22814141.625   122040268.87107        44.000       -3657.359                  
                                                
  20904967.609   111866650.17208        51.000        1749.598    87007426.52708
        49.000        1360.918    20904967.906  
 23  7 24 20 57 43.0000000  0 14G24G11G28G25G29G12G20G05G18R14R13R24            
                                R23R17                                          
  22186078.664   116588685.02306        36.000       -3027.766    90848305.47304
        24.000       -2359.227    22186088.508  
  22342822.070   117412226.02007        46.000       -2754.637    91490111.75405
        34.000       -2146.473    22342823.039  
  24208403.781   127216029.19107        42.000        2604.199    99129369.20704
        25.000        2029.262    24208405.797  
  21393583.797   112423960.51207        47.000        2124.250    87603186.98006
        38.000        1655.262    21393587.328  
  22027617.180   115755910.78907        47.000         540.781    90199419.29706
        39.000         421.379    22027619.898  
  21076790.133   110759285.35908        51.000         189.836    86305932.64508
        51.000         147.934    21076791.531  
  22402864.828   117727857.07807        42.000         256.492    91735998.60904
        28.000         199.891    22402867.742  
  22832584.680   119986052.21907        45.000        1737.020    93495642.62507
        43.000        1353.512    22832587.398  
  23914885.352   125673593.10206        38.000        3479.164    97927483.77703
        20.000        2711.039    23914892.953  
  19938395.375   106282902.28108        51.000        2407.809    82664454.14107
        46.000        1872.922    19938397.945  
  19979380.836   106688699.49606        41.000       -1821.418    82980104.33607
        43.000       -1416.387    19979383.633  
  19773458.633   105737568.32807        45.000       -1652.199    82240285.71506
        41.000       -1285.238    19773457.172  
  22814825.977   122043927.57407        44.000       -3657.332                  
                                                
  20904641.211   111864902.31608        51.000        1748.844    87006067.09008
        48.000        1360.070    20904641.211  
 23  7 24 20 57 44.0000000  0 14G24G11G28G25G29G12G20G05G18R14R13R24            
                                R23R17                                          
  22186652.258   116591700.12106        36.000       -3027.926    90850654.89504
        24.000       -2359.457    22186662.242  
  22343343.516   117414967.55907        46.000       -2755.105    91492248.01605
        34.000       -2146.844    22343344.766  
  24207905.563   127213411.95707        42.000        2603.809    99127329.79704
        25.000        2028.934    24207907.836  
  21393177.086   112421823.11707        47.000        2124.191    87601521.47706
        38.000        1655.203    21393180.609  
  22027511.500   115755356.77707        47.000         540.691    90198987.59806
        39.000         421.313    22027514.430  
  21076751.508   110759082.45308        51.000         189.496    86305774.53508
        51.000         147.664    21076752.945  
  22402813.703   117727587.88707        42.000         255.902    91735788.84804
        29.000         199.426    22402816.453  
  22832251.938   119984302.07407        44.000        1736.746    93494278.87907
        43.000        1353.305    22832254.367  
  23914219.961   125670100.91006        38.000        3479.156    97924762.58603
        20.000        2710.984    23914228.461  
  19937941.219   106280481.38308        51.000        2407.273    82662571.21507
        46.000        1872.348    19937943.820  
  19979719.625   106690507.44506        41.000       -1821.559    82981510.52307
        43.000       -1416.938    19979722.086  
  19773765.305   105739207.46907        45.000       -1652.859    82241560.60206
        41.000       -1285.605    19773763.930  
  22815507.203   122047571.46107        44.000       -3657.379                  
                                                
  20904311.852   111863140.27008        51.000        1748.242    87004696.60208
        49.000        1359.723    20904311.969  
 23  7 24 20 57 45.0000000  0 14G24G11G28G25G29G12G20G05G18R14R13R24            
                                R23R17                                          
  22187227.055   116594722.59806        36.000       -3028.703    90853010.06604
        24.000       -2360.020    22187237.273  
  22343866.672   117417716.51207        46.000       -2754.902    91494390.06305
        34.000       -2146.688    22343867.859  
  24207409.281   127210802.19507        42.000        2603.660    99125296.22704
        25.000        2028.813    24207411.297  
  21392771.453   112419692.96907        47.000        2123.969    87599861.62106
        38.000        1655.035    21392775.289  
  22027407.320   115754810.02307        47.000         540.656    90198561.56306
        39.000         421.266    22027410.305  
  21076714.438   110758886.96108        51.000         189.391    86305622.20708
        51.000         147.582    21076715.750  
  22402763.836   117727326.34007        42.000         255.301    91735585.05504
        29.000         198.969    22402766.656  
  22831920.484   119982559.28507        44.000        1736.848    93492920.86307
        43.000        1353.379    22831922.711  
  23913557.281   125666616.01206        38.000        3478.746    97922047.08603
        20.000        2710.672    23913565.352  
  19937488.328   106278068.18808        51.000        2407.113    82660694.29307
        46.000        1872.145    19937490.906  
  19980059.547   106692323.30506        40.000       -1822.363    82982922.86307
        43.000       -1417.348    19980062.219  
  19774073.180   105740854.28907        45.000       -1653.184    82242841.45306
        41.000       -1285.691    19774071.805  
  22816189.430   122051222.51207        44.000       -3656.977                  
                                                
  20903983.773   111861386.00808        51.000        1747.938    87003332.18408
        49.000        1359.473    20903984.195  
 23  7 24 20 57 46.0000000  0 14G24G11G28G25G29G12G20G05G18R14R13R24            
                                R23R17                                          
  22187804.617   116597761.00406        36.000       -3029.352    90855377.63304
        24.000       -2360.523    22187815.477  
  22344392.883   117420481.50407        46.000       -2755.176    91496544.60905
        34.000       -2146.910    22344394.016  
  24206915.578   127208208.50807        42.000        2603.113    99123275.16804
        25.000        2028.398    24206917.820  
  21392368.953   112417578.63707        47.000        2123.969    87598214.09406
        38.000        1655.055    21392372.977  
  22027306.375   115754279.11707        47.000         540.477    90198147.87506
        39.000         421.137    22027309.227  
  21076680.203   110758707.46908        51.000         189.016    86305482.34408
        51.000         147.285    21076681.609  
  22402717.648   117727081.03507        42.000         254.027    91735393.91404
        29.000         197.945    22402720.000  
  22831591.766   119980832.52007        44.000        1736.199    93491575.33607
        43.000        1352.891    22831594.117  
  23912896.852   125663146.99606        38.000        3478.973    97919343.97703
        20.000        2710.914    23912905.141  
  19937038.680   106275671.45308        51.000        2406.207    82658830.17607
        46.000        1871.117    19937041.273  
  19980402.484   106694155.80506        40.000       -1823.430    82984348.13707
        43.000       -1417.988    19980405.445  
  19774384.289   105742517.53907        45.000       -1653.707    82244135.09407
        42.000       -1286.082    19774383.086  
  22816874.508   122054889.46507        43.000       -3656.789                  
                                                
  20903658.945   111859648.29308        51.000        1747.309    87001980.63308
        49.000        1358.871    20903659.563  
 23  7 24 20 57 47.0000000  0 14G24G11G28G25G29G12G20G05G18R14R13R24            
                                R23R17                                          
  22188383.250   116600798.80906        36.000       -3029.281    90857744.72704
        24.000       -2360.457    22188393.531  
  22344919.031   117423245.99607        46.000       -2755.863    91498698.76205
        34.000       -2147.422    22344920.102  
  24206421.742   127205614.36306        41.000        2602.617    99121253.76604
        25.000        2027.992    24206424.273  
  21391966.641   112415463.61707        47.000        2123.676    87596566.02706
        38.000        1654.813    21391970.516  
  22027205.391   115753747.52707        47.000         540.219    90197733.65206
        39.000         420.941    22027208.078  
  21076645.891   110758527.44508        51.000         188.539    86305342.06308
        51.000         146.922    21076647.398  
  22402670.820   117726835.37907        42.000         254.328    91735202.49204
        29.000         198.180    22402673.219  
  22831263.016   119979105.18407        44.000        1735.742    93490229.35907
        43.000        1352.535    22831265.438  
  23912236.813   125659677.35206        39.000        3478.680    97916640.35503
        20.000        2710.602    23912244.797  
  19936589.148   106273274.39508        51.000        2405.523    82656965.78107
        46.000        1871.227    19936591.594  
  19980745.820   106695988.13306        41.000       -1824.340    82985773.27307
        43.000       -1418.492    19980748.547  
  19774695.375   105744180.44107        45.000       -1654.242    82245428.46907
        42.000       -1286.879    19774694.352  
  22817560.156   122058555.53107        44.000       -3657.449                  
                                                
  20903334.375   111857910.30108        51.000        1746.430    87000628.85208
        49.000        1358.320    20903334.734  
 23  7 24 20 57 48.0000000  0 14G24G11G28G25G29G12G20G05G18R14R13R24            
                                R23R17                                          
  22188958.578   116603823.53905        35.000       -3030.125    90860101.66004
        24.000       -2361.137    22188968.977  
  22345442.602   117425997.48807        46.000       -2755.969    91500842.77705
        34.000       -2147.504    22345443.727  
  24205925.477   127203007.25406        41.000        2602.559    99119222.24204
        25.000        2027.977    24205928.305  
  21391561.758   112413335.39807        47.000        2123.867    87594907.67606
        38.000        1654.957    21391565.539  
  22027101.672   115753202.75007        47.000         540.531    90197309.14506
        39.000         421.176    22027104.422  
  21076609.148   110758334.41408        50.000         188.461    86305191.64508
        51.000         146.855    21076610.703  
  22402621.719   117726576.96907        42.000         253.566    91735001.12904
        29.000         197.570    22402623.992  
  22830931.539   119977364.79707        44.000        1735.488    93488873.21107
        43.000        1352.336    22830934.297  
  23911574.250   125656194.56606        39.000        3478.684    97913926.49203
        20.000        2710.652    23911582.047  
  19936137.000   106270864.38308        51.000        2404.895    82655091.30107
        46.000        1871.043    19936139.555  
  19981086.531   106697807.64506        41.000       -1825.219    82987188.42607
        43.000       -1418.898    19981089.180  
  19775003.977   105745830.28507        45.000       -1654.797    82246711.66407
        42.000       -1286.980    19775003.172  
  22818243.016   122062207.98007        44.000       -3657.203                  
                                                
  20903007.227   111856159.32808        51.000        1745.789    86999266.97708
        49.000        1357.945    20903007.563  
 23  7 24 20 57 49.0000000  0 14G24G11G28G25G29G12G20G05G18R14R13R24            
                                R23R17                                          
  22189534.555   116606850.30506        36.000       -3029.688    90862460.17604
        24.000       -2360.758    22189544.820  
  22345966.719   117428751.13307        46.000       -2756.320    91502988.48005
        34.000       -2147.805    22345967.742  
  24205430.094   127200402.39106        41.000        2602.012    99117192.49604
        25.000        2027.555    24205432.602  
  21391156.945   112411209.15607        47.000        2123.660    87593250.86706
        38.000        1654.805    21391160.977  
  22026998.344   115752659.97307        47.000         540.164    90196886.20706
        39.000         420.926    22027001.109  
  21076572.922   110758143.51608        51.000         188.270    86305042.89508
        51.000         146.699    21076574.391  
  22402572.977   117726320.91407        43.000         252.805    91734801.60204
        29.000         197.000    22402575.219  
  22830600.656   119975626.51607        44.000        1735.371    93487518.70707
        43.000        1352.230    22830603.539  
  23910911.867   125652713.83206        39.000        3478.352    97911214.22703
        20.000        2710.441    23910919.586  
  19935685.102   106268456.71508        51.000        2404.578    82653218.68007
        46.000        1870.578    19935687.961  
  19981427.906   106699629.65606        41.000       -1825.113    82988605.56607
        43.000       -1419.453    19981430.375  
  19775312.656   105747482.40607        45.000       -1655.484    82247996.66807
        42.000       -1287.578    19775312.445  
  22818925.695   122065862.22307        44.000       -3657.477                  
                                                
  20902680.219   111854410.78908        51.000        1745.180    86997907.01208
        49.000        1357.543    20902680.781  
 23  7 24 20 57 50.0000000  0 14G24G11G28G25G29G12G20G05G18R14R13R24            
                                R23R17                                          
  22190113.359   116609889.05906        36.000       -3030.184    90864828.02004
        24.000       -2361.145    22190123.102  
  22346492.945   117431516.89107        46.000       -2756.934    91505143.62105
        35.000       -2148.277    22346494.055  
  24204936.602   127197809.64106        41.000        2601.270    99115172.17204
        25.000        2026.953    24204939.273  
  21390754.773   112409094.81607        47.000        2123.492    87591603.33206
        38.000        1654.668    21390758.656  
  22026897.445   115752129.10507        47.000         539.684    90196472.54306
        39.000         420.539    22026900.055  
  21076539.055   110757964.68408        51.000         187.559    86304903.54708
        51.000         146.152    21076540.375  
  22402526.711   117726077.16007        43.000         252.266    91734611.67204
        29.000         196.570    22402528.805  
  22830272.453   119973900.28507        44.000        1734.777    93486173.59407
        43.000        1351.793    22830275.078  
  23910252.047   125649245.07406        39.000        3477.543    97908511.29703
        20.000        2709.773    23910259.555  
  19935235.602   106266061.49608        51.000        2403.777    82651355.74607
        46.000        1869.703    19935238.578  
  19981771.727   106701464.34406        41.000       -1826.199    82990032.54307
        43.000       -1420.270    19981774.031  
  19775623.914   105749146.95707        45.000       -1655.641    82249291.32407
        42.000       -1287.777    19775624.070  
  22819611.211   122069528.32007        44.000       -3656.727                  
                                                
  20902355.766   111852674.79708        51.000        1744.793    86996556.80908
        49.000        1356.840    20902356.508  
 23  7 24 20 57 51.0000000  0 14G24G11G28G25G29G12G20G05G18R14R13R24            
                                R23R17                                          
  22190690.203   116612920.46906        36.000       -3029.594    90867190.15603
        22.000       -2360.664    22190699.938  
  22347017.695   117434275.33207        46.000       -2756.875    91507293.05105
        35.000       -2148.215    22347019.047  
  24204442.094   127195209.65606        41.000        2601.133    99113146.20304
        25.000        2026.859    24204444.461  
  21390350.891   112406973.01207        47.000        2123.051    87589949.97306
        38.000        1654.328    21390354.930  
  22026795.148   115751590.77308        48.000         539.648    90196053.06306
        39.000         420.488    22026797.609  
  21076503.586   110757778.54308        51.000         187.430    86304758.49608
        51.000         146.051    21076505.000  
  22402478.977   117725826.31307        43.000         251.746    91734416.20704
        29.000         196.176    22402481.078  
  22829942.547   119972166.70707        44.000        1734.855    93484822.75007
        43.000        1351.848    22829945.203  
  23909590.836   125645768.87506        39.000        3477.691    97905802.57403
        20.000        2709.875    23909598.180  
  19934785.023   106263659.12108        51.000        2403.129    82649487.21907
        46.000        1869.543    19934787.867  
  19982113.914   106703292.04706        41.000       -1827.332    82991454.07007
        43.000       -1420.656    19982116.383  
  19775933.742   105750804.30107        45.000       -1656.738    82250580.33607
        43.000       -1288.020    19775934.133  
  22820295.289   122073186.67207        44.000       -3657.266                  
                                                
  20902030.164   111850931.67208        51.000        1743.730    86995201.02308
        49.000        1356.516    20902030.953  
 23  7 24 20 57 52.0000000  0 14G24G11G28G25G29G12G20G05G18R14R13R24            
                                R23R17                                          
  22191264.438   116615937.79306        36.000       -3030.020    90869541.30903
        22.000       -2361.051    22191274.063  
  22347540.016   117437019.84807        46.000       -2757.668    91509431.63305
        35.000       -2148.836    22347541.336  
  24203944.469   127192595.77706        41.000        2600.609    99111109.41404
        25.000        2026.438    24203947.109  
  21389944.789   112404837.04707        47.000        2122.969    87588285.58206
        38.000        1654.281    21389948.477  
  22026689.820   115751038.30908        48.000         539.426    90195622.57406
        39.000         420.328    22026692.438  
  21076465.609   110757578.43008        51.000         187.031    86304602.56308
        51.000         145.738    21076466.938  
  22402428.453   117725561.69107        42.000         251.777    91734210.00404
        29.000         196.180    22402430.688  
  22829610.313   119970419.14507        44.000        1734.344    93483461.01207
        43.000        1351.453    22829612.641  
  23908926.516   125642278.60506        40.000        3477.043    97903082.89803
        20.000        2709.363    23908933.891  
  19934331.766   106261242.73408        51.000        2403.113    82647607.81607
        46.000        1869.078    19934334.602  
  19982453.727   106705105.86306        41.000       -1827.199    82992864.83607
        43.000       -1421.250    19982456.031  
  19776240.781   105752447.47307        45.000       -1656.598    82251858.40207
        43.000       -1288.840    19776241.438  
  22820976.664   122076830.36707        44.000       -3656.637                  
                                                
  20901701.750   111849174.50408        50.000        1744.055    86993834.36308
        49.000        1356.102    20901702.656  
 23  7 24 20 57 53.0000000  0 14G24G11G28G25G29G12G20G05G18R14R13R24            
                                R23R17                                          
  22191839.445   116618961.93006        36.000       -3030.656    90871897.78103
        22.000       -2361.555    22191849.781  
  22348063.859   117439771.18807        46.000       -2758.176    91511575.53905
        35.000       -2149.230    22348064.898  
  24203448.148   127189988.77306        41.000        2599.992    99109077.99204
        25.000        2025.961    24203451.117  
  21389539.359   112402707.74607        46.000        2122.625    87586626.39106
        38.000        1653.988    21389543.328  
  22026586.008   115750492.50808        48.000         539.172    90195197.27706
        39.000         420.137    22026588.531  
  21076428.750   110757385.13308        51.000         186.574    86304451.94508
        51.000         145.379    21076430.164  
  22402379.547   117725304.12907        43.000         251.059    91734009.30904
        29.000         195.602    22402381.633  
  22829278.523   119968678.36307        44.000        1734.176    93482104.55507
        43.000        1351.313    22829281.352  
  23908263.953   125638795.03106        40.000        3476.828    97900368.45303
        20.000        2709.148    23908270.773  
  19933879.672   106258833.49208        51.000        2402.742    82645733.96507
        46.000        1868.688    19933882.648  
  19982794.711   106706927.03106        41.000       -1828.031    82994281.30107
        43.000       -1421.961    19982796.914  
  19776549.273   105754097.73007        45.000       -1656.668    82253141.94107
        43.000       -1288.992    19776550.266  
  22821659.008   122080480.65207        44.000       -3656.199                  
                                                
  20901374.469   111847424.60208        51.000        1743.527    86992473.32808
        49.000        1355.516    20901375.797  
 23  7 24 20 57 54.0000000  0 14G24G11G28G25G29G12G20G05G18R14R13R24            
                                R23R17                                          
  22192419.008   116622002.05906        36.000       -3030.691    90874266.70703
        22.000       -2361.641    22192428.359  
  22348590.438   117442538.63707        46.000       -2758.625    91513732.00005
        34.000       -2149.578    22348591.555  
  24202955.297   127187397.92606        41.000        2600.273    99107059.15604
        25.000        2026.172    24202958.227  
  21389137.063   112400594.35207        47.000        2122.582    87584979.59806
        38.000        1653.949    21389141.188  
  22026484.992   115749962.63308        48.000         539.363    90194784.39506
        39.000         420.270    22026487.664  
  21076395.063   110757207.93408        51.000         186.262    86304313.87108
        51.000         145.137    21076396.438  
  22402333.594   117725062.89807        43.000         250.555    91733821.34404
        29.000         195.258    22402335.703  
  22828950.461   119966953.66007        45.000        1733.723    93480760.62907
        43.000        1350.949    22828953.102  
  23907604.305   125635327.45306        40.000        3476.617    97897666.44903
        20.000        2709.035    23907611.070  
  19933430.719   106256440.77308        51.000        2401.922    82643872.96107
        46.000        1868.129    19933433.828  
  19983139.023   106708764.91006        41.000       -1828.660    82995710.75807
        43.000       -1422.316    19983141.094  
  19776860.758   105755764.55507        44.000       -1657.977    82254438.34407
        43.000       -1289.449    19776862.086  
  22822344.367   122084146.94907        44.000       -3656.789                  
                                                
  20901050.320   111845691.36308        50.000        1742.352    86991125.23808
        49.000        1355.203    20901051.969  
 23  7 24 20 57 55.0000000  0 14G24G11G28G25G29G12G20G05G18R14R13R24            
                                R23R17                                          
  22192997.102   116625042.04306        36.000       -3031.074    90876635.52003
        23.000       -2361.895    22193006.906  
  22349116.953   117445306.01607        46.000       -2758.500    91515888.39805
        34.000       -2149.484    22349118.188  
  24202462.188   127184807.07406        41.000        2599.285    99105040.30504
        25.000        2025.395    24202465.336  
  21388734.945   112398480.71507        46.000        2122.527    87583332.60506
        38.000        1653.906    21388739.000  
  22026384.445   115749432.53108        48.000         538.734    90194371.33206
        39.000         419.809    22026386.789  
  21076361.375   110757030.64808        51.000         186.051    86304175.72708
        51.000         144.977    21076362.734  
  22402287.914   117724821.80507        43.000         249.773    91733633.47704
        29.000         194.621    22402289.813  
  22828622.445   119965228.85207        45.000        1733.652    93479416.62507
        43.000        1350.902    22828624.836  
  23906944.438   125631859.66406        40.000        3476.398    97894964.28903
        20.000        2708.855    23906951.219  
  19932982.070   106254048.20308        51.000        2401.051    82642012.07407
        46.000        1867.449    19932985.016  
  19983483.102   106710603.11306        41.000       -1829.617    82997140.46107
        43.000       -1422.980    19983485.414  
  19777172.586   105757431.43007        45.000       -1658.477    82255734.78507
        43.000       -1289.750    19777173.844  
  22823029.938   122087812.77707        44.000       -3656.977                  
                                                
  20900726.672   111843958.28508        51.000        1741.629    86989777.27708
        49.000        1354.949    20900728.242  
 23  7 24 20 57 56.0000000  0 14G24G11G28G25G29G12G20G05G18R14R13R24            
                                R23R17                                          
  22193573.430   116628068.84806        36.000       -3031.195    90878994.05103
        23.000       -2362.016    22193583.031  
  22349641.203   117448060.38307        46.000       -2759.344    91518034.65605
        34.000       -2150.141    22349642.336  
  24201966.547   127182203.23006        40.000        2599.145    99103011.33204
        24.000        2025.305    24201969.930  
  21388330.094   112396353.85207        46.000        2122.324    87581675.31306
        38.000        1653.777    21388334.297  
  22026280.797   115748889.20308        48.000         538.844    90193947.96106
        39.000         419.859    22026283.398  
  21076325.164   110756840.30108        51.000         185.766    86304027.39808
        51.000         144.754    21076326.539  
  22402239.852   117724567.87107        43.000         249.379    91733435.60504
        29.000         194.324    22402241.422  
  22828291.859   119963490.95707        44.000        1733.445    93478062.41807
        43.000        1350.762    22828294.117  
  23906282.094   125628378.71106        40.000        3476.363    97892251.86703
        20.000        2708.848    23906288.859  
  19932530.898   106251642.57808        51.000        2401.063    82640141.05107
        46.000        1867.105    19932533.828  
  19983825.031   106712428.41006        41.000       -1830.066    82998560.13307
        43.000       -1423.383    19983827.094  
  19777481.906   105759085.16007        45.000       -1658.535    82257021.04707
        43.000       -1289.934    19777483.273  
  22823713.070   122091464.91807        45.000       -3656.258                  
                                                
  20900400.672   111842212.14108        51.000        1741.715    86988419.19508
        49.000        1354.324    20900402.117  
 23  7 24 20 57 57.0000000  0 14G24G11G28G25G29G12G20G05G18R14R13R24            
                                R23R17                                          
  22194148.617   116631091.12506        36.000       -3031.379    90881349.08203
        23.000       -2362.121    22194158.391  
  22350164.344   117450810.21907        46.000       -2759.309    91520177.38705
        34.000       -2150.117    22350165.609  
  24201470.773   127179594.93006        40.000        2599.094    99100978.88704
        24.000        2025.262    24201473.656  
  21387924.555   112394222.30107        46.000        2122.203    87580014.36306
        38.000        1653.660    21387928.688  
  22026176.531   115748341.20308        48.000         538.695    90193520.94906
        39.000         419.762    22026179.109  
  21076287.883   110756645.44508        51.000         185.473    86303875.56308
        51.000         144.508    21076289.461  
  22402190.734   117724309.63307        43.000         249.012    91733234.38704
        29.000         194.031    22402192.211  
  22827960.273   119961748.53507        44.000        1732.859    93476704.69107
        43.000        1350.309    22827962.523  
  23905618.391   125624893.14106        40.000        3476.145    97889535.84803
        20.000        2708.676    23905625.422  
  19932078.883   106249232.65608        51.000        2399.770    82638266.63307
        46.000        1867.223    19932081.719  
  19984166.039   106714249.52706        41.000       -1831.488    82999976.54707
        42.000       -1423.902    19984168.063  
  19777790.422   105760734.46107        45.000       -1659.160    82258303.82407
        43.000       -1290.352    19777791.742  
  22824394.992   122095112.13707        45.000       -3657.277                  
                                                
  20900073.492   111840461.75408        51.000        1740.121    86987057.75408
        49.000        1354.008    20900075.008  
 23  7 24 20 57 58.0000000  0 14G24G11G28G25G29G12G20G05G18R14R13R24            
                                R23R17                                          
  22194725.781   116634125.34006        36.000       -3031.887    90883713.39503
        23.000       -2362.512    22194735.945  
  22350689.805   117453572.13707        46.000       -2760.152    91522329.53905
        34.000       -2150.777    22350691.203  
  24200976.438   127176998.75406        41.000        2598.457    99098955.89504
        24.000        2024.770    24200979.648  
  21387521.195   112392102.62507        47.000        2121.699    87578362.67206
        38.000        1653.277    21387525.359  
  22026074.336   115747805.09008        48.000         538.105    90193103.20306
        39.000         419.309    22026077.078  
  21076253.117   110756462.62908        51.000         184.863    86303733.10908
        51.000         144.047    21076254.664  
  22402143.922   117724063.68807        43.000         247.742    91733042.74204
        29.000         193.063    22402145.391  
  22827631.086   119960018.13307        44.000        1732.316    93475356.33207
        43.000        1349.852    22827633.219  
  23904957.266   125621419.51606        40.000        3475.938    97886829.13303
        20.000        2708.539    23904964.367  
  19931628.938   106246835.14808        51.000        2399.480    82636401.91807
        46.000        1866.039    19931632.094  
  19984509.555   106716083.24206        41.000       -1831.887    83001402.77707
        42.000       -1424.762    19984511.352  
  19778101.164   105762396.10507        45.000       -1659.586    82259596.21107
        43.000       -1290.871    19778102.789  
  22825078.945   122098771.20707        45.000       -3656.531                  
                                                
  20899748.625   111838723.80508        51.000        1739.973    86985706.02708
        49.000        1353.254    20899750.234  
 23  7 24 20 57 59.0000000  0 14G24G11G28G25G29G12G20G05G18R14R13R24            
                                R23R17                                          
  22195303.781   116637163.48006        36.000       -3032.496    90886080.77703
        22.000       -2363.000    22195314.289  
  22351216.102   117456338.04707        46.000       -2760.117    91524484.80105
        34.000       -2150.758    22351217.508  
  24200482.883   127174406.62106        40.000        2597.941    99096936.05104
        24.000        2024.363    24200486.453  
  21387118.461   112389986.75007        47.000        2121.660    87576713.94106
        38.000        1653.246    21387122.766  
  22025973.219   115747272.79308        48.000         538.113    90192688.42606
        39.000         419.313    22025975.789  
  21076219.227   110756283.79308        51.000         184.598    86303593.75408
        51.000         143.852    21076220.648  
  22402097.578   117723821.93807        43.000         247.617    91732854.35904
        29.000         192.961    22402099.422  
  22827302.844   119958291.66807        44.000        1732.117    93474011.03107
        43.000        1349.668    22827304.703  
  23904296.445   125617949.75406        41.000        3475.418    97884125.41803
        20.000        2708.113    23904303.992  
  19931179.992   106244441.87908        51.000        2399.098    82634540.48407
        46.000        1865.879    19931183.000  
  19984854.102   106717921.39806        41.000       -1832.828    83002832.45307
        42.000       -1425.465    19984855.508  
  19778412.758   105764061.98407        45.000       -1659.902    82260891.89807
        43.000       -1291.309    19778414.367  
  22825763.898   122102433.95707        45.000       -3656.621                  
                                                
  20899424.914   111836990.16808        51.000        1739.500    86984357.64108
        49.000        1352.844    20899426.383  
 23  7 24 20 58  0.0000000  0 14G24G11G28G25G29G12G20G05G18R14R13R24            
                                R23R17                                          
  22195879.133   116640190.30105        35.000       -3032.145    90888439.33603
        22.000       -2362.680    22195890.273  
  22351740.078   117459092.75807        46.000       -2760.301    91526631.32805
        34.000       -2150.871    22351741.742  
  24199987.813   127171803.34406        40.000        2597.543    99094907.53104
        25.000        2024.078    24199991.172  
  21386713.836   112387859.49607        47.000        2121.672    87575056.34006
        38.000        1653.254    21386717.961  
  22025869.547   115746729.12908        48.000         538.102    90192264.78906
        39.000         419.301    22025872.344  
  21076183.172   110756093.73808        51.000         184.332    86303445.66008
        51.000         143.648    21076184.508  
  22402049.305   117723569.18007        43.000         247.066    91732657.41404
        29.000         192.527    22402051.375  
  22826971.930   119956553.93407        44.000        1732.176    93472656.94907
        43.000        1349.777    22826974.031  
  23903634.547   125614468.66406        41.000        3475.445    97881412.89503
        20.000        2708.102    23903641.445  
  19930728.828   106242037.41008        51.000        2398.875    82632670.34407
        46.000        1865.590    19930731.883  
  19985196.250   106719748.51206        41.000       -1833.055    83004253.54707
        42.000       -1425.648    19985197.602  
  19778722.016   105765716.62507        45.000       -1660.406    82262178.84007
        43.000       -1291.352    19778723.742  
  22826446.422   122106084.88307        45.000       -3656.262                  
                                                
  20899098.898   111835245.38308        51.000        1739.180    86983000.59408
        49.000        1352.691    20899100.359  
 23  7 24 20 58  1.0000000  0 14G24G11G28G25G29G12G20G05G18R14R13R24            
                                R23R17                                          
  22196456.352   116643219.68806        36.000       -3032.211    90890799.88703
        22.000       -2362.738    22196466.617  
  22352264.734   117461850.12107        45.000       -2760.777    91528779.92205
        34.000       -2151.250    22352266.484  
  24199493.156   127169202.75406        40.000        2597.262    99092881.09804
        25.000        2023.844    24199496.430  
  21386309.227   112385734.69507        47.000        2121.734    87573400.65206
        38.000        1653.297    21386313.648  
  22025766.688   115746187.93008        48.000         538.031    90191843.07406
        39.000         419.242    22025769.328  
  21076147.492   110755906.31308        51.000         184.090    86303299.61308
        51.000         143.457    21076148.844  
  22402002.000   117723319.28907        43.000         246.484    91732462.69504
        29.000         192.031    22402003.820  
  22826641.680   119954818.80907        44.000        1731.879    93471304.90607
        43.000        1349.523    22826643.813  
  23902973.102   125610990.09006        41.000        3475.332    97878702.32403
        20.000        2708.055    23902979.367  
  19930278.055   106239635.82008        51.000        2398.082    82630802.44507
        46.000        1865.363    19930281.219  
  19985539.070   106721578.65206        41.000       -1833.531    83005677.01207
        42.000       -1426.223    19985540.227  
  19779031.367   105767374.08207        45.000       -1661.207    82263467.97707
        43.000       -1292.008    19779033.398  
  22827128.805   122109738.09407        44.000       -3656.324                  
                                                
  20898773.125   111833503.55108        50.000        1738.344    86981645.85508
        49.000        1352.008    20898774.828  
 23  7 24 20 58  2.0000000  0 14G24G11G28G25G29G12G20G05G18R14R13R24            
                                R23R17                                          
  22197035.430   116646261.46106        36.000       -3033.105    90893170.10503
        22.000       -2363.465    22197045.547  
  22352792.008   117464619.88707        45.000       -2760.969    91530938.18805
        34.000       -2151.410    22352793.555  
  24199000.383   127166614.65206        41.000        2596.523    99090864.38704
        25.000        2023.289    24199004.031  
  21385907.359   112383622.16407        47.000        2121.172    87571754.52306
        38.000        1652.887    21385911.672  
  22025666.016   115745658.97708        48.000         537.816    90191430.90206
        39.000         419.078    22025668.656  
  21076114.070   110755731.28508        51.000         183.641    86303163.23008
        51.000         143.102    21076115.555  
  22401956.953   117723082.01207        43.000         245.676    91732277.80904
        29.000         191.434    22401958.727  
  22826313.953   119953096.07407        45.000        1731.477    93469962.52007
        43.000        1349.188    22826315.984  
  23902313.539   125607523.82406        40.000        3474.582    97876001.34803
        20.000        2707.426    23902319.492  
  19929829.867   106237247.07408        51.000        2397.578    82628944.53507
        46.000        1864.797    19929832.898  
  19985884.281   106723421.84406        41.000       -1834.727    83007110.57807
        42.000       -1426.953    19985885.477  
  19779343.617   105769044.33607        44.000       -1661.617    82264767.06307
        43.000       -1291.984    19779345.898  
  22827813.938   122113403.62907        44.000       -3656.773                  
                                                
  20898450.289   111831774.66408        51.000        1737.652    86980301.14508
        50.000        1351.445    20898451.750  
 23  7 24 20 58  3.0000000  0 14G24G11G28G25G29G12G20G05G18R14R13R24            
                                R23R17                                          
  22197613.172   116649295.91005        34.000       -3033.395    90895534.59003
        22.000       -2363.652    22197622.953  
  22353317.867   117467382.51207        46.000       -2761.688    91533090.88305
        34.000       -2151.961    22353319.289  
  24198507.156   127164019.40606        41.000        2596.559    99088842.11304
        25.000        2023.242    24198510.250  
  21385503.977   112381502.22707        47.000        2121.156    87570102.62906
        38.000        1652.852    21385508.234  
  22025564.117   115745122.68808        48.000         537.371    90191013.01206
        39.000         418.727    22025566.625  
  21076079.422   110755549.06308        51.000         183.355    86303021.23808
        51.000         142.879    21076080.891  
  22401910.867   117722837.79707        44.000         245.359    91732087.51204
        29.000         191.180    22401912.336  
  22825984.781   119951366.11707        45.000        1730.813    93468614.49607
        43.000        1348.688    22825986.773  
  23901652.906   125604050.23806        41.000        3474.621    97873294.68803
        20.000        2707.473    23901658.539  
  19929380.242   106234851.23808        51.000        2396.785    82627081.11307
        46.000        1864.051    19929383.469  
  19986228.125   106725258.05106        41.000       -1835.191    83008538.76207
        42.000       -1427.473    19986229.234  
  19779655.039   105770707.37507        45.000       -1662.020    82266060.54307
        43.000       -1292.703    19779657.031  
  22828497.875   122117061.38307        44.000       -3656.719                  
                                                
  20898126.078   111830038.63308        51.000        1736.973    86978950.91808
        49.000        1351.059    20898127.313  
 23  7 24 20 58  4.0000000  0 14G24G11G28G25G29G12G20G05G18R14R13R24            
                                R23R17                                          
  22198186.406   116652316.25005        35.000       -3033.273    90897888.08603
        22.000       -2363.586    22198197.664  
  22353840.859   117470131.11707        45.000       -2761.805    91535232.65605
        34.000       -2152.063    22353842.375  
  24198010.305   127161410.23006        40.000        2596.332    99086808.99204
        25.000        2023.082    24198013.852  
  21385097.883   112379368.10907        47.000        2121.418    87568439.67606
        38.000        1653.074    21385102.133  
  22025459.172   115744572.19508        48.000         537.414    90190584.05906
        39.000         418.758    22025461.859  
  21076042.016   110755352.81308        51.000         183.234    86302868.31308
        51.000         142.793    21076043.555  
  22401861.828   117722579.74207        43.000         245.238    91731886.42204
        29.000         191.098    22401863.219  
  22825652.945   119949622.09407        45.000        1731.055    93467255.51207
        43.000        1348.855    22825654.906  
  23900988.531   125600562.54306        41.000        3474.605    97870577.01603
        20.000        2707.496    23900994.445  
  19928928.461   106232441.41408        51.000        2396.641    82625206.79307
        46.000        1863.883    19928931.547  
  19986569.602   106727080.43406        41.000       -1835.641    83009956.15607
        42.000       -1427.621    19986570.266  
  19779963.523   105772356.31607        45.000       -1662.023    82267343.04707
        43.000       -1292.750    19779965.219  
  22829178.961   122120704.51607        44.000       -3656.242                  
                                                
  20897799.250   111828288.61708        51.000        1736.680    86977589.78108
        49.000        1350.703    20897800.219  
 23  7 24 20 58  5.0000000  0 14G24G11G28G25G29G12G20G05G18R14R13R24            
                                R23R17                                          
  22198763.148   116655343.60505        34.000       -3033.750    90900247.05503
        22.000       -2363.938    22198773.688  
  22354365.250   117472886.80907        45.000       -2762.035    91537379.95705
        34.000       -2152.242    22354366.797  
  24197514.141   127158808.17606        41.000        2595.742    99084781.42204
        25.000        2022.641    24197518.820  
  21384693.109   112377240.88707        47.000        2120.918    87566782.10506
        38.000        1652.652    21384697.359  
  22025355.703   115744028.59808        48.000         537.508    90190160.48406
        39.000         418.801    22025358.398  
  21076005.992   110755163.62108        51.000         182.953    86302720.89508
        51.000         142.559    21076007.531  
  22401813.844   117722328.99207        43.000         244.473    91731691.03904
        29.000         190.484    22401815.516  
  22825322.078   119947885.11307        45.000        1730.824    93465902.02707
        43.000        1348.691    22825324.336  
  23900326.133   125597081.77306        41.000        3474.660    97867864.74603
        20.000        2707.500    23900331.828  
  19928477.797   106230038.91408        51.000        2395.922    82623338.18807
        46.000        1863.637    19928481.031  
  19986912.430   106728910.36306        41.000       -1836.574    83011379.44507
        42.000       -1428.277    19986913.055  
  19780273.102   105774012.52007        45.000       -1662.387    82268631.22707
        43.000       -1293.156    19780275.117  
  22829861.164   122124354.44107        44.000       -3656.203                  
                                                
  20897473.289   111826546.00408        51.000        1736.117    86976234.43808
        49.000        1350.305    20897474.555  
 23  7 24 20 58  6.0000000  0 14G24G11G28G25G29G12G20G05G18R14R13R24            
                                R23R17                                          
  22199342.383   116658387.04305        34.000       -3034.301    90902618.55103
        22.000       -2364.387    22199352.617  
  22354892.680   117475658.63707        45.000       -2762.324    91539539.82805
        34.000       -2152.453    22354894.266  
  24197022.320   127156222.32006        41.000        2595.145    99082766.47304
        25.000        2022.184    24197026.797  
  21384291.000   112375129.62907        47.000        2120.516    87565136.97306
        38.000        1652.336    21384295.641  
  22025255.414   115743500.98408        48.000         537.211    90189749.35906
        39.000         418.605    22025258.000  
  21075972.945   110754990.56308        51.000         182.398    86302586.04308
        51.000         142.109    21075974.586  
  22401769.008   117722094.60507        43.000         243.625    91731508.41004
        29.000         189.863    22401770.945  
  22824994.625   119946164.23807        45.000        1730.203    93464561.08607
        43.000        1348.195    22824996.875  
  23899667.156   125593617.05106        41.000        3473.922    97865164.98803
        20.000        2706.918    23899672.117  
  19928029.828   106227652.98408        51.000        2395.281    82621482.47307
        46.000        1863.082    19928033.547  
  19987257.789   106730757.07406        41.000       -1837.066    83012815.78907
        42.000       -1429.172    19987258.813  
  19780585.258   105775685.34407        44.000       -1663.520    82269932.29707
        43.000       -1293.563    19780587.922  
  22830546.383   122128020.39507        44.000       -3656.250                  
                                                
  20897150.336   111824820.13308        51.000        1735.227    86974892.09808
        49.000        1349.539    20897152.180  
 23  7 24 20 58  7.0000000  0 14G24G11G28G25G29G12G20G05G18R14R13R24            
                                R23R17                                          
  22199920.813   116661429.80105        34.000       -3034.238    90904989.51603
        21.000       -2364.332    22199931.594  
  22355420.250   117478429.91807        45.000       -2762.777    91541699.26205
        34.000       -2152.813    22355421.648  
  24196530.305   127153635.96106        41.000        2594.770    99080751.12504
        25.000        2021.906    24196534.750  
  21383889.227   112373017.61707        47.000        2120.617    87563491.24606
        38.000        1652.434    21383893.750  
  22025154.836   115742972.63708        48.000         536.934    90189337.65606
        39.000         418.395    22025157.484  
  21075940.063   110754816.92608        51.000         182.094    86302450.74208
        51.000         141.883    21075941.563  
  22401724.469   117721859.86307        43.000         243.152    91731325.49204
        29.000         189.465    22401726.258  
  22824667.055   119944442.75807        45.000        1730.043    93463219.66407
        43.000        1348.086    22824669.320  
  23899007.805   125590151.63306        41.000        3474.000    97862464.66803
        20.000        2707.023    23899012.109  
  19927582.102   106225266.66408        51.000        2394.879    82619626.44907
        46.000        1862.621    19927585.758  
  19987603.766   106732603.61706        41.000       -1838.246    83014251.96107
        42.000       -1429.742    19987604.547  
  19780897.633   105777357.74207        44.000       -1663.918    82271233.07007
        43.000       -1294.066    19780900.789  
  22831231.633   122131685.41407        44.000       -3656.469                  
                                                
  20896827.820   111823093.93008        51.000        1734.676    86973549.48408
        49.000        1349.348    20896829.469  
 23  7 24 20 58  8.0000000  0 14G24G11G28G25G29G12G20G05G18R14R13R24            
                                R23R17                                          
  22200498.688   116664459.40205        34.000       -3034.828    90907350.23003
        21.000       -2364.793    22200508.055  
  22355944.852   117481188.11307        45.000       -2762.961    91543848.50805
        34.000       -2152.938    22355946.539  
  24196035.617   127151036.56306        41.000        2594.395    99078725.61304
        25.000        2021.609    24196040.180  
  21383484.727   112370892.35207        47.000        2120.207    87561835.19506
        38.000        1652.109    21383489.344  
  22025051.852   115742431.03907        47.000         536.668    90188915.63306
        39.000         418.184    22025054.461  
  21075904.500   110754630.19108        51.000         181.613    86302305.23008
        51.000         141.520    21075906.047  
  22401677.203   117721612.23407        43.000         242.281    91731132.53504
        29.000         188.805    22401679.156  
  22824337.188   119942708.17207        45.000        1729.676    93461868.04307
        43.000        1347.777    22824339.273  
  23898346.000   125586673.01206        41.000        3473.719    97859754.04303
        20.000        2706.773    23898350.336  
  19927132.102   106222867.28908        51.000        2394.059    82617760.27007
        46.000        1861.996    19927135.570  
  19987947.055   106734437.18406        41.000       -1838.750    83015678.08607
        42.000       -1430.055    19987947.938  
  19781208.234   105779016.97707        44.000       -1664.805    82272523.57807
        43.000       -1294.785    19781210.938  
  22831913.938   122135336.69507        43.000       -3656.172                  
                                                
  20896502.563   111821354.64108        50.000        1733.906    86972196.71108
        49.000        1348.590    20896504.414  
 23  7 24 20 58  9.0000000  0 14G24G11G28G25G29G12G20G05G18R14R13R24            
                                R23R17                                          
  22201074.578   116667490.63305        34.000       -3034.348    90909712.23003
        21.000       -2364.410    22201084.766  
  22356470.102   117483948.05907        45.000       -2763.672    91545999.11305
        34.000       -2153.512    22356471.766  
  24195541.281   127148438.94506        41.000        2593.996    99076701.50004
        25.000        2021.277    24195545.953  
  21383080.531   112368768.62107        47.000        2120.477    87560180.34406
        38.000        1652.320    21383085.227  
  22024948.883   115741890.98407        47.000         536.523    90188494.81606
        39.000         418.066    22024951.688  
  21075869.258   110754445.16408        51.000         181.500    86302161.05908
        51.000         141.422    21075870.828  
  22401630.352   117721366.56607        42.000         241.727    91730941.10204
        29.000         188.324    22401632.406  
  22824007.258   119940975.25807        45.000        1729.340    93460517.71907
        43.000        1347.531    22824009.500  
  23897683.906   125583195.99206        41.000        3473.785    97857044.69103
        20.000        2706.816    23897688.563  
  19926682.398   106220469.90608        51.000        2393.691    82615895.61307
        46.000        1861.805    19926685.742  
  19988290.688   106736272.92206        41.000       -1839.492    83017105.85907
        42.000       -1430.672    19988291.492  
  19781518.914   105780678.06307        44.000       -1664.797    82273815.52307
        43.000       -1294.969    19781521.695  
  22832596.711   122138989.38307        44.000       -3656.207                  
                                                
  20896177.781   111819617.41808        50.000        1733.320    86970845.50408
        49.000        1348.191    20896179.695  
 23  7 24 20 58 10.0000000  0 14G24G11G28G25G29G12G20G05G18R14R13R24            
                                R23R17                                          
  22201653.391   116670533.92205        33.000       -3035.484    90912083.60903
        21.000       -2365.309    22201663.859  
  22356997.711   117486720.09807        45.000       -2763.898    91548159.14805
        34.000       -2153.703    22356999.305  
  24195049.461   127145853.48406        41.000        2593.871    99074686.85904
        25.000        2021.188    24195053.914  
  21382678.727   112366656.82007        47.000        2120.023    87558534.78106
        38.000        1651.961    21382683.406  
  22024848.344   115741362.87107        47.000         536.406    90188083.29706
        39.000         417.996    22024851.195  
  21075836.359   110754272.23008        51.000         181.199    86302026.30508
        51.000         141.195    21075837.906  
  22401585.953   117721133.19107        42.000         241.398    91730759.25804
        29.000         188.090    22401588.039  
  22823679.570   119939254.39807        45.000        1728.770    93459176.79707
        43.000        1347.121    22823682.031  
  23897024.789   125579730.95307        42.000        3473.551    97854344.67603
        20.000        2706.668    23897029.078  
  19926235.070   106218084.96908        51.000        2392.969    82614040.69107
        46.000        1861.281    19926238.297  
  19988636.805   106738121.26206        41.000       -1840.320    83018543.47707
        42.000       -1431.531    19988637.633  
  19781832.188   105782351.55907        44.000       -1665.121    82275117.14107
        43.000       -1295.043    19781834.727  
  22833282.008   122142653.94107        43.000       -3656.227                  
                                                
  20895855.453   111817892.69908        50.000        1732.848    86969504.08208
        49.000        1347.859    20895857.320  
 23  7 24 20 58 11.0000000  0 14G24G11G28G25G29G12G20G05G18R14R13R24            
                                R23R17                                          
  22202231.789   116673569.83205        33.000       -3035.535    90914449.23803
        20.000       -2365.336    22202241.406  
  22357523.813   117489484.93007        45.000       -2764.324    91550313.56605
        34.000       -2154.031    22357525.492  
  24194556.094   127143260.90606        41.000        2593.117    99072666.67604
        25.000        2020.613    24194560.656  
  21382275.391   112364537.62107        47.000        2119.977    87556883.45706
        38.000        1651.938    21382280.172  
  22024746.758   115740827.37907        47.000         536.035    90187666.02706
        39.000         417.691    22024749.352  
  21075802.141   110754092.07808        51.000         180.824    86301885.92608
        51.000         140.902    21075803.641  
  22401540.258   117720892.82007        43.000         241.109    91730571.95304
        29.000         187.859    22401542.289  
  22823350.609   119937526.31607        45.000        1728.551    93457830.23807
        43.000        1346.918    22823353.203  
  23896364.359   125576258.61307        42.000        3472.957    97851638.94903
        20.000        2706.215    23896368.133  
  19925786.508   106215692.94108        51.000        2392.824    82612180.22307
        46.000        1860.766    19925789.469  
  19988981.508   106739962.64806        41.000       -1840.777    83019975.66407
        42.000       -1431.855    19988982.586  
  19782143.984   105784017.91007        45.000       -1665.395    82276413.19907
        43.000       -1295.727    19782146.313  
  22833966.031   122146310.78907        43.000       -3655.516                  
                                                
  20895531.922   111816160.93808        50.000        1732.625    86968157.16008
        50.000        1347.387    20895533.813  
 23  7 24 20 58 12.0000000  0 14G24G11G28G25G29G12G20G05G18R14R13R24            
                                R23R17                                          
  22202808.273   116676597.55105        33.000       -3035.199    90916808.50003
        20.000       -2365.086    22202817.641  
  22358048.180   117492241.62507        45.000       -2764.641    91552461.63705
        34.000       -2154.266    22358050.102  
  24194060.984   127140660.20306        41.000        2592.523    99070640.16404
        25.000        2020.113    24194065.914  
  21381870.422   112362410.10907        47.000        2119.402    87555225.66006
        38.000        1651.473    21381875.352  
  22024643.211   115740283.56307        47.000         536.012    90187242.27306
        39.000         417.680    22024645.898  
  21075766.352   110753903.77308        51.000         180.324    86301739.19108
        51.000         140.504    21075767.797  
  22401492.969   117720644.54707        43.000         239.754    91730378.50004
        29.000         186.793    22401495.031  
  22823020.227   119935790.03507        45.000        1728.516    93456477.29707
        43.000        1346.898    22823022.820  
  23895701.922   125572777.96906        41.000        3472.953    97848926.77003
        20.000        2706.180    23895705.508  
  19925336.234   106213292.87108        51.000        2391.426    82610313.48807
        46.000        1860.293    19925339.336  
  19989324.789   106741796.15606        41.000       -1842.324    83021401.71507
        42.000       -1432.477    19989326.000  
  19782453.953   105785676.16807        44.000       -1667.234    82277702.91407
        43.000       -1295.953    19782456.281  
  22834648.094   122149958.98007        43.000       -3656.563                  
                                                
  20895206.664   111814421.16808        50.000        1730.953    86966803.98408
        50.000        1346.680    20895208.602  
 23  7 24 20 58 13.0000000  0 14G24G11G28G25G29G12G20G05G18R14R13R24            
                                R23R17                                          
  22203386.813   116679635.39805        33.000       -3036.184    90919175.64503
        20.000       -2365.836    22203395.633  
  22358574.656   117495008.50407        45.000       -2764.918    91554617.65205
        34.000       -2154.480    22358576.648  
  24193568.219   127138069.75806        41.000        2592.207    99068621.64504
        25.000        2019.898    24193573.008  
  21381467.609   112360292.57407        47.000        2119.699    87553575.64106
        38.000        1651.719    21381472.430  
  22024541.305   115739749.75407        47.000         536.004    90186826.32006
        39.000         417.672    22024544.289  
  21075732.438   110753725.61708        51.000         180.277    86301600.37108
        51.000         140.473    21075733.883  
  22401447.875   117720406.62107        43.000         239.984    91730193.10904
        29.000         186.988    22401449.766  
  22822691.891   119934063.89507        45.000        1728.145    93455132.25007
        43.000        1346.605    22822694.336  
  23895041.367   125569307.39106        41.000        3472.703    97846222.43003
        20.000        2705.980    23895044.820  
  19924887.883   106210903.28108        51.000        2391.633    82608454.93007
        46.000        1860.113    19924891.242  
  19989670.094   106743640.33606        41.000       -1841.820    83022836.09807
        42.000       -1432.883    19989671.141  
  19782765.906   105787344.80907        45.000       -1666.395    82279000.79307
        43.000       -1296.055    19782768.414  
  22835332.055   122153617.08207        44.000       -3655.828                  
                                                
  20894883.438   111812691.93008        50.000        1731.113    86965459.03908
        50.000        1346.387    20894885.367  
 23  7 24 20 58 14.0000000  0 14G24G11G28G25G29G12G20G05G18R14R13R24            
                                R23R17                                          
  22203965.289   116682676.56605        32.000       -3035.230    90921545.37103
        20.000       -2365.117    22203974.273  
  22359101.664   117497778.83207        45.000       -2765.371    91556776.34805
        34.000       -2154.844    22359103.883  
  24193076.156   127135482.80906        41.000        2591.691    99066605.84404
        25.000        2019.484    24193080.828  
  21381065.359   112358178.31307        47.000        2119.488    87551928.16406
        38.000        1651.551    21381070.109  
  22024440.461   115739219.24207        47.000         535.582    90186412.93406
        39.000         417.344    22024443.352  
  21075699.227   110753550.91808        51.000         179.629    86301464.24208
        51.000         139.977    21075700.633  
  22401402.969   117720172.35907        43.000         239.184    91730010.57404
        29.000         186.371    22401405.180  
  22822363.922   119932341.17207        45.000        1727.848    93453789.87907
        43.000        1346.387    22822366.555  
  23894381.453   125565840.15206        41.000        3472.434    97843520.69903
        20.000        2705.793    23894384.898  
  19924440.297   106208517.43408        51.000        2390.457    82606599.25807
        46.000        1859.750    19924443.680  
  19990016.016   106745488.46106        41.000       -1843.863    83024273.49607
        42.000       -1433.770    19990017.180  
  19783078.617   105789017.18807        45.000       -1668.000    82280301.49607
        43.000       -1296.770    19783080.992  
  22836016.664   122157278.36307        44.000       -3656.688                  
                                                
  20894561.141   111810966.45308        50.000        1729.973    86964116.98808
        50.000        1346.047    20894562.828  
 23  7 24 20 58 15.0000000  0 14G24G11G28G25G29G12G20G05G18R14R13R24            
                                R23R17                                          
  22204542.273   116685706.12505        32.000       -3035.570    90923906.05103
        20.000       -2365.363    22204550.680  
  22359626.789   117500537.68007        45.000       -2765.582    91558926.09405
        34.000       -2154.996    22359628.906  
  24192581.156   127132884.42606        40.000        2591.281    99064581.12104
        25.000        2019.234    24192586.383  
  21380660.750   112356052.37907        47.000        2119.199    87550271.59006
        38.000        1651.324    21380665.547  
  22024337.219   115738677.05107        47.000         535.656    90185990.45306
        39.000         417.371    22024340.227  
  21075663.711   110753364.70308        51.000         179.598    86301319.13708
        51.000         139.949    21075665.188  
  22401356.016   117719926.83607        43.000         238.621    91729819.25004
        29.000         185.930    22401358.516  
  22822034.172   119930606.92207        45.000        1727.523    93452438.51207
        43.000        1346.145    22822036.602  
  23893719.547   125562361.30506        41.000        3471.945    97840809.91803
        20.000        2705.414    23893722.688  
  19923990.563   106206120.06308        51.000        2390.238    82604734.65607
        46.000        1859.242    19923993.781  
  19990359.836   106747325.17606        41.000       -1843.824    83025702.08607
        42.000       -1434.000    19990360.992  
  19783389.516   105790677.91007        45.000       -1667.668    82281593.18407
        43.000       -1296.840    19783391.289  
  22836698.898   122160927.51207        43.000       -3656.023                  
                                                
  20894236.602   111809229.47308        50.000        1729.984    86962766.02308
        49.000        1345.395    20894238.219  
 23  7 24 20 58 16.0000000  0 14G24G11G28G25G29G12G20G05G18R14R13R24            
                                R23R17                                          
  22205117.430   116688738.20705        32.000       -3037.266    90926268.69903
        20.000       -2366.699    22205127.414  
  22360152.063   117503299.09007        45.000       -2765.957    91561077.84805
        34.000       -2155.305    22360154.414  
  24192086.891   127130288.64506        41.000        2591.711    99062558.43404
        25.000        2019.488    24192092.578  
  21380256.828   112353928.84407        47.000        2119.066    87548616.89106
        39.000        1651.211    21380261.469  
  22024234.570   115738137.26607        47.000         535.426    90185569.84406
        39.000         417.215    22024237.516  
  21075628.641   110753181.04308        51.000         179.340    86301176.02308
        51.000         139.758    21075630.219  
  22401309.703   117719684.07407        42.000         237.980    91729630.09004
        28.000         185.434    22401312.344  
  22821704.242   119928875.20307        45.000        1727.508    93451089.11707
        43.000        1346.098    22821707.125  
  23893058.227   125558884.87107        42.000        3472.465    97838101.01603
        20.000        2705.797    23893061.023  
  19923541.258   106203725.50408        51.000        2389.992    82602872.21107
        46.000        1859.039    19923544.711  
  19990704.039   106749164.91806        41.000       -1844.613    83027132.99207
        42.000       -1434.543    19990705.742  
  19783700.500   105792341.41007        46.000       -1667.852    82282887.01607
        43.000       -1297.430    19783702.313  
  22837381.055   122164578.90607        43.000       -3655.641                  
                                                
  20893912.273   111807495.41408        50.000        1729.496    86961417.31308
        49.000        1345.082    20893914.109  
 23  7 24 20 58 17.0000000  0 14G24G11G28G25G29G12G20G05G18R14R13R24            
                                R23R17                                          
  22205698.320   116691782.68405        31.000       -3036.512    90928641.00803
        20.000       -2366.078    22205706.172  
  22360679.906   117506072.98807        45.000       -2766.129    91563239.32405
        34.000       -2155.422    22360682.305  
  24191595.586   127127705.42606        41.000        2591.164    99060545.53504
        25.000        2019.109    24191601.055  
  21379855.234   112351817.59407        47.000        2118.938    87546971.76606
        39.000        1651.117    21379859.742  
  22024134.180   115737609.78107        47.000         535.031    90185158.82006
        39.000         416.922    22024137.133  
  21075596.406   110753009.85508        51.000         178.820    86301042.63308
        51.000         139.336    21075597.617  
  22401265.797   117719454.01607        42.000         237.723    91729450.82404
        28.000         185.242    22401268.570  
  22821376.891   119927155.90207        45.000        1727.145    93449749.40607
        43.000        1345.855    22821379.969  
  23892398.820   125555420.82807        42.000        3471.672    97835401.78103
        20.000        2705.191    23892401.641  
  19923094.563   106201343.83208        51.000        2389.473    82601019.81307
        46.000        1858.445    19923097.898  
  19991051.141   106751017.75006        41.000       -1845.027    83028574.06307
        42.000       -1434.926    19991052.508  
  19784013.914   105794017.74207        45.000       -1668.328    82284190.82807
        43.000       -1297.777    19784015.836  
  22838065.922   122168242.60907        43.000       -3655.418                  
                                                
  20893590.719   111805774.36708        50.000        1728.973    86960078.71108
        49.000        1344.453    20893592.469  
 23  7 24 20 58 18.0000000  0 14G24G11G28G25G29G12G20G05G18R14R13R24            
                                R23R17                                          
  22206275.492   116694820.16005        31.000       -3036.707    90931007.85503
        20.000       -2366.230    22206283.844  
  22361206.367   117508840.01207        45.000       -2766.668    91565395.44505
        34.000       -2155.836    22361208.859  
  24191102.711   127125115.38706        41.000        2590.133    99058527.32404
        25.000        2018.297    24191108.266  
  21379451.930   112349699.31307        47.000        2118.516    87545321.15206
        39.000        1650.793    21379456.641  
  22024032.469   115737075.24207        47.000         534.875    90184742.29306
        39.000         416.789    22024035.422  
  21075562.414   110752831.78108        51.000         178.441    86300903.87108
        51.000         139.047    21075563.727  
  22401221.047   117719217.29307        43.000         237.027    91729266.36304
        28.000         184.727    22401223.469  
  22821048.828   119925429.69907        45.000        1726.504    93448404.31607
        43.000        1345.324    22821051.516  
  23891738.297   125551949.79307        42.000        3471.602    97832697.08603
        20.000        2705.105    23891741.305  
  19922646.609   106198955.43008        51.000        2388.676    82599162.17207
        46.000        1857.879    19922649.492  
  19991396.805   106752863.96506        41.000       -1845.891    83030010.01207
        42.000       -1435.871    19991398.336  
  19784326.227   105795687.26207        45.000       -1669.637    82285489.34007
        43.000       -1298.125    19784328.203  
  22838749.570   122171898.94507        44.000       -3655.840                  
                                                
  20893268.070   111804046.53108        50.000        1727.898    86958734.85508
        49.000        1343.953    20893269.633  
 23  7 24 20 58 19.0000000  0 14G24G11G28G25G29G12G20G05G18R14R13R24            
                                R23R17                                          
  22206851.883   116697843.82805        31.000       -3037.008    90933363.95303
        20.000       -2366.469    22206859.055  
  22361730.234   117511593.24607        45.000       -2766.664    91567540.82405
        34.000       -2155.816    22361732.781  
  24190607.203   127122511.59806        41.000        2589.887    99056498.39104
        25.000        2018.051    24190612.797  
  21379046.063   112347567.02707        47.000        2118.531    87543659.63706
        39.000        1650.793    21379050.859  
  22023927.922   115736526.73407        47.000         534.910    90184314.88706
        39.000         416.785    22023931.070  
  21075525.766   110752639.88308        51.000         178.188    86300754.34008
        51.000         138.855    21075527.188  
  22401173.508   117718966.98007        43.000         236.086    91729071.31304
        28.000         183.969    22401175.883  
  22820717.664   119923689.67207        45.000        1726.039    93447048.44907
        43.000        1344.984    22820720.438  
  23891074.828   125548464.82007        42.000        3471.289    97829981.53103
        20.000        2704.895    23891077.953  
  19922195.977   106196553.24608        51.000        2387.973    82597293.80107
        46.000        1857.500    19922198.836  
  19991740.039   106754696.52006        41.000       -1846.742    83031435.32806
        41.000       -1436.469    19991741.336  
  19784635.789   105797342.87507        45.000       -1669.793    82286777.05507
        43.000       -1298.695    19784637.836  
  22839430.563   122175540.82807        44.000       -3656.020                  
                                                
  20892942.555   111802304.88708        50.000        1727.281    86957380.22708
        49.000        1343.602    20892944.172  
 23  7 24 20 58 20.0000000  0 14G24G11G28G25G29G12G20G05G18R14R13R24            
                                R23R17                                          
  22207428.063   116700874.52305        31.000       -3037.887    90935725.53103
        20.000       -2367.203    22207435.516  
  22362255.273   117514353.65607        45.000       -2767.316    91569691.79705
        34.000       -2156.359    22362258.117  
  24190112.781   127119915.02706        41.000        2589.727    99054475.09804
        25.000        2017.973    24190118.781  
  21378641.695   112345441.75007        47.000        2118.309    87542003.58206
        39.000        1650.629    21378646.461  
  22023824.938   115735985.24207        47.000         534.609    90183892.94906
        39.000         416.566    22023828.000  
  21075490.727   110752455.16408        51.000         177.766    86300610.40608
        51.000         138.512    21075492.031  
  22401127.305   117718724.06307        43.000         235.715    91728882.02704
        29.000         183.672    22401129.641  
  22820388.078   119921956.76607        45.000        1725.762    93445698.13707
        43.000        1344.754    22820390.695  
  23890413.148   125544986.92607        42.000        3470.664    97827271.48003
        20.000        2704.402    23890416.180  
  19921746.641   106194158.52708        51.000        2387.484    82595431.25407
        45.000        1856.816    19921749.281  
  19992084.453   106756536.72306        41.000       -1847.785    83032866.60906
        41.000       -1437.309    19992085.914  
  19784946.563   105799005.87107        45.000       -1670.242    82288070.49207
        42.000       -1298.988    19784948.203  
  22840112.484   122179189.62107        44.000       -3655.855                  
                                                
  20892618.344   111800570.76608        50.000        1726.867    86956031.46908
        49.000        1343.074    20892620.086  
 23  7 24 20 58 21.0000000  0 14G24G11G28G25G29G12G20G05G18R14R13R24            
                                R23R17                                          
  22208007.445   116703921.76205        31.000       -3038.148    90938100.00403
        20.000       -2367.414    22208015.367  
  22362783.867   117517130.68407        45.000       -2767.531    91571855.71505
        34.000       -2156.516    22362786.563  
  24189622.125   127117335.14106        41.000        2589.488    99052464.81304
        25.000        2017.813    24189627.883  
  21378240.523   112343332.89807        47.000        2118.492    87540360.32406
        39.000        1650.766    21378245.172  
  22023725.281   115735460.17208        48.000         534.723    90183483.81306
        39.000         416.660    22023728.102  
  21075458.609   110752287.03508        51.000         177.785    86300479.40208
        51.000         138.527    21075460.008  
  22401084.578   117718497.96507        43.000         235.273    91728705.85204
        29.000         183.324    22401086.633  
  22820061.203   119920240.41807        44.000        1726.113    93444360.72307
        43.000        1345.031    22820064.078  
  23889754.172   125541525.49207        42.000        3471.168    97824574.27703
        20.000        2704.777    23889757.320  
  19921300.719   106191780.82008        51.000        2387.313    82593581.91807
        45.000        1857.000    19921303.328  
  19992432.453   106758394.12906        41.000       -1847.648    83034311.25406
        41.000       -1437.352    19992433.820  
  19785261.164   105800685.87507        46.000       -1670.340    82289377.17607
        42.000       -1299.648    19785262.383  
  22840797.570   122182854.91007        43.000       -3655.410                  
                                                
  20892297.617   111798853.82008        50.000        1726.625    86954696.06608
        50.000        1342.941    20892299.273  
 23  7 24 20 58 22.0000000  0 14G24G11G28G25G29G12G20G05G18R14R13R24            
                                R23R17                                          
  22208588.500   116706974.63305        30.000       -3037.453    90940478.86303
        20.000       -2366.852    22208596.109  
  22363313.570   117519913.53507        45.000       -2768.016    91574024.17205
        33.000       -2156.902    22363316.102  
  24189132.266   127114761.15606        41.000        2589.051    99050459.11304
        25.000        2017.438    24189138.133  
  21377840.461   112341229.69507        47.000        2118.207    87538721.46506
        39.000        1650.555    21377844.938  
  22023626.453   115734940.76607        47.000         534.520    90183079.07806
        39.000         416.500    22023629.297  
  21075427.734   110752124.73408        51.000         177.266    86300352.93408
        51.000         138.133    21075429.109  
  22401042.414   117718277.89807        43.000         234.930    91728534.37104
        29.000         183.063    22401044.773  
  22819736.023   119918529.87507        44.000        1725.824    93443027.83207
        43.000        1344.781    22819738.594  
  23889096.555   125538069.79707        42.000        3470.137    97821881.53503
        20.000        2704.023    23889099.992  
  19920855.961   106189409.21908        51.000        2386.766    82591737.35507
        45.000        1856.348    19920858.414  
  19992781.438   106760257.80906        41.000       -1848.664    83035760.78106
        41.000       -1437.844    19992782.859  
  19785576.484   105802371.96107        46.000       -1671.215    82290688.56307
        42.000       -1299.535    19785577.820  
  22841483.992   122186525.74607        43.000       -3655.598                  
                                                
  20891978.477   111797143.09008        50.000        1725.852    86953365.49208
        49.000        1342.332    20891979.516  
 23  7 24 20 58 23.0000000  0 14G24G11G28G25G29G12G20G05G18R14R13R24            
                                R23R17                                          
  22209166.773   116710015.80505        30.000       -3039.188    90942848.62103
        20.000       -2368.199    22209174.609  
  22363840.844   117522684.55907        45.000       -2768.211    91576183.41005
        33.000       -2157.070    22363843.391  
  24188640.375   127112175.38306        41.000        2588.695    99048444.22304
        25.000        2017.168    24188646.133  
  21377437.711   112339114.47307        47.000        2117.793    87537073.23806
        39.000        1650.230    21377442.414  
  22023525.234   115734409.35207        47.000         534.066    90182664.98806
        40.000         416.152    22023528.227  
  21075394.664   110751950.59408        51.000         176.660    86300217.23808
        51.000         137.660    21075395.977  
  22400998.031   117718046.20307        43.000         234.352    91728353.82404
        29.000         182.598    22401000.734  
  22819408.172   119916807.45307        44.000        1725.355    93441685.68407
        43.000        1344.449    22819410.898  
  23888436.758   125534602.11306        41.000        3470.762    97819179.44903
        20.000        2704.469    23888439.875  
  19920408.883   106187025.87508        51.000        2385.699    82589883.62907
        46.000        1855.715    19920411.203  
  19993128.352   106762109.87106        41.000       -1849.895    83037201.25806
        41.000       -1438.609    19993129.578  
  19785890.109   105804046.20307        47.000       -1671.902    82291990.72707
        42.000       -1300.145    19785891.094  
  22842168.211   122190184.15207        43.000       -3655.621                  
                                                
  20891657.125   111795420.61308        50.000        1724.691    86952025.77308
        50.000        1341.570    20891657.586  
 23  7 24 20 58 24.0000000  0 14G24G11G28G25G29G12G20G05G18R14R13R24            
                                R23R17                                          
  22209743.180   116713041.52004        29.000       -3037.762    90945206.31303
        20.000       -2367.066    22209749.977  
  22364365.086   117525440.38307        45.000       -2768.375    91578330.80905
        33.000       -2157.172    22364367.805  
  24188145.547   127109574.45306        41.000        2587.563    99046417.51604
        25.000        2016.277    24188151.250  
  21377032.258   112336983.86307        47.000        2117.820    87535413.02006
        39.000        1650.246    21377036.977  
  22023421.172   115733862.55107        47.000         533.840    90182238.91006
        40.000         415.965    22023424.211  
  21075358.805   110751761.20708        51.000         176.578    86300069.66008
        51.000         137.586    21075359.914  
  22400951.516   117717799.53107        43.000         233.684    91728161.61704
        29.000         182.086    22400953.828  
  22819077.633   119915069.79307        44.000        1724.781    93440331.66407
        43.000        1343.977    22819080.289  
  23887774.016   125531119.13306        41.000        3470.113    97816465.45703
        20.000        2703.938    23887777.133  
  19919958.953   106184627.28908        51.000        2385.500    82588018.07407
        46.000        1855.246    19919961.258  
  19993472.008   106763946.82006        41.000       -1850.109    83038630.00006
        41.000       -1438.898    19993473.344  
  19786200.586   105805705.03907        46.000       -1672.023    82293280.96107
        43.000       -1300.270    19786201.531  
  22842849.773   122193826.62907        44.000       -3655.668                  
                                                
  20891332.570   111793682.81608        50.000        1724.352    86950674.18408
        50.000        1341.063    20891332.883  
 23  7 24 20 58 25.0000000  0 14G24G11G28G25G29G12G20G05G18R14R13R24            
                                R23R17                                          
  22210319.570   116716074.04704        29.000       -3038.918    90947569.29303
        20.000       -2367.977    22210326.727  
  22364890.898   117528203.09007        45.000       -2768.590    91580483.57005
        33.000       -2157.332    22364893.531  
  24187651.883   127106980.46906        41.000        2587.965    99044396.24204
        25.000        2016.590    24187657.617  
  21376627.820   112334859.95307        47.000        2118.090    87533758.02306
        39.000        1650.445    21376632.828  
  22023318.344   115733322.46108        48.000         534.137    90181818.07006
        40.000         416.211    22023321.414  
  21075323.852   110751578.70308        51.000         176.621    86299927.45308
        51.000         137.621    21075325.164  
  22400905.297   117717559.93807        43.000         233.563    91727974.92604
        29.000         181.984    22400908.234  
  22818748.047   119913338.96507        44.000        1724.836    93438982.96507
        43.000        1344.023    22818750.953  
  23887112.828   125527642.90606        41.000        3470.129    97813756.72703
        20.000        2704.023    23887115.367  
  19919510.398   106182235.89808        51.000        2385.516    82586158.10207
        45.000        1855.242    19919512.570  
  19993817.508   106765791.13306        41.000       -1850.457    83040064.48006
        41.000       -1439.262    19993818.727  
  19786511.977   105807371.01607        46.000       -1671.688    82294576.71907
        43.000       -1300.352    19786513.422  
  22843531.992   122197475.73407        44.000       -3654.699                  
                                                
  20891009.008   111791952.27308        51.000        1724.961    86949328.19508
        49.000        1341.203    20891009.484  
 23  7 24 20 58 26.0000000  0 14G24G11G28G25G29G12G20G05G18R14R13R24            
                                R23R17                                          
  22210900.008   116719122.49204        28.000       -3041.277    90949944.70303
        20.000       -2369.844    22210906.727  
  22365419.492   117530981.73407        45.000       -2769.176    91582648.75005
        33.000       -2157.801    22365422.297  
  24187161.055   127104402.47306        40.000        2587.434    99042387.42204
        25.000        2016.168    24187167.031  
  21376226.938   112332751.80107        47.000        2117.699    87532115.30906
        39.000        1650.156    21376231.688  
  22023218.531   115732798.12507        47.000         533.773    90181409.49606
        40.000         415.930    22023221.672  
  21075292.117   110751412.12508        51.000         176.082    86299797.65608
        51.000         137.203    21075293.438  
  22400863.000   117717336.49607        43.000         232.801    91727800.82804
        29.000         181.410    22400865.680  
  22818421.695   119911624.03507        44.000        1724.469    93437646.65607
        43.000        1343.738    22818424.609  
  23886453.938   125524182.50406        41.000        3469.727    97811060.30903
        20.000        2703.707    23886456.922  
  19919065.141   106179860.89808        51.000        2384.508    82584310.85907
        45.000        1854.621    19919066.797  
  19994166.375   106767652.05506        41.000       -1851.422    83041511.83606
        41.000       -1439.824    19994167.227  
  19786826.992   105809053.39507        47.000       -1672.684    82295885.21507
        43.000       -1300.969    19786827.969  
  22844217.188   122201140.73407        44.000       -3654.980                  
                                                
  20890688.992   111790238.25408        51.000        1723.637    86947995.03908
        49.000        1340.637    20890689.203  
 23  7 24 20 58 27.0000000  0 14G24G11G28G25G29G12G20G05G18R14R13R24            
                                R23R17                                          
  22211479.508   116722170.00804        29.000       -3037.500    90952319.39103
        20.000       -2366.852    22211486.391  
  22365948.703   117533759.66007        45.000       -2769.852    91584813.37105
        33.000       -2158.320    22365950.883  
  24186670.273   127101823.81306        40.000        2587.059    99040378.07404
        25.000        2015.895    24186676.453  
  21375825.555   112330642.74207        47.000        2117.273    87530471.88706
        39.000        1649.828    21375830.359  
  22023118.867   115732272.91008        48.000         533.582    90181000.24206
        40.000         415.789    22023121.750  
  21075260.555   110751244.81308        51.000         175.551    86299667.28108
        51.000         136.801    21075261.602  
  22400820.297   117717112.57407        42.000         231.797    91727626.34004
        29.000         180.613    22400823.047  
  22818095.508   119909908.39107        44.000        1723.832    93436309.78907
        43.000        1343.254    22818098.164  
  23885795.328   125520721.25407        42.000        3469.105    97808363.23803
        20.000        2703.199    23885798.320  
  19918619.563   106177485.33608        51.000        2383.887    82582463.19507
        45.000        1854.160    19918621.195  
  19994514.734   106769512.59406        41.000       -1852.301    83042958.92206
        41.000       -1440.367    19994515.797  
  19787141.836   105810735.16807        47.000       -1673.449    82297193.25807
        43.000       -1301.672    19787142.406  
  22844902.383   122204804.58607        45.000       -3655.254                  
                                                
  20890368.789   111788523.70308        51.000        1722.816    86946661.50008
        50.000        1340.027    20890368.930  
 23  7 24 20 58 28.0000000  0 14G24G11G28G25G29G12G20G05G18R14R13R24            
                                R23R17                                          
  22212057.633   116725204.02304        29.000       -3038.645    90954683.53103
        20.000       -2367.758    22212063.547  
  22366474.398   117536524.12907        45.000       -2770.625    91586967.50005
        33.000       -2158.922    22366476.945  
  24186176.891   127099231.76206        40.000        2586.031    99038358.29304
        25.000        2015.094    24186183.305  
  21375421.867   112328520.03507        47.000        2116.777    87528817.82806
        39.000        1649.449    21375426.453  
  22023016.570   115731734.07007        47.000         532.793    90180580.36306
        40.000         415.172    22023019.266  
  21075226.148   110751064.01608        51.000         174.758    86299526.39808
        51.000         136.172    21075227.180  
  22400775.367   117716875.35907        42.000         231.242    91727441.50004
        29.000         180.184    22400777.891  
  22817766.023   119908179.19507        44.000        1723.461    93434962.37107
        43.000        1342.926    22817769.102  
  23885133.672   125517246.39807        42.000        3469.047    97805655.57403
        20.000        2703.129    23885136.891  
  19918171.508   106175096.32408        51.000        2382.934    82580605.09007
        45.000        1853.141    19918172.922  
  19994861.266   106771359.83606        41.000       -1853.105    83044395.67206
        41.000       -1441.566    19994861.523  
  19787454.125   105812403.34007        47.000       -1674.098    82298490.72707
        43.000       -1302.152    19787454.375  
  22845584.922   122208454.30507        45.000       -3655.059                  
                                                
  20890045.945   111786795.69108        50.000        1722.004    86945317.49608
        50.000        1339.324    20890046.086  
 23  7 24 20 58 29.0000000  0 14G24G11G28G25G29G12G20G05G18R14R13R24            
                                R23R17                                          
  22212634.117   116728233.46504        28.000       -3040.992    90957044.12103
        20.000       -2369.609    22212639.891  
  22366999.609   117539284.12507        45.000       -2770.730    91589118.14805
        33.000       -2159.008    22367002.164  
  24185682.297   127096635.30506        40.000        2585.430    99036335.08604
        25.000        2014.617    24185689.281  
  21375017.016   112326392.68407        47.000        2116.758    87527160.15206
        39.000        1649.406    21375021.633  
  22022912.891   115731190.57407        47.000         532.789    90180156.85906
        40.000         415.148    22022915.867  
  21075190.594   110750878.75008        51.000         174.418    86299382.03908
        51.000         135.906    21075191.891  
  22400729.430   117716633.93807        42.000         230.320    91727253.38704
        29.000         179.469    22400731.914  
  22817436.148   119906445.50007        44.000        1723.355    93433611.44107
        43.000        1342.852    22817439.164  
  23884471.617   125513766.98006        41.000        3468.586    97802944.34803
        20.000        2702.816    23884474.813  
  19917722.438   106172703.03508        51.000        2382.477    82578743.64107
        45.000        1852.910    19917724.047  
  19995206.281   106773202.92606        41.000       -1853.824    83045829.16806
        41.000       -1441.781    19995206.586  
  19787765.242   105814067.07007        46.000       -1674.477    82299784.72307
        42.000       -1302.781    19787765.125  
  22846266.078   122212099.11707        44.000       -3655.746                  
                                                
  20889722.086   111785063.42608        50.000        1721.469    86943970.18808
        50.000        1338.633    20889722.367  
 23  7 24 20 58 30.0000000  0 14G24G11G28G25G29G12G20G05G18R14R13R24            
                                R23R17                                          
  22213211.250   116731275.31304        29.000       -3040.715    90959414.40203
        20.000       -2369.379    22213218.477  
  22367527.031   117542056.48407        45.000       -2770.711    91591278.43405
        33.000       -2158.992    22367529.734  
  24185190.828   127094051.22306        40.000        2585.754    99034321.52704
        25.000        2014.805    24185197.547  
  21374614.109   112324277.50808        48.000        2116.879    87525511.97306
        39.000        1649.496    21374619.148  
  22022811.695   115730659.27307        47.000         533.074    90179742.86306
        40.000         415.359    22022814.766  
  21075157.672   110750705.82008        51.000         174.699    86299247.28908
        51.000         136.125    21075158.969  
  22400685.680   117716405.01607        43.000         230.391    91727075.01204
        29.000         179.480    22400688.313  
  22817108.508   119904724.16007        45.000        1723.121    93432270.14107
        43.000        1342.688    22817111.578  
  23883811.836   125510299.78906        41.000        3469.082    97800242.64803
        20.000        2703.160    23883814.953  
  19917275.875   106170322.48008        51.000        2382.301    82576892.08607
        45.000        1852.957    19917277.266  
  19995553.797   106775058.90606        41.000       -1854.402    83047272.73406
        41.000       -1442.664    19995554.102  
  19788079.047   105815743.46507        47.000       -1674.684    82301088.60207
        42.000       -1302.520    19788078.398  
  22846950.039   122215756.07807        45.000       -3654.922                  
                                                
  20889400.563   111783344.00408        50.000        1721.063    86942632.85908
        49.000        1338.617    20889401.125  
 23  7 24 20 58 31.0000000  0 14G24G11G28G25G29G12G20G05G18R14R13R24            
                                R23R17                                          
  22213793.820   116734327.02304        28.000       -3040.195    90961792.33603
        20.000       -2368.957    22213798.805  
  22368056.836   117544838.97307        45.000       -2771.223    91593446.60505
        33.000       -2159.391    22368059.211  
  24184701.391   127091477.34406        40.000        2584.910    99032315.91004
        25.000        2014.184    24184707.867  
  21374213.805   112322172.27707        47.000        2116.605    87523871.53506
        39.000        1649.297    21374218.570  
  22022712.453   115730137.93407        47.000         532.715    90179336.62106
        40.000         415.121    22022715.602  
  21075126.695   110750543.01208        51.000         174.160    86299120.42608
        51.000         135.723    21075127.977  
  22400644.188   117716186.46907        42.000         229.684    91726904.71104
        29.000         179.012    22400646.711  
  22816783.063   119903012.89107        45.000        1722.621    93430936.68807
        43.000        1342.313    22816785.914  
  23883154.133   125506842.60207        42.000        3468.645    97797548.74203
        20.000        2702.832    23883157.078  
  19916831.453   106167952.35908        51.000        2381.449    82575048.66807
        45.000        1852.266    19916832.609  
  19995903.289   106776925.57406        41.000       -1855.402    83048724.55506
        41.000       -1442.902    19995903.719  
  19788394.813   105817430.35207        47.000       -1675.359    82302400.62507
        42.000       -1303.207    19788394.188  
  22847635.797   122219422.97307        45.000       -3655.195                  
                                                
  20889081.297   111781635.11708        51.000        1720.391    86941303.72708
        50.000        1338.094    20889081.633  
 23  7 24 20 58 32.0000000  0 14G24G11G28G25G29G12G20G05G18R14R13R24            
                                R23R17                                          
  22214372.172   116737368.93404        28.000       -3040.648    90964162.66803
        20.000       -2369.352    22214377.281  
  22368584.539   117547611.65607        45.000       -2771.336    91595607.14505
        33.000       -2159.504    22368586.859  
  24184209.539   127088893.74206        40.000        2584.953    99030302.71504
        25.000        2014.258    24184216.281  
  21373811.352   112320057.07008        48.000        2116.516    87522223.32006
        39.000        1649.238    21373816.063  
  22022611.422   115729606.60907        47.000         532.418    90178922.60206
        40.000         414.871    22022614.563  
  21075093.789   110750370.38708        51.000         173.723    86298985.91408
        51.000         135.375    21075095.117  
  22400600.516   117715958.33607        42.000         228.621    91726726.94904
        29.000         178.141    22400603.328  
  22816455.727   119901291.80507        44.000        1722.473    93429595.57807
        43.000        1342.203    22816458.438  
  23882494.141   125503375.51207        42.000        3468.258    97794847.11703
        20.000        2702.523    23882497.438  
  19916385.047   106165572.47708        51.000        2380.898    82573197.65207
        45.000        1851.734    19916386.164  
  19996251.352   106778782.62106        41.000       -1855.820    83050168.95306
        41.000       -1443.969    19996251.578  
  19788708.883   105819107.44508        48.000       -1676.039    82303705.02307
        42.000       -1303.676    19788708.117  
  22848319.609   122223079.48807        45.000       -3655.207                  
                                                
  20888760.375   111779916.48408        51.000        1719.535    86939967.01208
        50.000        1337.469    20888760.414  
 23  7 24 20 58 33.0000000  0 14G24G11G28G25G29G12G20G05G18R14R13R24            
                                R23R17                                          
  22214947.352   116740395.82004        27.000       -3038.848    90966521.28503
        20.000       -2367.934    22214953.359  
  22369109.531   117550369.50007        45.000       -2771.742    91597756.10205
        33.000       -2159.801    22369111.641  
  24183715.484   127086295.33206        40.000        2584.684    99028277.98004
        25.000        2014.035    24183721.898  
  21373405.992   112317926.84007        47.000        2116.332    87520563.40206
        39.000        1649.082    21373410.688  
  22022507.398   115729060.25407        47.000         532.488    90178496.86706
        40.000         414.926    22022510.641  
  21075058.148   110750182.89808        51.000         173.469    86298839.81308
        51.000         135.164    21075059.430  
  22400554.711   117715715.54307        42.000         228.785    91726537.76204
        29.000         178.277    22400557.102  
  22816124.906   119899555.82007        44.000        1721.832    93428242.86707
        43.000        1341.691    22816128.063  
  23881831.555   125499893.43807        42.000        3468.332    97792133.82403
        20.000        2702.590    23881834.727  
  19915935.820   106163177.74608        51.000        2380.297    82571335.07407
        45.000        1851.637    19915937.086  
  19996596.250   106780624.98406        41.000       -1857.008    83051601.87906
        41.000       -1444.113    19996596.453  
  19789019.781   105820769.52707        47.000       -1676.238    82304997.75007
        42.000       -1303.738    19789018.992  
  22849000.148   122226720.47307        45.000       -3654.805                  
                                                
  20888436.328   111778182.98408        51.000        1719.094    86938618.72308
        49.000        1337.102    20888436.445  
 23  7 24 20 58 34.0000000  0 14G24G11G28G25G29G12G20G05G18R14R13R24            
                                R23R17                                          
  22215525.000   116743429.76204        27.000       -3041.383    90968885.39803
        20.000       -2369.926    22215530.367  
  22369635.227   117553134.40607        45.000       -2772.133    91599910.58205
        33.000       -2160.125    22369637.797  
  24183222.664   127083704.05906        40.000        2584.063    99026258.80504
        25.000        2013.535    24183228.867  
  21373001.547   112315803.49207        47.000        2116.340    87518908.84806
        39.000        1649.090    21373006.641  
  22022404.711   115728520.80107        47.000         532.422    90178076.52006
        40.000         414.871    22022407.984  
  21075023.828   110750002.46908        51.000         173.254    86298699.21908
        51.000         135.016    21075025.055  
  22400509.602   117715480.03907        42.000         228.285    91726354.25804
        29.000         177.875    22400512.281  
  22815795.977   119897826.85907        44.000        1721.980    93426895.62907
        43.000        1341.801    22815799.016  
  23881170.633   125496418.32007        42.000        3467.961    97789425.95703
        20.000        2702.285    23881173.594  
  19915487.828   106160790.40608        51.000        2380.055    82569478.27007
        45.000        1851.004    19915489.156  
  19996942.258   106782474.86306        41.000       -1857.715    83053040.68406
        41.000       -1444.590    19996942.750  
  19789332.055   105822438.90608        48.000       -1676.715    82306296.14107
        42.000       -1303.871    19789330.961  
  22849681.547   122230368.25407        44.000       -3654.922                  
                                                
  20888113.242   111776456.92208        50.000        1718.465    86937276.23808
        49.000        1336.723    20888113.984  
 23  7 24 20 58 35.0000000  0 14G24G11G28G25G29G12G20G05G18R14R13R24            
                                R23R17                                          
  22216103.305   116746479.78904        25.000       -3041.691    90971262.05503
        20.000       -2370.176    22216110.711  
  22370164.336   117555915.38307        45.000       -2772.281    91602077.58205
        33.000       -2160.195    22370167.023  
  24182731.922   127081128.90606        40.000        2583.367    99024252.20304
        25.000        2013.020    24182738.891  
  21372600.609   112313696.04308        48.000        2115.824    87517266.68006
        39.000        1648.707    21372605.648  
  22022305.203   115727997.24607        47.000         532.039    90177668.55506
        40.000         414.590    22022308.352  
  21074992.492   110749838.09808        51.000         172.602    86298571.14108
        51.000         134.500    21074993.734  
  22400467.914   117715260.83207        42.000         227.125    91726183.45304
        29.000         176.996    22400470.547  
  22815470.039   119896113.97307        44.000        1721.078    93425560.91807
        43.000        1341.094    22815473.055  
  23880512.227   125492959.13707        42.000        3467.797    97786730.50803
        20.000        2702.188    23880515.586  
  19915043.117   106158419.60908        51.000        2379.082    82567634.31307
        45.000        1850.496    19915044.469  
  19997291.867   106784341.45706        41.000       -1858.414    83054492.48406
        41.000       -1445.652    19997292.297  
  19789647.602   105824124.73808        48.000       -1677.453    82307607.37107
        42.000       -1304.695    19789646.273  
  22850366.484   122234031.98007        44.000       -3654.785                  
                                                
  20887793.383   111774747.45308        50.000        1717.953    86935946.65608
        49.000        1336.051    20887794.484  
 23  7 24 20 58 36.0000000  0 14G24G11G28G25G29G12G20G05G18R14R13R24            
                                R23R17                                          
  22216684.125   116749529.15203        23.000       -3042.227    90973638.17603
        20.000       -2370.535    22216690.672  
  22370693.547   117558696.02707        45.000       -2772.891    91604244.31605
        33.000       -2160.684    22370696.172  
  24182242.211   127078553.43406        40.000        2583.586    99022245.34404
        25.000        2013.145    24182248.875  
  21372199.664   112311588.05108        48.000        2116.004    87515624.09406
        39.000        1648.836    21372204.523  
  22022205.344   115727473.16008        48.000         531.918    90177260.17606
        40.000         414.477    22022208.648  
  21074961.359   110749673.35508        51.000         172.590    86298442.77308
        51.000         134.484    21074962.383  
  22400426.094   117715041.47707        42.000         226.910    91726012.53104
        29.000         176.816    22400428.828  
  22815143.945   119894400.67207        44.000        1721.059    93424225.87107
        43.000        1341.098    22815147.031  
  23879853.836   125489499.50807        42.000        3467.660    97784034.69903
        20.000        2702.070    23879857.156  
  19914598.383   106156048.64108        51.000        2378.828    82565790.23007
        45.000        1850.277    19914599.688  
  19997641.680   106786208.03106        41.000       -1858.887    83055944.26206
        41.000       -1445.555    19997641.836  
  19789963.156   105825810.35508        48.000       -1677.543    82308918.39807
        42.000       -1304.813    19789961.594  
  22851051.555   122237694.96507        45.000       -3654.684                  
                                                
  20887473.922   111773037.89808        50.000        1717.332    86934617.00808
        49.000        1335.586    20887475.008  
 23  7 24 20 58 37.0000000  0 13G11G28G25G29G12G20G05G18R14R13R24R23            
                                R17                                             
  22371220.555   117561463.94107        45.000       -2772.754    91606401.12905
        33.000       -2160.582    22371222.844  
  24181749.461   127075965.34006        39.000        2583.387    99020228.65204
        25.000        2013.023    24181756.484  
  21371795.938   112309467.17208        48.000        2115.914    87513971.46106
        39.000        1648.742    21371800.938  
  22022103.273   115726936.17607        47.000         532.117    90176841.75006
        40.000         414.633    22022106.492  
  21074927.508   110749495.89508        51.000         172.402    86298304.48408
        51.000         134.336    21074928.602  
  22400382.078   117714809.60907        42.000         226.414    91725831.85904
        29.000         176.441    22400384.734  
  22814815.469   119892674.59407        44.000        1720.785    93422880.87107
        43.000        1340.867    22814818.578  
  23879192.773   125486027.01607        42.000        3467.742    97781328.85903
        20.000        2702.117    23879196.227  
  19914151.195   106153664.96908        51.000        2378.445    82563936.26607
        45.000        1849.738    19914152.500  
  19997988.969   106788062.05106        41.000       -1859.098    83057386.27306
        41.000       -1445.887    19997988.906  
  19790276.148   105827483.19508        48.000       -1677.859    82310219.50807
        42.000       -1305.535    19790274.531  
  22851733.867   122241344.62107        45.000       -3654.789                  
                                                
  20887152.180   111771315.63708        50.000        1716.973    86933277.45708
        49.000        1335.574    20887153.117  
 23  7 24 20 58 38.0000000  0 13G11G28G25G29G12G20G05G18R14R13R24R23            
                                R17                                             
  22371747.703   117564233.86707        45.000       -2773.309    91608559.51605
        33.000       -2161.035    22371749.984  
  24181257.336   127073379.31606        39.000        2582.457    99018213.57404
        25.000        2012.348    24181264.313  
  21371392.664   112307348.11708        48.000        2115.633    87512320.25006
        39.000        1648.539    21371397.711  
  22022001.266   115726401.03107        47.000         531.641    90176424.75806
        40.000         414.266    22022004.641  
  21074893.992   110749320.43408        51.000         171.906    86298167.77008
        51.000         133.949    21074895.188  
  22400338.070   117714579.98007        42.000         225.707    91725652.93404
        29.000         175.844    22400341.063  
  22814487.484   119890950.49207        44.000        1720.695    93421537.42607
        43.000        1340.754    22814490.461  
  23878532.234   125482556.41406        41.000        3467.188    97778624.50003
        20.000        2701.691    23878535.797  
  19913704.523   106151283.53508        51.000        2377.641    82562084.02307
        45.000        1849.691    19913705.891  
  19998336.430   106789918.48006        41.000       -1860.281    83058830.16006
        41.000       -1446.922    19998336.648  
  19790589.461   105829158.23408        48.000       -1678.855    82311522.30507
        43.000       -1305.895    19790588.039  
  22852416.313   122244995.90207        45.000       -3654.727                  
                                                
  20886830.273   111769595.64108        50.000        1716.098    86931939.69108
        49.000        1334.699    20886831.719  
 23  7 24 20 58 39.0000000  0 13G11G28G25G29G12G20G05G18R14R13R24R23            
                                R17                                             
  22372276.906   117567015.86707        45.000       -2773.773    91610727.31605
        33.000       -2161.383    22372279.391  
  24180767.430   127070805.41006        39.000        2581.945    99016207.94504
        25.000        2011.914    24180774.508  
  21370991.750   112305240.94908        48.000        2115.363    87510678.30506
        39.000        1648.332    21370996.742  
  22021901.703   115725877.80107        47.000         531.438    90176017.05106
        40.000         414.102    22021905.070  
  21074862.984   110749157.02708        51.000         171.586    86298040.43808
        51.000         133.715    21074864.063  
  22400296.797   117714362.60907        42.000         225.332    91725483.55504
        29.000         175.590    22400299.727  
  22814161.656   119889238.43007        44.000        1720.340    93420203.35507
        43.000        1340.523    22814164.656  
  23877873.609   125479097.78506        41.000        3467.012    97775929.49603
        20.000        2701.543    23877877.539  
  19913260.305   106148914.57008        51.000        2377.133    82560241.51207
        45.000        1848.715    19913261.477  
  19998686.367   106791787.52306        41.000       -1860.902    83060283.86706
        41.000       -1447.277    19998686.781  
  19790905.195   105830845.62908        48.000       -1679.004    82312834.74207
        43.000       -1306.398    19790903.703  
  22853101.391   122248659.09807        45.000       -3654.855                  
                                                
  20886510.953   111767888.18008        50.000        1715.547    86930611.66408
        49.000        1334.512    20886512.555  
 23  7 24 20 58 40.0000000  0 13G11G28G25G29G12G20G05G18R14R13R24R23            
                                R17                                             
  22372805.078   117569790.48007        46.000       -2774.020    91612889.34805
        33.000       -2161.559    22372807.352  
  24180276.188   127068224.16406        39.000        2582.113    99014196.57804
        25.000        2012.043    24180283.336  
  21370589.258   112303126.21508        48.000        2115.566    87509030.45306
        39.000        1648.492    21370594.328  
  22021800.906   115725347.00407        47.000         531.383    90175603.43806
        40.000         414.078    22021804.086  
  21074830.438   110748986.22708        51.000         171.445    86297907.34408
        51.000         133.598    21074831.555  
  22400253.898   117714138.08607        42.000         225.156    91725308.59804
        28.000         175.422    22400257.023  
  22813834.484   119887518.93807        44.000        1720.414    93418863.49207
        43.000        1340.590    22813837.469  
  23877214.461   125475631.66407        42.000        3466.617    97773228.64503
        20.000        2701.254    23877217.914  
  19912814.688   106146538.34008        51.000        2376.652    82558393.34007
        45.000        1848.469    19912815.555  
  19999035.055   106793649.46106        41.000       -1861.438    83061732.03506
        41.000       -1447.789    19999035.695  
  19791219.539   105832525.63708        49.000       -1679.344    82314141.40607
        43.000       -1306.406    19791217.852  
  22853784.742   122252314.37907        45.000       -3654.613                  
                                                
  20886190.609   111766173.49208        50.000        1714.969    86929278.02008
        49.000        1333.883    20886192.188  
 23  7 24 20 58 41.0000000  0 13G11G28G25G29G12G20G05G18R14R13R24R23            
                                R17                                             
  22373331.594   117572557.10907        46.000       -2774.605    91615045.16405
        33.000       -2162.031    22373333.844  
  24179783.445   127065635.00406        38.000        2581.309    99012179.05104
        25.000        2011.418    24179790.594  
  21370185.320   112301003.31307        47.000        2115.219    87507376.25006
        39.000        1648.242    21370190.375  
  22021698.289   115724808.03107        47.000         531.184    90175183.45706
        40.000         413.926    22021701.523  
  21074796.430   110748807.41808        51.000         170.945    86297768.01608
        51.000         133.199    21074797.500  
  22400209.625   117713905.77307        42.000         224.219    91725127.58204
        28.000         174.680    22400212.852  
  22813505.789   119885791.43407        44.000        1719.848    93417517.38707
        43.000        1340.141    22813508.734  
  23876553.039   125472157.40607        42.000        3466.539    97770521.44503
        20.000        2701.172    23876556.406  
  19912367.484   106144154.21108        51.000        2375.988    82556539.02707
        44.000        1847.652    19912368.188  
  19999382.695   106795503.64806        41.000       -1862.488    83063174.18006
        41.000       -1448.637    19999382.727  
  19791532.180   105834197.65208        48.000       -1679.953    82315441.85907
        43.000       -1306.859    19791530.438  
  22854466.258   122255961.11707        45.000       -3654.488                  
                                                
  20885868.578   111764450.91408        50.000        1714.563    86927938.24208
        49.000        1333.359    20885870.344  
 23  7 24 20 58 42.0000000  0 13G11G28G25G29G12G20G05G18R14R13R24R23            
                                R17                                             
  22373859.594   117575334.25407        46.000       -2774.762    91617209.18005
        33.000       -2162.156    22373862.320  
  24179292.648   127063056.41006        38.000        2580.883    99010169.74604
        25.000        2011.090    24179299.867  
  21369783.305   112298890.74608        48.000        2115.133    87505730.09406
        39.000        1648.152    21369788.391  
  22021597.688   115724279.40207        47.000         531.168    90174771.54306
        40.000         413.891    22021600.914  
  21074764.375   110748639.11708        51.000         170.586    86297636.87108
        51.000         132.918    21074765.445  
  22400167.625   117713684.17607        42.000         223.844    91724954.91804
        28.000         174.430    22400170.742  
  22813178.953   119884074.42607        44.000        1719.211    93416179.46107
        43.000        1339.633    22813181.953  
  23875893.984   125468693.53907        42.000        3466.449    97767822.34803
        20.000        2701.129    23875897.023  
  19911922.328   106141780.94508        51.000        2375.668    82554693.14807
        44.000        1847.730    19911922.977  
  19999731.797   106797368.87506        41.000       -1862.973    83064624.91406
        41.000       -1449.086    19999731.992  
  19791846.789   105835880.52708        48.000       -1680.512    82316750.75807
        43.000       -1307.219    19791845.172  
  22855149.672   122259618.18807        45.000       -3654.672                  
                                                
  20885548.297   111762739.28108        50.000        1713.961    86926606.98008
        49.000        1333.012    20885550.398  
 23  7 24 20 58 43.0000000  0 13G11G28G25G29G12G20G05G18R14R13R24R23            
                                R17                                             
  22374390.125   117578120.68807        46.000       -2775.191    91619380.43005
        33.000       -2162.488    22374392.586  
  24178804.125   127060487.15206        38.000        2580.832    99008167.73004
        25.000        2011.012    24178811.031  
  21369382.813   112296787.29707        47.000        2114.891    87504091.04706
        39.000        1647.969    21369388.117  
  22021498.820   115723759.89507        47.000         530.914    90174366.73006
        40.000         413.703    22021502.047  
  21074734.234   110748480.09008        51.000         170.363    86297512.95708
        51.000         132.754    21074735.172  
  22400127.656   117713472.10907        42.000         223.234    91724789.66804
        28.000         173.926    22400130.453  
  22812854.352   119882366.65607        44.000        1719.184    93414848.73407
        43.000        1339.621    22812856.953  
  23875236.461   125465238.87107        42.000        3466.016    97765130.40603
        20.000        2700.770    23875239.641  
  19911478.930   106139417.30908        51.000        2374.988    82552854.75807
        44.000        1847.152    19911479.336  
  20000082.977   106799243.90206        41.000       -1863.422    83066083.27006
        41.000       -1449.566    20000083.203  
  19792163.266   105837573.01608        48.000       -1681.266    82318067.13707
        43.000       -1307.840    19792161.758  
  22855835.227   122263284.31307        45.000       -3654.645                  
                                                
  20885230.344   111761037.35208        50.000        1713.227    86925283.25408
        49.000        1332.617    20885232.422  
 23  7 24 20 58 44.0000000  0 13G11G28G25G29G12G20G05G18R14R13R24R23            
                                R17                                             
  22374918.727   117580897.13307        46.000       -2775.297    91621543.88705
        33.000       -2162.574    22374920.922  
  24178312.555   127057908.02706        38.000        2579.672    99006158.02304
        25.000        2010.160    24178320.203  
  21368980.734   112294673.67207        47.000        2114.836    87502444.05906
        39.000        1647.941    21368985.906  
  22021397.984   115723230.22707        47.000         530.754    90173954.00006
        40.000         413.574    22021401.273  
  21074701.938   110748311.07008        51.000         169.898    86297381.25008
        51.000         132.398    21074703.008  
  22400085.203   117713250.25406        41.000         222.410    91724616.79304
        28.000         173.293    22400088.203  
  22812527.273   119880648.81607        44.000        1718.660    93413510.15607
        43.000        1339.219    22812530.086  
  23874577.086   125461774.07407        42.000        3465.941    97762430.57003
        20.000        2700.734    23874580.391  
  19911033.648   106137043.69908        51.000        2374.508    82551008.62107
        43.000        1846.906    19911033.867  
  20000432.289   106801109.15206        41.000       -1864.375    83067534.03106
        41.000       -1450.645    20000432.703  
  19792477.969   105839255.42608        48.000       -1681.445    82319375.66807
        43.000       -1307.711    19792476.438  
  22856519.039   122266939.86307        45.000       -3654.313                  
                                                
  20884910.531   111759325.50408        50.000        1712.637    86923951.82008
        49.000        1332.227    20884912.586  
 23  7 24 20 58 45.0000000  0 13G11G28G25G29G12G20G05G18R14R13R24R23            
                                R17                                             
  22375445.094   117583664.80107        46.000       -2775.676    91623700.51605
        33.000       -2162.875    22375447.594  
  24177820.570   127055320.11306        38.000        2579.262    99004141.46504
        25.000        2009.852    24177827.758  
  21368576.711   112292551.09807        47.000        2114.766    87500790.10506
        39.000        1647.863    21368582.016  
  22021295.453   115722691.61307        47.000         530.609    90173534.30906
        40.000         413.477    22021298.750  
  21074667.977   110748133.25408        51.000         169.715    86297242.69108
        51.000         132.242    21074669.164  
  22400041.102   117713019.82806        41.000         222.309    91724437.25404
        28.000         173.219    22400044.445  
  22812198.867   119878922.19507        44.000        1718.559    93412164.74207
        43.000        1339.133    22812201.484  
  23873916.375   125458300.38706        41.000        3465.828    97759723.81303
        20.000        2700.613    23873919.688  
  19910586.703   106134661.36708        51.000        2373.930    82549155.69507
        43.000        1846.430    19910586.797  
  20000779.984   106802965.85506        41.000       -1865.059    83068978.11706
        41.000       -1450.543    20000780.148  
  19792790.898   105840928.98008        48.000       -1681.914    82320677.32807
        43.000       -1308.152    19792789.508  
  22857200.750   122270586.07807        45.000       -3654.410                  
                                                
  20884588.852   111757604.97708        49.000        1712.246    86922613.63308
        49.000        1331.738    20884591.109  
 23  7 24 20 58 46.0000000  0 13G11G28G25G29G12G20G05G18R14R13R24R23            
                                R17                                             
  22375973.789   117586442.78507        46.000       -2776.074    91625865.18405
        34.000       -2163.191    22375976.242  
  24177330.180   127052742.59806        38.000        2579.230    99002133.02004
        25.000        2009.820    24177337.258  
  21368174.523   112290438.63707        47.000        2114.398    87499144.03906
        39.000        1647.570    21368180.047  
  22021195.086   115722163.12907        47.000         530.391    90173122.50806
        40.000         413.289    22021198.172  
  21074636.156   110747965.73008        51.000         169.520    86297112.15608
        51.000         132.090    21074637.258  
  22399999.313   117712799.91406        41.000         221.809    91724265.89504
        28.000         172.844    22400002.633  
  22811872.359   119877205.82807        44.000        1718.301    93410827.30907
        43.000        1338.949    22811874.836  
  23873257.328   125454836.90206        41.000        3465.379    97757025.00403
        20.000        2700.277    23873260.719  
  19910141.773   106132289.68008        51.000        2373.445    82547311.06307
        43.000        1846.066    19910141.703  
  20001129.578   106804833.37506        41.000       -1865.684    83070430.64106
        41.000       -1451.273    20001129.930  
  19793105.539   105842613.16408        48.000       -1682.516    82321987.24607
        43.000       -1308.684    19793104.445  
  22857883.844   122274242.39107        45.000       -3654.488                  
                                                
  20884269.156   111755895.18408        50.000        1711.672    86921283.80508
        49.000        1331.152    20884271.602  
 23  7 24 20 58 47.0000000  0 13G11G28G25G29G12G20G05G18R14R13R24R23            
                                R17                                             
  22376503.180   117589224.18407        46.000       -2777.004    91628032.50405
        34.000       -2163.922    22376505.523  
  24176839.922   127050168.50406        38.000        2579.637    99000127.23804
        25.000        2010.031    24176847.492  
  21367773.273   112288329.41807        47.000        2113.738    87497500.49206
        39.000        1647.082    21367778.695  
  22021095.227   115721637.87507        47.000         530.094    90172713.22306
        39.000         413.063    22021098.234  
  21074605.086   110747801.61708        51.000         168.625    86296984.27708
        51.000         131.406    21074606.031  
  22399958.047   117712583.64806        41.000         220.848    91724097.37104
        28.000         172.113    22399961.555  
  22811546.320   119875492.87507        44.000        1717.543    93409492.54707
        43.000        1338.332    22811548.859  
  23872598.633   125451376.69906        41.000        3464.621    97754328.74603
        20.000        2699.691    23872602.258  
  19909697.563   106129921.69508        51.000        2372.574    82545469.29707
        43.000        1845.355    19909697.633  
  20001480.086   106806704.73406        41.000       -1866.594    83071886.14506
        41.000       -1452.066    20001480.359  
  19793420.781   105844301.02008        48.000       -1683.422    82323300.02007
        43.000       -1309.016    19793420.133  
  22858568.094   122277901.75807        45.000       -3654.676                  
                                                
  20883950.594   111754189.12108        50.000        1710.445    86919956.86308
        49.000        1330.344    20883952.734  
 23  7 24 20 58 48.0000000  0 13G11G28G25G29G12G20G05G18R14R13R24R23            
                                R17                                             
  22377030.297   117591993.92607        46.000       -2777.102    91630190.74605
        34.000       -2163.988    22377032.586  
  24176347.742   127047582.87906        37.000        2578.918    98998112.47704
        24.000        2009.539    24176355.578  
  21367369.656   112286208.36307        47.000        2113.813    87495847.72706
        39.000        1647.137    21367375.078  
  22020992.992   115721100.81607        47.000         529.793    90172294.73406
        39.000         412.832    22020996.039  
  21074571.547   110747625.83608        50.000         168.527    86296847.30108
        51.000         131.328    21074572.586  
  22399914.852   117712355.93007        42.000         220.246    91723919.93404
        29.000         171.621    22399918.234  
  22811217.992   119873768.21907        44.000        1717.301    93408148.66407
        43.000        1338.145    22811220.664  
  23871937.930   125447904.73406        41.000        3464.523    97751623.32403
        20.000        2699.629    23871941.586  
  19909251.156   106127542.12508        51.000        2371.926    82543618.52707
        43.000        1844.773    19909251.250  
  20001828.266   106808564.63706        41.000       -1867.809    83073332.73406
        41.000       -1452.602    20001828.594  
  19793734.094   105845977.17208        48.000       -1683.848    82324603.69907
        43.000       -1309.563    19793733.602  
  22859250.070   122281548.92207        45.000       -3654.711                  
                                                
  20883629.727   111752471.47308        50.000        1710.000    86918620.91008
        49.000        1330.070    20883631.648  
 23  7 24 20 58 49.0000000  0 13G11G28G25G29G12G20G05G18R14R13R24R23            
                                R17                                             
  22377557.656   117594766.02007        46.000       -2777.090    91632350.82005
        34.000       -2163.973    22377560.086  
  24175856.148   127044999.68006        38.000        2578.387    98996099.59804
        24.000        2009.137    24175863.891  
  21366966.516   112284089.50008        48.000        2114.223    87494196.67206
        39.000        1647.434    21366971.883  
  22020891.094   115720565.93008        48.000         529.957    90171877.94106
        39.000         412.949    22020894.250  
  21074538.555   110747452.40608        51.000         168.520    86296712.16408
        51.000         131.305    21074539.547  
  22399872.281   117712130.80507        42.000         219.703    91723744.51204
        29.000         171.191    22399875.352  
  22810890.250   119872045.89807        44.000        1717.363    93406806.60207
        43.000        1338.191    22810892.891  
  23871277.797   125444434.99606        41.000        3464.477    97748919.62903
        20.000        2699.566    23871281.484  
  19908805.031   106125165.15608        51.000        2372.391    82541769.78107
        43.000        1844.977    19908805.211  
  20002176.938   106810427.28506        41.000       -1867.250    83074781.46906
        41.000       -1452.793    20002177.578  
  19794047.586   105847655.76608        48.000       -1682.926    82325909.27707
        43.000       -1309.117    19794047.461  
  22859932.172   122285198.01607        45.000       -3653.281                  
                                                
  20883308.930   111750756.43408        50.000        1710.602    86917287.02308
        49.000        1329.887    20883311.195  
 23  7 24 20 58 50.0000000  0 13G11G28G25G29G12G20G05G18R14R13R24R23            
                                R17                                             
  22378087.586   117597550.64107        46.000       -2777.813    91634520.66005
        34.000       -2164.531    22378089.977  
  24175367.555   127042429.02006        38.000        2577.809    98994096.48804
        24.000        2008.688    24175374.734  
  21366565.594   112281982.98408        48.000        2113.457    87492555.23006
        39.000        1646.855    21366571.023  
  22020791.594   115720043.38708        48.000         529.598    90171470.77006
        39.000         412.660    22020794.797  
  21074507.852   110747291.48408        51.000         167.930    86296586.77308
        51.000         130.855    21074508.922  
  22399831.773   117711918.35907        42.000         219.543    91723578.97704
        29.000         171.082    22399834.938  
  22810564.867   119870336.04707        44.000        1716.906    93405474.25007
        44.000        1337.852    22810567.492  
  23870619.852   125440977.66006        41.000        3464.641    97746225.61703
        20.000        2699.723    23870623.398  
  19908361.266   106122801.12108        51.000        2371.148    82539931.09007
        43.000        1844.281    19908362.039  
  20002528.125   106812303.07006        41.000       -1869.055    83076240.40606
        41.000       -1453.453    20002528.797  
  19794363.328   105849347.23008        48.000       -1684.320    82327224.87107
        43.000       -1309.957    19794363.805  
  22860616.422   122288859.51207        44.000       -3654.004                  
                                                
  20882990.484   111749054.42208        49.000        1709.199    86915963.23008
        49.000        1329.363    20882993.047  
 23  7 24 20 58 51.0000000  0 13G11G28G25G29G12G20G05G18R14R13R24R23            
                                R17                                             
  22378616.148   117600328.48007        46.000       -2778.094    91636685.21105
        34.000       -2164.750    22378618.609  
  24174876.992   127039851.67206        38.000        2577.199    98992088.17204
        24.000        2008.211    24174884.281  
  21366163.609   112279869.51208        48.000        2113.230    87490908.36306
        39.000        1646.676    21366168.789  
  22020690.992   115719513.90208        48.000         529.301    90171058.18406
        40.000         412.441    22020694.055  
  21074475.891   110747123.78508        51.000         167.418    86296456.09408
        51.000         130.449    21074477.023  
  22399790.453   117711699.41407        42.000         218.621    91723408.37504
        29.000         170.359    22399793.313  
  22810238.023   119868619.41407        45.000        1716.273    93404136.60507
        44.000        1337.359    22810240.836  
  23869960.742   125437513.45706        41.000        3464.102    97743526.25003
        20.000        2699.301    23869964.055  
  19907916.492   106120430.40608        51.000        2370.402    82538087.19107
        43.000        1843.684    19907917.445  
  20002878.094   106814172.34406        41.000       -1869.488    83077694.30106
        41.000       -1454.117    20002878.844  
  19794678.141   105851031.94108        48.000       -1684.875    82328535.21507
        43.000       -1310.512    19794678.891  
  22861299.563   122292513.74207        44.000       -3653.984                  
                                                
  20882671.258   111747345.74208        49.000        1708.449    86914634.25808
        49.000        1328.828    20882673.742  
 23  7 24 20 58 52.0000000  0 13G11G28G25G29G12G20G05G18R14R13R24R23            
                                R17                                             
  22379143.109   117603098.52707        46.000       -2778.129    91638843.69105
        34.000       -2164.781    22379145.727  
  24174385.203   127037266.55506        38.000        2577.285    98990073.77704
        24.000        2008.270    24174392.453  
  21365759.750   112277748.04708        48.000        2113.598    87489255.27706
        39.000        1646.953    21365765.094  
  22020588.891   115718976.43808        48.000         529.457    90170639.37906
        40.000         412.559    22020591.766  
  21074442.570   110746948.26208        50.000         167.465    86296319.32408
        51.000         130.484    21074443.617  
  22399746.773   117711472.84807        42.000         218.281    91723231.82804
        29.000         170.094    22399750.211  
  22809909.758   119866894.91407        44.000        1716.555    93402792.84407
        44.000        1337.566    22809912.648  
  23869299.602   125434041.31606        40.000        3463.965    97740820.69503
        20.000        2699.215    23869303.047  
  19907470.352   106118051.98008        51.000        2370.332    82536237.30507
        43.000        1843.527    19907471.227  
  20003226.688   106816034.09806        41.000       -1870.227    83079142.30106
        41.000       -1454.691    20003227.484  
  19794991.719   105852708.89108        48.000       -1684.969    82329839.49207
        43.000       -1310.699    19794992.625  
  22861980.797   122296159.62907        44.000       -3654.070                  
                                                
  20882350.492   111745629.37908        50.000        1708.168    86913299.30108
        49.000        1328.477    20882353.102  
 23  7 24 20 58 53.0000000  0 13G11G28G25G29G12G20G05G18R14R13R24R23            
                                R17                                             
  22379672.406   117605879.09407        46.000       -2778.660    91641010.36705
        34.000       -2165.195    22379674.883  
  24173895.164   127034692.03106        38.000        2576.883    98988067.66004
        24.000        2007.957    24173902.492  
  21365357.969   112275636.94907        47.000        2113.117    87487610.27006
        39.000        1646.570    21365363.383  
  22020488.555   115718449.32008        48.000         529.133    90170228.64106
        40.000         412.316    22020491.414  
  21074411.180   110746783.25408        50.000         166.977    86296190.74608
        51.000         130.105    21074412.180  
  22399705.984   117711257.02307        42.000         217.551    91723063.66404
        29.000         169.492    22399709.133  
  22809583.719   119865180.91007        44.000        1716.195    93401457.26607
        44.000        1337.277    22809586.445  
  23868640.547   125430579.59406        40.000        3463.559    97738123.27703
        20.000        2698.852    23868644.164  
  19907026.313   106115684.45708        51.000        2369.484    82534395.88307
        43.000        1843.199    19907027.148  
  20003577.469   106817906.85906        41.000       -1870.855    83080598.89806
        41.000       -1455.055    20003578.367  
  19795307.367   105854396.65208        48.000       -1685.578    82331152.19107
        43.000       -1311.051    19795308.438  
  22862664.445   122299815.80107        44.000       -3653.945                  
                                                
  20882031.805   111743923.96108        50.000        1707.367    86911972.86308
        49.000        1327.984    20882034.406  
 23  7 24 20 58 54.0000000  0 13G11G28G25G29G12G20G05G18R14R13R24R23            
                                R17                                             
  22380202.328   117608663.15607        46.000       -2778.813    91643179.77005
        34.000       -2165.316    22380204.680  
  24173406.102   127032121.10206        38.000        2575.980    98986064.33204
        24.000        2007.332    24173413.320  
  21364956.867   112273529.15207        47.000        2113.000    87485967.83606
        39.000        1646.508    21364962.297  
  22020388.883   115717925.53108        48.000         529.016    90169820.49206
        40.000         412.223    22020391.750  
  21074380.359   110746621.73408        51.000         166.660    86296064.88708
        51.000         129.867    21074381.438  
  22399665.672   117711044.92207        42.000         217.102    91722898.39104
        29.000         169.172    22399668.813  
  22809258.273   119863470.38707        44.000        1715.684    93400124.39107
        44.000        1336.883    22809260.914  
  23867982.477   125427121.23006        40.000        3463.629    97735428.46503
        20.000        2698.914    23867986.016  
  19906583.000   106113320.71508        51.000        2368.820    82532557.43007
        43.000        1842.555    19906583.820  
  20003929.023   106819783.53506        41.000       -1871.309    83082058.53906
        41.000       -1455.563    20003929.766  
  19795623.820   105856088.09008        48.000       -1686.402    82332467.75407
        43.000       -1311.406    19795624.875  
  22863348.664   122303475.14807        44.000       -3653.953                  
                                                
  20881714.227   111742222.36308        50.000        1706.734    86910649.39808
        49.000        1327.508    20881716.383  
 23  7 24 20 58 55.0000000  0 13G11G28G25G29G12G20G05G18R14R13R24R23            
                                R17                                             
  22380730.016   117611435.89107        46.000       -2779.582    91645340.34005
        34.000       -2165.930    22380732.313  
  24172914.602   127029538.85506        38.000        2575.465    98984052.19904
        24.000        2006.871    24172921.922  
  21364553.672   112271409.84807        47.000        2112.742    87484316.42606
        39.000        1646.293    21364558.961  
  22020287.000   115717390.21508        48.000         528.773    90169403.36706
        40.000         412.020    22020289.875  
  21074347.703   110746448.85908        51.000         166.289    86295930.18008
        51.000         129.586    21074348.555  
  22399623.672   117710821.68007        42.000         216.375    91722724.43804
        29.000         168.598    22399626.336  
  22808930.438   119861748.46907        44.000        1715.309    93398782.62907
        44.000        1336.602    22808933.234  
  23867321.773   125423651.39806        40.000        3463.613    97732724.70703
        20.000        2698.969    23867325.734  
  19906137.445   106110945.67208        51.000        2368.258    82530710.19107
        43.000        1841.867    19906138.531  
  20004278.391   106821649.07006        41.000       -1872.695    83083509.50006
        41.000       -1456.129    20004279.188  
  19795937.953   105857768.10507        47.000       -1686.734    82333774.42607
        43.000       -1311.945    19795939.172  
  22864030.531   122307122.52707        43.000       -3654.082                  
                                                
  20881394.188   111740509.46908        50.000        1706.105    86909317.14508
        49.000        1326.938    20881396.266  
 23  7 24 20 58 56.0000000  0 13G11G28G25G29G12G20G05G18R14R13R24R23            
                                R17                                             
  22381258.016   117614211.11307        46.000       -2779.660    91647502.85905
        34.000       -2165.953    22381260.453  
  24172423.422   127026959.18006        38.000        2575.398    98982042.07004
        24.000        2006.773    24172431.031  
  21364150.789   112269292.86307        47.000        2112.766    87482666.82806
        39.000        1646.309    21364156.133  
  22020185.617   115716857.23808        48.000         528.551    90168988.06306
        40.000         411.852    22020188.414  
  21074315.141   110746278.48008        50.000         165.898    86295797.41408
        51.000         129.262    21074316.102  
  22399581.281   117710601.16807        42.000         215.934    91722552.60904
        29.000         168.250    22399584.414  
  22808602.953   119860029.02307        44.000        1715.086    93397442.81307
        44.000        1336.434    22808606.000  
  23866661.750   125420184.01206        40.000        3462.879    97730022.87103
        20.000        2698.324    23866665.781  
  19905692.242   106108573.37508        51.000        2367.633    82528865.05507
        43.000        1841.523    19905693.414  
  20004628.070   106823517.52006        41.000       -1873.262    83084962.74206
        41.000       -1457.098    20004628.977  
  19796252.664   105859450.84008        48.000       -1687.418    82335083.21507
        43.000       -1312.445    19796253.664  
  22864712.648   122310772.06607        44.000       -3654.020                  
                                                
  20881074.344   111738799.37108        50.000        1705.418    86907987.07408
        49.000        1326.457    20881076.844  
 23  7 24 20 58 57.0000000  0 13G11G28G25G29G12G20G05G18R14R13R24R23            
                                R17                                             
  22381788.641   117616998.76207        46.000       -2779.652    91649675.05505
        34.000       -2165.973    22381790.914  
  24171934.781   127024391.99206        38.000        2575.086    98980041.66804
        24.000        2006.570    24171942.430  
  21363750.250   112267188.10907        47.000        2112.742    87481026.77006
        39.000        1646.289    21363755.617  
  22020086.453   115716336.49208        48.000         528.629    90168582.29306
        40.000         411.910    22020089.297  
  21074284.969   110746120.50408        50.000         165.828    86295674.31608
        51.000         129.219    21074286.023  
  22399541.555   117710393.26607        42.000         215.289    91722390.60904
        29.000         167.762    22399544.898  
  22808278.453   119858321.96107        44.000        1714.852    93396112.64107
        44.000        1336.246    22808281.141  
  23866004.117   125416728.87506        40.000        3462.953    97727330.56603
        20.000        2698.379    23866008.211  
  19905249.500   106106213.84808        51.000        2367.512    82527029.87507
        43.000        1841.258    19905250.641  
  20004980.398   106825398.90206        41.000       -1873.359    83086426.06606
        41.000       -1457.219    20004981.258  
  19796569.586   105861146.27707        47.000       -1687.508    82336401.90207
        43.000       -1312.523    19796570.594  
  22865397.219   122314433.84007        43.000       -3654.098                  
                                                
  20880757.109   111737102.17608        50.000        1704.988    86906667.02708
        49.000        1326.133    20880759.688  
 23  7 24 20 58 58.0000000  0 13G11G28G25G29G12G20G05G18R14R13R24R23            
                                R17                                             
  22382317.867   117619779.37107        46.000       -2780.215    91651841.75805
        34.000       -2166.387    22382320.039  
  24171445.477   127021817.80106        38.000        2574.539    98978035.78904
        24.000        2006.168    24171452.617  
  21363348.352   112265076.14807        47.000        2112.270    87479381.09006
        39.000        1645.926    21363353.703  
  22019985.867   115715808.55108        48.000         528.273    90168170.91006
        40.000         411.633    22019988.836  
  21074253.625   110745955.47708        51.000         165.352    86295545.72308
        51.000         128.855    21074254.633  
  22399501.047   117710178.52707        42.000         215.035    91722223.27704
        29.000         167.559    22399504.047  
  22807952.633   119856607.82807        44.000        1714.344    93394776.95307
        44.000        1335.863    22807954.945  
  23865345.414   125413266.60506        40.000        3462.578    97724632.71903
        20.000        2698.074    23865349.313  
  19904805.563   106103847.37508        51.000        2366.652    82525189.28907
        43.000        1840.656    19904806.867  
  20005331.719   106827273.53506        41.000       -1874.359    83087884.09006
        41.000       -1457.762    20005332.266  
  19796885.680   105862834.66408        48.000       -1688.160    82337715.09407
        43.000       -1313.105    19796886.570  
  22866080.367   122318088.03907        43.000       -3653.660                  
                                                
  20880438.867   111735398.07008        50.000        1704.371    86905341.62508
        49.000        1325.668    20880441.148  
 23  7 24 20 58 59.0000000  0 13G11G28G25G29G12G20G05G18R14R13R24R23            
                                R17                                             
  22382845.016   117622551.76607        45.000       -2780.375    91654002.07005
        34.000       -2166.504    22382847.633  
  24170953.453   127019235.46906        37.000        2574.219    98976023.59804
        24.000        2005.813    24170961.227  
  21362944.500   112262955.77707        47.000        2112.605    87477728.85206
        39.000        1646.180    21362950.219  
  22019883.914   115715272.20708        48.000         528.535    90167752.97706
        40.000         411.859    22019886.750  
  21074220.563   110745782.21508        51.000         165.344    86295410.71908
        51.000         128.832    21074221.656  
  22399459.031   117709955.81606        41.000         214.496    91722049.74604
        29.000         167.133    22399461.664  
  22807624.586   119854885.44907        44.000        1714.371    93393434.84407
        44.000        1335.895    22807627.164  
  23864684.492   125409795.99206        40.000        3462.266    97721928.35903
        20.000        2697.875    23864688.852  
  19904359.961   106101472.76608        51.000        2366.574    82523342.35907
        43.000        1841.035    19904361.336  
  20005681.352   106829140.15606        41.000       -1874.977    83089335.91406
        41.000       -1458.512    20005681.922  
  19797199.844   105864514.83208        48.000       -1688.246    82339021.89807
        43.000       -1313.340    19797200.945  
  22866761.844   122321733.50007        43.000       -3653.508                  
                                                
  20880118.547   111733685.84808        49.000        1704.246    86904009.89808
        49.000        1325.484    20880121.148  
 23  7 24 20 59  0.0000000  0 13G11G28G25G29G12G20G05G18R14R13R24R23            
                                R17                                             
  22383374.773   117625334.94907        45.000       -2781.148    91656170.78505
        34.000       -2167.129    22383377.273  
  24170464.117   127016663.96906        38.000        2573.844    98974019.83204
        24.000        2005.613    24170471.844  
  21362543.078   112260846.03907        47.000        2111.789    87476084.90606
        39.000        1645.555    21362548.750  
  22019783.844   115714746.50408        48.000         527.809    90167343.34406
        40.000         411.270    22019786.648  
  21074189.664   110745619.75408        51.000         164.543    86295284.12508
        51.000         128.215    21074190.695  
  22399417.930   117709744.12506        41.000         213.375    91721884.80104
        29.000         166.238    22399421.430  
  22807298.695   119853173.82407        44.000        1713.754    93392101.11307
        44.000        1335.391    22807301.422  
  23864026.430   125406336.06606        40.000        3461.809    97719232.32003
        20.000        2697.539    23864030.563  
  19903916.484   106099109.33208        51.000        2365.348    82521504.13307
        43.000        1839.922    19903917.859  
  20006032.969   106831018.15606        41.000       -1876.465    83090796.55506
        41.000       -1459.102    20006033.617  
  19797516.141   105866206.15608        48.000       -1689.285    82340337.35507
        43.000       -1313.863    19797517.680  
  22867444.922   122325389.53507        43.000       -3653.813                  
                                                
  20879800.531   111731984.84408        50.000        1702.820    86902686.89508
        49.000        1324.594    20879803.344  
 23  7 24 20 59  1.0000000  0 13G11G28G25G29G12G20G05G18R14R13R24R23            
                                R17                                             
  22383905.086   117628121.69507        46.000       -2781.457    91658342.27705
        34.000       -2167.383    22383907.555  
  24169975.758   127014096.10506        38.000        2573.441    98972018.90204
        24.000        2005.250    24169983.266  
  21362142.195   112258739.67607        47.000        2111.836    87474443.58606
        39.000        1645.586    21362147.914  
  22019684.563   115714224.17608        48.000         527.938    90166936.34006
        40.000         411.383    22019687.258  
  21074159.523   110745460.84008        51.000         164.477    86295160.29308
        51.000         128.160    21074160.453  
  22399378.609   117709536.17207        42.000         213.434    91721722.76204
        29.000         166.301    22399381.898  
  22806973.656   119851465.71107        44.000        1713.359    93390770.12107
        44.000        1335.070    22806976.352  
  23863368.914   125402879.56606        40.000        3461.934    97716538.96103
        20.000        2697.594    23863372.547  
  19903473.781   106096749.73008        51.000        2365.031    82519668.89807
        44.000        1839.262    19903475.273  
  20006385.625   106832900.10206        41.000       -1876.570    83092260.31606
        41.000       -1459.703    20006386.172  
  19797833.289   105867901.22708        48.000       -1689.527    82341655.75407
        43.000       -1313.859    19797834.789  
  22868128.828   122329048.81607        43.000       -3653.613                  
                                                
  20879483.594   111730287.70708        50.000        1702.469    86901366.89808
        49.000        1324.137    20879486.188  
 23  7 24 20 59  2.0000000  0 13G11G28G25G29G12G20G05G18R14R13R24R23            
                                R17                                             
  22384433.391   117630897.00407        45.000       -2781.777    91660504.85505
        34.000       -2167.617    22384435.680  
  24169484.664   127011516.88306        38.000        2572.742    98970009.11704
        24.000        2004.754    24169492.508  
  21361739.125   112256621.70307        47.000        2111.656    87472793.21506
        39.000        1645.453    21361744.852  
  22019582.984   115713690.23408        48.000         527.824    90166520.28106
        40.000         411.289    22019585.680  
  21074127.000   110745290.47308        51.000         164.148    86295027.53908
        51.000         127.910    21074128.039  
  22399336.648   117709316.99607        42.000         213.086    91721551.98004
        29.000         166.012    22399340.180  
  22806646.445   119849746.13307        44.000        1713.262    93389430.18807
        44.000        1335.008    22806649.117  
  23862708.430   125399411.52006        40.000        3461.609    97713836.59803
        20.000        2697.348    23862712.539  
  19903028.984   106094378.75408        51.000        2364.348    82517824.80907
        44.000        1839.023    19903030.555  
  20006736.133   106834770.83206        41.000       -1877.535    83093715.32006
        41.000       -1460.207    20006736.563  
  19798148.188   105869584.75408        48.000       -1689.930    82342965.15607
        43.000       -1314.234    19798149.859  
  22868810.758   122332696.05507        43.000       -3653.570                  
                                                
  20879164.586   111728579.17608        50.000        1701.953    86900038.05108
        49.000        1323.758    20879166.867  
 23  7 24 20 59  3.0000000  0 13G11G28G25G29G12G20G05G18R14R13R24R23            
                                R17                                             
  22384961.883   117633674.79707        45.000       -2781.652    91662669.37505
        34.000       -2167.523    22384964.297  
  24168994.313   127008940.20706        38.000        2572.457    98968001.31304
        24.000        2004.527    24169002.125  
  21361336.570   112254506.05107        47.000        2111.816    87471144.66006
        39.000        1645.555    21361342.258  
  22019481.641   115713158.61708        48.000         527.715    90166106.03506
        40.000         411.207    22019484.516  
  21074095.016   110745122.59808        51.000         163.875    86294896.73008
        51.000         127.691    21074096.070  
  22399295.398   117709100.55507        42.000         212.387    91721383.33604
        29.000         165.492    22399299.000  
  22806320.086   119848029.02307        44.000        1713.094    93388092.18007
        44.000        1334.895    22806322.344  
  23862049.258   125395945.87906        40.000        3461.426    97711136.11303
        20.000        2697.211    23862052.828  
  19902584.719   106092010.52308        51.000        2363.953    82515982.84007
        44.000        1838.992    19902586.234  
  20007086.656   106836644.42206        41.000       -1877.309    83095172.56606
        41.000       -1460.676    20007087.109  
  19798463.563   105871270.94908        48.000       -1690.219    82344276.65207
        43.000       -1314.398    19798464.891  
  22869492.750   122336345.41007        43.000       -3653.258                  
                                                
  20878845.609   111726873.43808        50.000        1701.539    86898711.36708
        49.000        1323.480    20878848.031  
 23  7 24 20 59  4.0000000  0 13G11G28G25G29G12G20G05G18R14R13R24R23            
                                R17                                             
  22385492.477   117636465.00007        45.000       -2782.191    91664843.56305
        34.000       -2167.938    22385495.258  
  24168505.578   127006375.99206        38.000        2571.785    98966003.23004
        24.000        2003.973    24168514.070  
  21360936.266   112252402.62907        47.000        2111.168    87469505.62906
        39.000        1645.070    21360941.984  
  22019382.898   115712639.23408        48.000         527.375    90165701.32006
        40.000         410.949    22019385.688  
  21074065.367   110744967.12108        51.000         163.297    86294775.57808
        51.000         127.246    21074066.461  
  22399256.859   117708896.72707        42.000         211.883    91721224.51204
        29.000         165.113    22399260.234  
  22805995.258   119846324.29307        44.000        1712.766    93386763.82407
        44.000        1334.625    22805997.938  
  23861391.156   125392492.47706        40.000        3461.324    97708445.14103
        20.000        2697.125    23861395.453  
  19902142.867   106089655.06308        51.000        2363.426    82514150.82007
        44.000        1838.309    19902144.141  
  20007440.148   106838530.99606        41.000       -1878.477    83096639.91006
        41.000       -1461.336    20007440.516  
  19798781.359   105872969.94908        49.000       -1691.031    82345598.09807
        43.000       -1315.387    19798782.508  
  22870177.227   122340007.00807        43.000       -3653.547                  
                                                
  20878529.352   111725180.58608        50.000        1700.617    86897394.69908
        49.000        1322.871    20878531.688  
 23  7 24 20 59  5.0000000  0 13G11G28G25G29G12G20G05G18R14R13R24R23            
                                R17                                             
  22386022.148   117639247.89807        45.000       -2783.016    91667012.04705
        34.000       -2168.590    22386024.805  
  24168016.617   127003804.52706        38.000        2571.480    98963999.48004
        24.000        2003.766    24168024.781  
  21360534.547   112250291.69907        47.000        2110.859    87467860.75406
        39.000        1644.809    21360540.227  
  22019282.727   115712112.35508        48.000         527.020    90165290.76206
        40.000         410.672    22019285.445  
  21074034.320   110744804.31608        51.000         162.684    86294648.71508
        51.000         126.766    21074035.484  
  22399216.672   117708685.79307        42.000         210.813    91721060.14104
        29.000         164.293    22399220.148  
  22805669.477   119844612.22307        44.000        1712.289    93385429.74207
        44.000        1334.254    22805672.156  
  23860733.094   125389031.66806        40.000        3461.285    97705748.41403
        20.000        2697.074    23860737.172  
  19901699.719   106087292.39508        51.000        2362.461    82512313.19507
        43.000        1837.566    19901701.031  
  20007792.125   106840410.52006        41.000       -1879.781    83098101.75406
        41.000       -1462.164    20007792.625  
  19799097.914   105874661.62508        49.000       -1691.813    82346913.84007
        43.000       -1315.789    19799098.977  
  22870860.328   122343660.73007        43.000       -3653.398                  
                                                
  20878212.008   111723480.51608        50.000        1700.043    86896072.43008
        49.000        1322.160    20878213.977  
 23  7 24 20 59  6.0000000  0 13G11G28G25G29G12G20G05G18R14R13R24R23            
                                R17                                             
  22386550.578   117642023.11307        45.000       -2782.781    91669174.55505
        34.000       -2168.406    22386552.922  
  24167525.461   127001225.45706        38.000        2571.480    98961989.82404
        24.000        2003.742    24167534.109  
  21360131.391   112248172.93007        47.000        2111.188    87466209.77006
        39.000        1645.043    21360137.016  
  22019180.781   115711577.64508        48.000         527.000    90164874.10506
        40.000         410.641    22019183.680  
  21074001.992   110744633.83608        51.000         162.746    86294515.87108
        51.000         126.820    21074003.023  
  22399174.891   117708467.39807        42.000         210.438    91720889.96504
        29.000         164.004    22399178.648  
  22805341.883   119842892.45307        44.000        1712.094    93384089.66007
        44.000        1334.102    22805344.891  
  23860073.195   125385563.07406        39.000        3461.070    97703045.62503
        20.000        2696.984    23860076.984  
  19901254.945   106084922.17208        51.000        2362.246    82510469.69107
        43.000        1836.938    19901256.563  
  20008142.531   106842282.57806        41.000       -1879.797    83099557.81306
        41.000       -1462.656    20008142.953  
  19799412.734   105876345.59008        48.000       -1691.797    82348223.59407
        43.000       -1315.594    19799413.945  
  22871541.336   122347306.25007        43.000       -3652.816                  
                                                
  20877892.859   111721772.89508        50.000        1699.570    86894744.28108
        49.000        1321.914    20877894.828  
 23  7 24 20 59  7.0000000  0 13G11G28G25G29G12G20G05G18R14R13R24R23            
                                R17                                             
  22387080.750   117644808.96507        45.000       -2783.258    91671345.35505
        34.000       -2168.758    22387083.055  
  24167037.063   126998657.09806        37.000        2570.664    98959988.50004
        24.000        2003.063    24167045.375  
  21359730.133   112246064.63307        47.000        2110.668    87464566.94106
        39.000        1644.672    21359735.820  
  22019081.023   115711053.38308        48.000         526.656    90164465.59006
        40.000         410.383    22019083.875  
  21073971.602   110744473.97308        51.000         162.199    86294391.30508
        51.000         126.387    21073972.563  
  22399135.516   117708259.86307        42.000         209.695    91720728.25804
        29.000         163.379    22399139.156  
  22805016.977   119841183.28107        44.000        1711.512    93382757.84007
        44.000        1333.648    22805019.617  
  23859415.406   125382105.00006        39.000        3460.754    97700351.02703
        20.000        2696.664    23859418.813  
  19900812.219   106082562.95708        51.000        2361.371    82508634.74607
        44.000        1836.871    19900813.758  
  20008495.180   106844165.81606        41.000       -1881.238    83101022.53106
        41.000       -1463.086    20008495.797  
  19799729.672   105878040.49608        49.000       -1692.617    82349541.86707
        43.000       -1316.500    19799731.016  
  22872224.211   122350962.21107        43.000       -3653.016                  
                                                
  20877575.680   111720076.36308        50.000        1698.699    86893424.75408
        49.000        1321.246    20877577.766  
 23  7 24 20 59  8.0000000  0 13G11G28G25G29G12G20G05G18R14R13R24R23            
                                R17                                             
  22387611.602   117647598.39807        45.000       -2783.785    91673518.93405
        34.000       -2169.176    22387613.859  
  24166549.609   126996092.34006        37.000        2570.676    98957989.99204
        24.000        2003.129    24166557.281  
  21359329.594   112243959.72307        47.000        2110.582    87462926.75406
        39.000        1644.609    21359335.250  
  22018982.070   115710532.52708        48.000         526.484    90164059.73006
        40.000         410.258    22018984.750  
  21073941.906   110744317.68008        51.000         161.938    86294269.52008
        51.000         126.188    21073942.805  
  22399096.867   117708056.09807        42.000         209.469    91720569.47704
        29.000         163.203    22399100.383  
  22804692.563   119839477.65607        45.000        1711.219    93381428.77707
        44.000        1333.422    22804695.047  
  23858758.141   125378650.41406        39.000        3460.426    97697659.14803
        20.000        2696.398    23858761.258  
  19900370.273   106080207.59808        51.000        2360.848    82506802.79707
        44.000        1836.469    19900372.242  
  20008848.797   106846053.03506        41.000       -1881.344    83102490.39106
        41.000       -1463.379    20008849.297  
  19800047.398   105879739.20708        49.000       -1693.145    82350863.08207
        43.000       -1316.922    19800048.727  
  22872908.094   122354621.44907        43.000       -3653.656                  
                                                
  20877259.703   111718383.73808        51.000        1698.223    86892108.27708
        48.000        1320.738    20877261.297  
 23  7 24 20 59  9.0000000  0 13G11G28G25G29G12G20G05G18R14R13R24R23            
                                R17                                             
  22388140.391   117650376.61307        45.000       -2784.066    91675683.78105
        34.000       -2169.387    22388142.578  
  24166059.383   126993516.46106        38.000        2569.867    98955982.82004
        24.000        2002.523    24166067.016  
  21358926.945   112241843.43807        47.000        2110.266    87461277.70306
        39.000        1644.363    21358932.484  
  22018880.789   115710000.28508        48.000         526.418    90163644.99206
        40.000         410.203    22018883.477  
  21073909.898   110744150.16808        51.000         161.555    86294138.99208
        51.000         125.879    21073910.938  
  22399056.102   117707841.35907        42.000         208.742    91720402.14504
        29.000         162.672    22399059.539  
  22804365.680   119837760.78907        45.000        1711.102    93380090.96107
        44.000        1333.324    22804368.328  
  23858098.445   125375184.45706        39.000        3460.105    97694958.41803
        20.000        2696.188    23858101.813  
  19899926.180   106077841.07008        51.000        2360.535    82504962.17607
        43.000        1835.918    19899928.320  
  20009200.102   106847929.28506        40.000       -1882.422    83103949.69506
        41.000       -1464.352    20009200.656  
  19800362.891   105881426.65208        49.000       -1693.672    82352175.52707
        44.000       -1317.238    19800364.281  
  22873589.859   122358268.85907        43.000       -3653.191                  
                                                
  20876941.656   111716679.94508        51.000        1697.742    86890783.10508
        48.000        1320.383    20876942.758  
 23  7 24 20 59 10.0000000  0 13G11G28G25G29G12G20G05G18R14R13R24R23            
                                R17                                             
  22388669.414   117653157.08207        45.000       -2784.273    91677850.38305
        34.000       -2169.563    22388671.703  
  24165569.852   126990942.89806        38.000        2569.633    98953977.45704
        24.000        2002.285    24165577.344  
  21358524.648   112239729.21507        47.000        2110.254    87459630.25806
        39.000        1644.340    21358530.164  
  22018779.938   115709470.11308        48.000         526.324    90163231.87906
        40.000         410.121    22018782.547  
  21073878.438   110743984.89508        51.000         161.391    86294010.20708
        51.000         125.754    21073879.445  
  22399015.867   117707629.06607        42.000         208.480    91720236.72304
        29.000         162.461    22399019.156  
  22804039.695   119836046.13707        44.000        1710.695    93378754.87107
        44.000        1333.000    22804042.000  
  23857439.430   125371720.65206        39.000        3459.891    97692259.37503
        20.000        2696.035    23857442.406  
  19899482.672   106075477.00408        51.000        2359.898    82503123.45307
        43.000        1835.594    19899484.789  
  20009551.930   106849808.17206        40.000       -1883.078    83105411.04706
        41.000       -1464.336    20009552.461  
  19800678.648   105883116.46108        48.000       -1693.859    82353489.83607
        44.000       -1317.523    19800680.516  
  22874271.773   122361918.18407        43.000       -3653.082                  
                                                
  20876623.695   111714978.67208        51.000        1697.234    86889459.89108
        48.000        1319.914    20876624.758  
 23  7 24 20 59 11.0000000  0 13G11G28G25G29G12G20G05G18R14R13R24R23            
                                R17                                             
  22389201.008   117655949.50407        46.000       -2784.617    91680026.30505
        34.000       -2169.844    22389203.094  
  24165082.273   126988381.32806        38.000        2569.633    98951981.42604
        24.000        2002.297    24165089.930  
  21358124.414   112237626.78107        47.000        2110.211    87457992.00006
        39.000        1644.320    21358130.070  
  22018681.148   115708951.73008        48.000         526.211    90162827.94506
        40.000         410.039    22018683.875  
  21073849.266   110743831.56608        51.000         161.008    86293890.73408
        51.000         125.461    21073850.234  
  22398977.883   117707428.96907        43.000         207.645    91720080.80904
        29.000         161.797    22398981.094  
  22803715.656   119834343.37907        45.000        1710.746    93377428.05507
        44.000        1333.047    22803717.953  
  23856782.172   125368268.69506        39.000        3459.828    97689569.54703
        20.000        2695.969    23856785.578  
  19899041.500   106073125.23808        51.000        2359.590    82501294.31607
        43.000        1835.055    19899043.633  
  20009905.992   106851699.62106        40.000       -1883.840    83106882.16406
        41.000       -1465.258    20009906.805  
  19800996.891   105884818.54708        49.000       -1694.102    82354813.69107
        44.000       -1317.859    19800998.984  
  22874956.102   122365579.27707        43.000       -3652.637                  
                                                
  20876308.125   111713289.82408        51.000        1696.660    86888146.35208
        48.000        1319.523    20876309.063  
 23  7 24 20 59 12.0000000  0 13G11G28G25G29G12G20G05G18R14R13R24R23            
                                R17                                             
  22389730.664   117658734.40607        46.000       -2785.129    91682196.35205
        34.000       -2170.215    22389733.000  
  24164593.148   126985812.32806        38.000        2569.051    98949979.60204
        24.000        2001.832    24164601.031  
  21357722.898   112235516.64807        47.000        2109.887    87456347.73806
        39.000        1644.074    21357728.477  
  22018581.008   115708425.64508        48.000         525.938    90162418.00806
        40.000         409.809    22018583.773  
  21073818.672   110743670.70708        51.000         160.672    86293765.38708
        51.000         125.199    21073819.633  
  22398938.102   117707221.55907        43.000         206.980    91719919.18804
        29.000         161.297    22398941.648  
  22803390.469   119832633.09407        45.000        1709.961    93376095.35907
        44.000        1332.445    22803392.492  
  23856123.758   125364809.08206        39.000        3459.352    97686873.76603
        20.000        2695.582    23856127.211  
  19898598.930   106070766.07408        51.000        2358.668    82499459.39507
        43.000        1834.930    19898601.070  
  20010258.672   106853583.75006        40.000       -1884.543    83108347.59406
        41.000       -1465.730    20010259.719  
  19801313.953   105886513.14108        49.000       -1694.996    82356131.70307
        43.000       -1318.227    19801315.766  
  22875639.289   122369232.31607        43.000       -3652.797                  
                                                
  20875991.375   111711593.56608        51.000        1695.824    86886827.03508
        48.000        1318.887    20875991.906  
 23  7 24 20 59 13.0000000  0 13G11G28G25G29G12G20G05G18R14R13R24R23            
                                R17                                             
  22390258.789   117661511.75007        46.000       -2784.949    91684360.51605
        34.000       -2170.059    22390261.484  
  24164102.609   126983235.82006        37.000        2568.754    98947971.92204
        24.000        2001.609    24164110.766  
  21357319.938   112233398.79307        47.000        2110.020    87454697.45706
        39.000        1644.168    21357325.445  
  22018479.477   115707891.84808        48.000         525.996    90162002.06306
        40.000         409.855    22018482.211  
  21073786.594   110743502.30108        51.000         160.523    86293634.16008
        51.000         125.074    21073787.570  
  22398897.430   117707006.81307        43.000         206.547    91719751.85904
        29.000         160.938    22398900.828  
  22803063.234   119830915.23407        45.000        1709.711    93374756.77307
        44.000        1332.234    22803065.578  
  23855463.844   125361341.83606        39.000        3459.492    97684172.02003
        20.000        2695.738    23855467.352  
  19898154.938   106068399.48808        51.000        2358.395    82497618.73007
        43.000        1834.355    19898156.938  
  20010609.867   106855460.58606        40.000       -1885.176    83109807.36306
        41.000       -1466.066    20010611.367  
  19801629.602   105888200.19908        49.000       -1695.184    82357443.85207
        44.000       -1318.270    19801631.203  
  22876320.547   122372877.28107        43.000       -3652.934                  
                                                
  20875672.883   111709889.84408        51.000        1695.699    86885501.92608
        48.000        1318.688    20875673.453  
 23  7 24 20 59 14.0000000  0 13G11G28G25G29G12G20G05G18R14R13R24R23            
                                R17                                             
  22390789.500   117664299.91007        46.000       -2786.000    91686533.11705
        34.000       -2170.910    22390792.023  
  24163614.594   126980670.23406        38.000        2567.531    98945972.75804
        24.000        2000.703    24163622.688  
  21356919.125   112231291.57407        47.000        2109.707    87453055.47306
        39.000        1643.906    21356924.453  
  22018379.773   115707368.68808        48.000         525.617    90161594.40606
        40.000         409.566    22018382.641  
  21073756.500   110743344.68808        51.000         159.914    86293511.35208
        51.000         124.609    21073757.547  
  22398859.086   117706803.09407        43.000         206.027    91719593.12904
        29.000         160.535    22398862.102  
  22802737.977   119829208.12107        45.000        1709.563    93373426.56307
        44.000        1332.125    22802740.703  
  23854806.359   125357885.29306        39.000        3458.688    97681478.60903
        20.000        2695.059    23854809.609  
  19897712.984   106066044.10908        51.000        2357.617    82495786.77007
        44.000        1833.836    19897714.945  
  20010963.805   106857348.75406        40.000       -1886.281    83111275.93806
        41.000       -1467.109    20010964.719  
  19801947.125   105889898.37508        49.000       -1696.227    82358764.66007
        44.000       -1319.141    19801949.047  
  22877004.281   122376532.81607        44.000       -3653.262                  
                                                
  20875356.391   111708197.39508        51.000        1694.703    86884185.58208
        48.000        1318.098    20875357.023  
 23  7 24 20 59 15.0000000  0 13G11G28G25G29G12G20G05G18R14R13R24R23            
                                R17                                             
  22391320.742   117667091.34407        46.000       -2786.109    91688708.25805
        34.000       -2170.992    22391323.180  
  24163127.242   126978107.90206        37.000        2567.789    98943976.14104
        24.000        2000.891    24163135.133  
  21356518.422   112229187.43807        47.000        2109.207    87451415.89106
        39.000        1643.539    21356524.023  
  22018280.609   115706848.61308        48.000         525.301    90161189.15206
        40.000         409.332    22018283.672  
  21073727.164   110743190.32008        51.000         159.504    86293391.06308
        51.000         124.301    21073728.180  
  22398820.883   117706602.86707        43.000         205.129    91719437.10204
        29.000         159.832    22398824.086  
  22802413.789   119827504.25407        45.000        1709.125    93372098.87507
        44.000        1331.789    22802416.477  
  23854148.758   125354431.87106        39.000        3458.684    97678787.64803
        20.000        2695.035    23854152.461  
  19897271.836   106063692.24608        51.000        2357.031    82493957.54307
        44.000        1833.348    19897273.844  
  20011318.117   106859240.59406        41.000       -1887.023    83112747.36306
        41.000       -1467.387    20011319.016  
  19802265.367   105891599.96508        49.000       -1696.434    82360088.11707
        44.000       -1319.426    19802267.297  
  22877688.125   122380191.24607        43.000       -3652.535                  
                                                
  20875040.906   111706508.53108        51.000        1694.078    86882872.02708
        48.000        1317.387    20875041.453  
 23  7 24 20 59 16.0000000  0 13G11G28G25G29G12G20G05G18R14R13R24R23            
                                R17                                             
  22391849.461   117669870.85507        45.000       -2786.473    91690874.10505
        34.000       -2171.293    22391852.063  
  24162637.164   126975533.78506        38.000        2567.109    98941970.33204
        24.000        2000.383    24162645.305  
  21356115.609   112227071.23807        47.000        2109.266    87449766.89806
        39.000        1643.578    21356121.289  
  22018179.906   115706316.46507        47.000         525.328    90160774.48806
        40.000         409.344    22018182.414  
  21073695.469   110743024.06308        50.000         159.418    86293261.51608
        51.000         124.234    21073696.547  
  22398780.000   117706390.93007        42.000         205.148    91719271.95304
        29.000         159.859    22398783.789  
  22802087.133   119825788.49207        45.000        1709.051    93370761.91807
        44.000        1331.734    22802090.023  
  23853488.914   125350966.41806        38.000        3458.438    97676087.31303
        20.000        2694.879    23853493.000  
  19896828.492   106061328.51208        51.000        2356.625    82492119.09007
        44.000        1833.078    19896830.414  
  20011670.180   106861120.71506        40.000       -1887.316    83114209.68006
        41.000       -1468.000    20011671.258  
  19802581.469   105893289.60908        49.000       -1696.750    82361402.29307
        43.000       -1319.555    19802583.047  
  22878369.633   122383837.19507        43.000       -3652.469                  
                                                
  20874723.164   111704807.82008        51.000        1693.574    86881549.25408
        48.000        1317.137    20874723.602  
 23  7 24 20 59 17.0000000  0 13G11G28G25G29G12G20G05G18R14R13R24R23            
                                R17                                             
  22392378.563   117672652.53907        45.000       -2786.773    91693041.65605
        34.000       -2171.492    22392381.398  
  24162147.469   126972961.84406        38.000        2567.262    98939966.21904
        24.000        2000.488    24162155.734  
  21355713.313   112224957.00007        47.000        2109.199    87448119.44506
        39.000        1643.523    21355718.969  
  22018078.813   115705786.28107        47.000         525.340    90160361.36306
        40.000         409.344    22018081.492  
  21073664.273   110742859.94108        50.000         159.234    86293133.62908
        51.000         124.078    21073665.305  
  22398739.859   117706181.36707        43.000         204.844    91719108.66004
        29.000         159.598    22398743.945  
  22801761.313   119824074.80507        45.000        1708.828    93369426.57807
        44.000        1331.551    22801763.922  
  23852829.898   125347503.03506        38.000        3458.246    97673388.57803
        20.000        2694.691    23852834.102  
  19896385.477   106058967.16408        51.000        2356.238    82490282.48407
        44.000        1832.664    19896387.336  
  20012022.477   106863003.39106        40.000       -1887.488    83115674.00407
        42.000       -1468.523    20012023.930  
  19802897.602   105894981.55508        49.000       -1696.871    82362718.25007
        43.000       -1319.891    19802898.844  
  22879051.180   122387484.96507        43.000       -3652.543                  
                                                
  20874405.703   111703109.53108        51.000        1693.180    86880228.35508
        48.000        1316.832    20874406.164  
 23  7 24 20 59 18.0000000  0 13G11G28G25G29G12G20G05G18R14R13R24R23            
                                R17                                             
  22392910.688   117675446.60207        45.000       -2787.113    91695218.85505
        34.000       -2171.789    22392913.078  
  24161660.398   126970402.37106        38.000        2566.660    98937971.82004
        24.000        1999.992    24161668.617  
  21355313.602   112222854.97307        47.000        2109.238    87446481.50806
        39.000        1643.555    21355318.930  
  22017980.297   115705268.33208        48.000         524.996    90159957.77306
        40.000         409.090    22017982.906  
  21073635.406   110742708.20308        50.000         158.766    86293015.39108
        51.000         123.711    21073636.406  
  22398703.336   117705984.42207        43.000         203.828    91718955.19904
        29.000         158.832    22398706.531  
  22801437.688   119822373.53107        45.000        1708.277    93368100.91807
        45.000        1331.109    22801440.172  
  23852173.188   125344051.91006        38.000        3457.668    97670699.39803
        20.000        2694.293    23852177.523  
  19895944.953   106056618.60508        51.000        2355.680    82488455.82807
        43.000        1832.242    19895946.828  
  20012377.516   106864899.07006        40.000       -1888.887    83117148.39507
        42.000       -1468.707    20012379.109  
  19803216.273   105896686.22708        49.000       -1697.473    82364044.11707
        43.000       -1320.375    19803217.672  
  22879735.570   122391144.92607        44.000       -3652.750                  
                                                
  20874090.758   111701424.11308        51.000        1692.344    86878917.47708
        48.000        1316.414    20874091.273  
 23  7 24 20 59 19.0000000  0 13G11G28G25G29G12G20G05G18R14R13R24R23            
                                R17                                             
  22393441.086   117678233.54707        45.000       -2787.641    91697390.50005
        34.000       -2172.184    22393443.344  
  24161172.195   126967835.83206        38.000        2566.250    98935971.91404
        24.000        1999.801    24161180.211  
  21354912.234   112220745.64507        47.000        2108.980    87444837.87106
        39.000        1643.359    21354917.523  
  22017880.188   115704743.07008        48.000         524.754    90159548.47706
        40.000         408.902    22017882.969  
  21073605.266   110742549.33208        50.000         158.410    86292891.59808
        51.000         123.441    21073606.195  
  22398664.648   117705780.56607        43.000         203.133    91718796.35504
        29.000         158.281    22398667.773  
  22801112.484   119820665.07807        45.000        1708.238    93366769.64807
        45.000        1331.098    22801115.094  
  23851514.930   125340593.57006        37.000        3457.438    97668004.59003
        20.000        2694.074    23851519.258  
  19895503.047   106054263.05908        51.000        2355.000    82486623.75007
        43.000        1831.605    19895504.961  
  20012731.469   106866787.85206        40.000       -1889.578    83118617.46107
        42.000       -1469.461    20012732.836  
  19803533.898   105898383.77708        49.000       -1698.102    82365364.42207
        43.000       -1320.508    19803535.133  
  22880418.828   122394797.23807        44.000       -3652.527                  
                                                
  20873774.633   111699731.71108        51.000        1691.688    86877601.16407
        47.000        1315.840    20873774.914  
 23  7 24 20 59 20.0000000  0 13G11G28G25G29G12G20G05G18R14R13R24R23            
                                R17                                             
  22393969.797   117681012.67607        45.000       -2787.930    91699556.05505
        34.000       -2172.410    22393972.164  
  24160682.508   126965261.56606        38.000        2565.676    98933966.00404
        24.000        1999.227    24160690.398  
  21354509.391   112218628.35507        47.000        2108.465    87443188.04306
        39.000        1642.945    21354514.586  
  22017778.781   115704209.84008        48.000         524.430    90159132.98006
        40.000         408.645    22017781.469  
  21073573.469   110742382.66008        50.000         157.797    86292761.72308
        51.000         122.961    21073574.469  
  22398624.078   117705569.10507        43.000         202.555    91718631.58604
        29.000         157.836    22398627.539  
  22800786.242   119818948.80107        45.000        1707.590    93365432.28907
        45.000        1330.570    22800788.508  
  23850854.602   125337127.27706        38.000        3457.527    97665303.59403
        20.000        2694.102    23850859.477  
  19895059.664   106051899.78108        51.000        2354.402    82484785.65607
        43.000        1831.020    19895061.555  
  20013083.641   106868669.07806        40.000       -1890.238    83120080.64807
        42.000       -1470.336    20013085.070  
  19803849.625   105900073.50808        49.000       -1698.777    82366678.67207
        43.000       -1321.211    19803851.078  
  22881100.094   122398441.21907        44.000       -3652.652                  
                                                
  20873456.805   111698031.60508        51.000        1691.207    86876278.86308
        48.000        1315.168    20873457.133  
 23  7 24 20 59 21.0000000  0 13G11G28G25G29G12G20G05G18R14R13R24R23            
                                R17                                             
  22394500.836   117683802.66407        45.000       -2788.055    91701730.07405
        34.000       -2172.516    22394503.070  
  24160194.922   126962698.22306        38.000        2565.539    98931968.58604
        24.000        1999.148    24160202.594  
  21354108.320   112216521.73008        48.000        2108.719    87441546.52006
        39.000        1643.152    21354113.734  
  22017679.281   115703687.28908        48.000         524.434    90158725.79706
        40.000         408.664    22017682.008  
  21073543.758   110742226.82008        50.000         157.684    86292640.29308
        51.000         122.871    21073544.789  
  22398586.242   117705368.73807        43.000         202.121    91718475.45704
        29.000         157.500    22398589.398  
  22800462.008   119817243.37107        45.000        1707.207    93364103.39107
        45.000        1330.293    22800463.953  
  23850197.695   125333671.72706        38.000        3457.801    97662610.99603
        20.000        2694.371    23850201.867  
  19894618.438   106049547.71108        51.000        2353.848    82482956.24607
        43.000        1831.008    19894620.453  
  20013437.969   106870561.73406        40.000       -1891.000    83121552.69907
        42.000       -1470.797    20013439.594  
  19804167.406   105901774.41408        49.000       -1699.176    82368001.59807
        43.000       -1321.391    19804168.859  
  22881783.055   122402095.82407        44.000       -3652.387                  
                                                
  20873141.031   111696342.78508        51.000        1690.719    86874965.33608
        48.000        1314.852    20873141.578  
 23  7 24 20 59 22.0000000  0 13G11G28G25G29G12G20G05G18R14R13R24R23            
                                R17                                             
  22395033.258   117686602.25407        45.000       -2788.129    91703911.57405
        34.000       -2172.563    22395035.805  
  24159709.250   126960144.57806        38.000        2564.441    98929978.72304
        24.000        1998.273    24159716.711  
  21353709.398   112214424.56307        47.000        2108.484    87439912.36306
        39.000        1642.980    21353714.648  
  22017581.766   115703174.18408        48.000         524.352    90158325.98006
        40.000         408.586    22017584.383  
  21073515.891   110742080.60508        50.000         157.395    86292526.35908
        51.000         122.648    21073516.969  
  22398549.664   117705178.20707        43.000         201.426    91718326.98804
        29.000         156.930    22398553.188  
  22800139.148   119815547.50807        45.000        1707.145    93362781.93807
        45.000        1330.230    22800141.250  
  23849541.563   125330225.73006        38.000        3457.188    97659925.80903
        20.000        2693.895    23849546.289  
  19894179.164   106047205.59008        51.000        2353.418    82481134.60207
        43.000        1830.465    19894181.328  
  20013794.156   106872464.49206        40.000       -1891.758    83123032.63307
        42.000       -1471.359    20013796.148  
  19804487.438   105903485.24208        49.000       -1699.504    82369332.25007
        43.000       -1322.031    19804488.641  
  22882468.078   122405759.83207        44.000       -3652.695                  
                                                
  20872827.406   111694664.01208        51.000        1690.039    86873659.62108
        48.000        1314.418    20872827.875  
 23  7 24 20 59 23.0000000  0 13G11G28G25G29G12G20G05G18R14R13R24R23            
                                R17                                             
  22395563.711   117689391.71907        44.000       -2788.680    91706085.19105
        34.000       -2173.004    22395566.578  
  24159221.102   126957580.80106        39.000        2564.219    98927980.96504
        24.000        1998.098    24159228.828  
  21353308.352   112212317.07008        48.000        2108.379    87438270.16006
        39.000        1642.895    21353313.547  
  22017481.891   115702650.75408        48.000         524.160    90157918.10906
        40.000         408.445    22017484.805  
  21073486.031   110741924.21508        50.000         157.223    86292404.49608
        51.000         122.500    21073487.234  
  22398511.320   117704977.71907        43.000         200.918    91718170.76604
        29.000         156.563    22398515.047  
  22799814.469   119813841.48807        46.000        1706.594    93361452.57007
        45.000        1329.824    22799816.625  
  23848883.820   125326769.43806        38.000        3457.328    97657232.60203
        20.000        2694.020    23848888.148  
  19893737.844   106044853.37108        51.000        2352.895    82479305.11307
        44.000        1830.008    19893740.469  
  20014148.430   106874357.28906        40.000       -1891.879    83124504.80907
        42.000       -1471.887    20014150.875  
  19804805.648   105905185.84408        49.000       -1699.871    82370654.93407
        42.000       -1322.207    19804806.547  
  22883151.039   122409413.12107        44.000       -3652.391                  
                                                
  20872512.086   111692975.14508        51.000        1689.379    86872346.06308
        48.000        1314.066    20872512.359  
 23  7 24 20 59 24.0000000  0 13G11G28G25G29G12G20G05G18R14R13R24R23            
                                R17                                             
  22396091.648   117692166.64807        44.000       -2789.004    91708247.47305
        34.000       -2173.242    22396094.633  
  24158730.266   126955002.61706        39.000        2564.039    98925971.98804
        25.000        1997.902    24158738.250  
  21352904.219   112210194.87507        47.000        2108.473    87436616.50406
        39.000        1642.961    21352909.688  
  22017379.734   115702112.62508        48.000         524.402    90157498.78906
        40.000         408.637    22017382.398  
  21073453.617   110741753.31608        50.000         156.867    86292271.32808
        51.000         122.219    21073454.727  
  22398470.609   117704762.93807        43.000         200.582    91718003.40604
        29.000         156.293    22398474.133  
  22799487.031   119812120.90607        45.000        1706.465    93360111.86307
        45.000        1329.719    22799489.242  
  23848223.625   125323298.50406        38.000        3457.301    97654527.99603
        20.000        2693.973    23848227.711  
  19893293.922   106042486.66408        51.000        2352.406    82477464.33207
        44.000        1829.781    19893296.758  
  20014500.492   106876235.69906        40.000       -1892.977    83125965.79707
        42.000       -1472.418    20014502.672  
  19805120.906   105906871.80908        49.000       -1700.195    82371966.24607
        42.000       -1322.727    19805121.594  
  22883831.586   122413051.20307        44.000       -3652.340                  
                                                
  20872193.828   111691271.75408        51.000        1689.160    86871021.21108
        48.000        1313.684    20872194.102  
 23  7 24 20 59 25.0000000  0 13G11G28G25G29G12G20G05G18R14R13R24R23            
                                R17                                             
  22396621.047   117694948.86707        44.000       -2789.453    91710415.43405
        34.000       -2173.602    22396624.055  
  24158240.969   126952431.73406        39.000        2563.246    98923968.70704
        25.000        1997.367    24158248.898  
  21352501.875   112208079.80108        48.000        2107.809    87434968.39806
        39.000        1642.449    21352507.203  
  22017278.563   115701581.62108        48.000         523.848    90157085.02006
        40.000         408.191    22017281.328  
  21073422.453   110741589.68408        50.000         156.363    86292143.82408
        51.000         121.832    21073423.570  
  22398431.164   117704555.66407        43.000         199.656    91717841.89504
        29.000         155.598    22398434.680  
  22799161.273   119810407.55107        46.000        1705.984    93358776.78507
        45.000        1329.336    22799163.211  
  23847564.891   125319834.74606        38.000        3456.969    97651828.96903
        20.000        2693.742    23847568.492  
  19892851.469   106040127.58208        51.000        2351.520    82475629.51207
        44.000        1828.355    19892854.086  
  20014853.719   106878121.88306        40.000       -1893.695    83127432.80507
        42.000       -1472.828    20014855.734  
  19805437.352   105908565.34808        49.000       -1701.094    82373283.43807
        43.000       -1323.277    19805438.336  
  22884512.727   122416696.29307        44.000       -3652.379                  
                                                
  20871876.727   111689576.04308        51.000        1687.930    86869702.32008
        48.000        1312.805    20871877.281  
 23  7 24 20 59 26.0000000  0 13G11G28G25G29G12G20G05G18R14R13R24R23            
                                R17                                             
  22397153.500   117697747.31307        44.000       -2789.797    91712596.04305
        34.000       -2173.867    22397156.586  
  24157755.188   126949877.16806        39.000        2562.793    98921978.13704
        25.000        1997.098    24157762.664  
  21352102.469   112205980.79707        47.000        2107.449    87433332.81606
        39.000        1642.160    21352107.789  
  22017180.422   115701066.68008        48.000         523.578    90156683.77006
        40.000         407.973    22017183.313  
  21073394.633   110741442.29708        50.000         155.840    86292028.97708
        51.000         121.430    21073395.500  
  22398394.688   117704364.83607        43.000         199.355    91717693.19504
        29.000         155.348    22398398.359  
  22798838.586   119808710.44507        46.000        1705.602    93357454.37107
        45.000        1329.027    22798840.273  
  23846908.703   125316387.16806        37.000        3455.773    97649142.57403
        20.000        2692.789    23846912.367  
  19892412.016   106037785.19908        51.000        2350.785    82473807.65207
        44.000        1828.363    19892414.859  
  20015209.977   106880024.94906        40.000       -1895.023    83128912.98407
        42.000       -1473.813    20015212.086  
  19805757.219   105910275.54308        49.000       -1701.637    82374613.59807
        43.000       -1323.465    19805758.133  
  22885196.945   122420357.52307        44.000       -3652.430                  
                                                
  20871562.969   111687897.12108        51.000        1687.391    86868396.48808
        48.000        1312.246    20871563.539  
 23  7 24 20 59 27.0000000  0 13G11G28G25G29G12G20G05G18R14R13R24R23            
                                R17                                             
  22397686.320   117700545.58607        44.000       -2790.305    91714776.52005
        34.000       -2174.246    22397689.031  
  24157268.711   126947322.47306        39.000        2562.785    98919987.47704
        25.000        1996.992    24157276.609  
  21351703.031   112203881.41007        47.000        2107.410    87431696.92606
        39.000        1642.148    21351708.266  
  22017082.570   115700551.37508        48.000         523.266    90156282.23006
        40.000         407.742    22017085.273  
  21073366.438   110741294.70308        50.000         155.340    86291913.96908
        51.000         121.047    21073367.414  
  22398358.180   117704174.05107        43.000         198.555    91717544.54304
        29.000         154.723    22398362.055  
  22798515.320   119807013.08607        46.000        1705.438    93356131.75407
        45.000        1328.906    22798517.289  
  23846252.219   125312939.21506        37.000        3456.453    97646455.86303
        20.000        2693.359    23846256.359  
  19891972.539   106035442.81608        51.000        2350.410    82471985.80107
        44.000        1827.918    19891975.703  
  20015566.492   106881928.18006        40.000       -1895.531    83130393.27707
        42.000       -1474.309    20015568.742  
  19806076.883   105911985.62108        48.000       -1702.070    82375943.66407
        42.000       -1323.852    19806077.945  
  22885881.398   122424018.14107        44.000       -3652.324                  
                                                
  20871249.555   111686218.26208        51.000        1686.945    86867090.70708
        48.000        1312.043    20871249.836  
 23  7 24 20 59 28.0000000  0 13G11G28G25G29G12G20G05G18R14R13R24R23            
                                R17                                             
  22398216.133   117703330.40607        44.000       -2790.191    91716946.50405
        34.000       -2174.168    22398218.938  
  24156780.781   126944754.42606        39.000        2562.816    98917986.39804
        25.000        1997.023    24156787.961  
  21351300.969   112201768.41407        47.000        2107.781    87430050.43406
        39.000        1642.414    21351306.141  
  22016981.883   115700022.44908        48.000         523.754    90155870.08206
        40.000         408.129    22016984.633  
  21073335.773   110741133.65608        50.000         155.699    86291788.47308
        51.000         121.336    21073336.773  
  22398319.141   117703970.04707        43.000         198.242    91717385.57404
        29.000         154.492    22398323.242  
  22798189.719   119805302.26607        46.000        1705.469    93354798.64507
        45.000        1328.930    22798191.758  
  23845593.508   125309477.74206        37.000        3455.465    97643758.62503
        20.000        2692.543    23845597.727  
  19891530.539   106033087.00408        51.000        2350.344    82470153.49607
        44.000        1828.051    19891533.516  
  20015920.430   106883818.12506        40.000       -1895.547    83131863.23007
        42.000       -1474.457    20015922.711  
  19806394.031   105913682.14808        48.000       -1702.039    82377263.18407
        42.000       -1324.102    19806395.023  
  22886562.938   122427664.69507        44.000       -3651.730                  
                                                
  20870933.320   111684525.94908        51.000        1686.844    86865774.47307
        47.000        1311.668    20870933.617  
 23  7 24 20 59 29.0000000  0 13G11G28G25G29G12G20G05G18R14R13R24R23            
                                R17                                             
  22398746.453   117706116.78907        44.000       -2790.938    91719117.71505
        34.000       -2174.758    22398749.195  
  24156292.438   126942187.97706        39.000        2562.363    98915986.57004
        25.000        1996.648    24156299.648  
  21350898.930   112199656.82407        47.000        2107.098    87428405.04306
        39.000        1641.887    21350904.320  
  22016881.461   115699494.93008        48.000         523.039    90155459.02706
        40.000         407.559    22016884.195  
  21073305.406   110740974.17608        50.000         154.977    86291664.20708
        51.000         120.758    21073306.391  
  22398281.109   117703767.80107        43.000         197.445    91717227.98804
        29.000         153.863    22398284.734  
  22797864.719   119803592.97707        46.000        1704.930    93353466.73007
        45.000        1328.516    22797866.492  
  23844934.594   125306017.73806        36.000        3455.875    97641062.52703
        20.000        2692.867    23844939.391  
  19891088.844   106030732.98008        51.000        2349.266    82468322.60507
        44.000        1827.113    19891091.805  
  20016274.813   106885709.98806        40.000       -1896.340    83133334.69507
        42.000       -1475.051    20016276.953  
  19806711.352   105915380.37508        49.000       -1702.969    82378584.04707
        42.000       -1324.668    19806712.438  
  22887244.703   122431312.42607        43.000       -3652.008                  
                                                
  20870617.391   111682835.42608        51.000        1685.906    86864459.64107
        47.000        1311.316    20870617.742  
 23  7 24 20 59 30.0000000  0 13G11G28G25G29G12G20G05G18R14R13R24R23            
                                R17                                             
  22399278.844   117708915.32407        44.000       -2790.797    91721298.40205
        34.000       -2174.656    22399281.758  
  24155806.172   126939633.78106        39.000        2561.758    98913996.30104
        25.000        1996.180    24155813.492  
  21350499.594   112197557.20307        47.000        2107.383    87426768.97706
        39.000        1642.125    21350504.766  
  22016783.484   115698979.38308        48.000         523.207    90155057.30506
        40.000         407.691    22016786.063  
  21073277.367   110740826.84808        50.000         154.941    86291549.40608
        51.000         120.738    21073278.336  
  22398244.695   117703577.93007        43.000         197.500    91717080.03904
        29.000         153.926    22398248.602  
  22797541.805   119801895.80507        46.000        1704.852    93352144.27007
        45.000        1328.469    22797543.547  
  23844278.063   125302569.76206        37.000        3455.594    97638375.80103
        20.000        2692.660    23844283.430  
  19890649.539   106028391.55908        51.000        2349.023    82466501.48407
        44.000        1826.965    19890652.477  
  20016631.719   106887614.62906        40.000       -1896.988    83134816.06607
        42.000       -1475.484    20016633.641  
  19807031.195   105917091.17208        48.000       -1703.074    82379914.63707
        42.000       -1324.270    19807032.539  
  22887928.805   122434972.19907        43.000       -3652.109                  
                                                
  20870303.898   111681157.60508        51.000        1685.543    86863154.64508
        48.000        1311.156    20870304.453  
 23  7 24 20 59 31.0000000  0 13G11G28G25G29G12G20G05G18R14R13R24R23            
                                R17                                             
  22399810.172   117711707.08607        44.000       -2791.754    91723473.79305
        34.000       -2175.414    22399812.977  
  24155319.070   126937072.83606        39.000        2561.281    98912000.75404
        25.000        1995.793    24155326.078  
  21350098.734   112195450.64107        47.000        2106.938    87425127.50006
        39.000        1641.770    21350103.875  
  22016684.039   115698456.88308        48.000         522.605    90154650.16006
        40.000         407.246    22016686.633  
  21073248.195   110740672.73008        50.000         154.297    86291429.31308
        51.000         120.219    21073249.016  
  22398206.961   117703381.53507        42.000         196.246    91716927.00404
        29.000         152.926    22398211.234  
  22797217.586   119800191.84807        46.000        1703.984    93350816.50807
        45.000        1327.793    22797219.328  
  23843621.203   125299114.87906        36.000        3455.652    97635683.68003
        20.000        2692.723    23843626.211  
  19890209.070   106026043.48408        51.000        2348.086    82464675.21507
        44.000        1826.180    19890212.211  
  20016987.406   106889512.71906        41.000       -1898.422    83136292.35907
        42.000       -1476.508    20016989.250  
  19807350.016   105918795.15208        49.000       -1704.047    82381239.95707
        42.000       -1325.293    19807351.078  
  22888611.797   122438624.63307        43.000       -3652.078                  
                                                
  20869989.695   111679473.13308        51.000        1684.566    86861844.50408
        48.000        1310.176    20869989.664  
 23  7 24 20 59 32.0000000  0 13G11G28G25G29G12G20G05G18R14R13R24R23            
                                R17                                             
  22400339.664   117714490.80907        44.000       -2791.910    91725642.92605
        34.000       -2175.516    22400342.664  
  24154830.719   126934503.93806        39.000        2561.191    98909999.01204
        25.000        1995.730    24154837.156  
  21349696.383   112193335.87907        47.000        2106.789    87423479.63706
        39.000        1641.645    21349701.438  
  22016582.977   115697926.18008        48.000         522.527    90154236.62906
        40.000         407.156    22016585.617  
  21073217.102   110740510.58208        50.000         153.902    86291302.95708
        51.000         119.922    21073218.141  
  22398168.719   117703177.28507        43.000         195.734    91716767.84804
        29.000         152.488    22398172.398  
  22796891.719   119798479.81307        46.000        1703.840    93349482.45307
        45.000        1327.664    22796893.555  
  23842961.531   125295651.89106        36.000        3454.750    97632985.25003
        20.000        2692.012    23842967.313  
  19889767.102   106023687.49208        51.000        2347.492    82462842.78507
        44.000        1825.766    19889770.367  
  20017341.484   106891403.02006        41.000       -1898.668    83137762.59807
        42.000       -1477.129    20017343.172  
  19807666.914   105920491.05108        48.000       -1704.438    82382559.00007
        42.000       -1325.262    19807668.125  
  22889292.945   122442268.47707        43.000       -3652.004                  
                                                
  20869673.609   111677780.71508        51.000        1683.934    86860528.19107
        47.000        1309.727    20869673.219  
 23  7 24 20 59 33.0000000  0 13G11G28G25G29G12G20G05G18R14R13R24R23            
                                R17                                             
  22400871.086   117717284.72707        43.000       -2792.434    91727820.00805
        34.000       -2175.934    22400874.328  
  24154343.414   126931945.31606        39.000        2559.996    98908005.28504
        25.000        1994.871    24154350.125  
  21349295.883   112191231.10508        48.000        2106.680    87421839.55906
        39.000        1641.570    21349300.914  
  22016484.023   115697405.49208        48.000         522.387    90153830.90206
        40.000         407.039    22016486.508  
  21073188.219   110740358.60908        50.000         153.387    86291184.54308
        51.000         119.512    21073189.203  
  22398131.758   117702983.43007        43.000         195.480    91716616.79704
        29.000         152.324    22398135.484  
  22796567.969   119796777.91807        46.000        1703.598    93348156.30507
        45.000        1327.469    22796569.688  
  23842305.063   125292198.90206        36.000        3455.234    97630294.62103
        20.000        2692.430    23842310.484  
  19889327.102   106021342.03908        51.000        2346.988    82461018.53107
        44.000        1825.742    19889330.336  
  20017697.367   106893304.03106        40.000       -1899.262    83139241.16407
        42.000       -1477.250    20017699.164  
  19807985.844   105922197.43808        48.000       -1704.789    82383886.20707
        42.000       -1326.176    19807987.078  
  22889975.141   122445922.28107        43.000       -3651.824                  
                                                
  20869359.234   111676098.91008        51.000        1683.547    86859220.11707
        47.000        1309.355    20869358.828  
 23  7 24 20 59 34.0000000  0 13G11G28G25G29G12G20G05G18R14R13R24R23            
                                R17                                             
  22401403.742   117720082.13707        44.000       -2792.613    91729999.80505
        33.000       -2176.070    22401406.625  
  24153857.750   126929390.23006        40.000        2560.281    98906014.30904
        25.000        1995.027    24153863.914  
  21348895.852   112189129.69108        48.000        2106.066    87420202.09406
        39.000        1641.090    21348901.047  
  22016385.609   115696888.12508        48.000         522.027    90153427.75806
        40.000         406.777    22016388.070  
  21073159.977   110740210.12508        50.000         153.145    86291068.84408
        51.000         119.336    21073160.930  
  22398095.688   117702793.31307        42.000         194.816    91716468.65204
        29.000         151.793    22398099.352  
  22796244.500   119795079.50407        47.000        1703.246    93346832.86307
        45.000        1327.203    22796246.492  
  23841648.883   125288749.37906        36.000        3454.184    97627606.70703
        20.000        2691.559    23841653.961  
  19888887.844   106019000.33608        51.000        2346.418    82459197.21907
        44.000        1825.023    19888891.219  
  20018054.281   106895208.98006        40.000       -1900.277    83140722.78107
        42.000       -1478.031    20018055.984  
  19808305.617   105923907.56608        48.000       -1705.254    82385216.30506
        41.000       -1326.336    19808306.766  
  22890659.250   122449579.27707        43.000       -3651.871                  
                                                
  20869046.008   111674420.94908        51.000        1682.672    86857915.04307
        47.000        1308.730    20869045.133  
 23  7 24 20 59 35.0000000  0 13G11G28G25G29G12G20G05G18R14R13R24R23            
                                R17                                             
  22401934.109   117722870.20707        44.000       -2792.734    91732172.33605
        33.000       -2176.168    22401937.164  
  24153369.656   126926825.91806        40.000        2559.113    98904016.13704
        25.000        1994.125    24153375.898  
  21348494.266   112187018.73808        48.000        2106.477    87418557.19506
        39.000        1641.402    21348499.328  
  22016285.289   115696361.25008        48.000         522.375    90153017.20706
        41.000         407.051    22016287.789  
  21073129.891   110740052.29708        50.000         153.367    86290945.85508
        51.000         119.516    21073130.891  
  22398057.523   117702594.07007        42.000         194.949    91716313.39804
        29.000         151.914    22398061.367  
  22795919.781   119793371.73007        46.000        1703.281    93345502.13307
        45.000        1327.223    22795921.523  
  23840990.547   125285290.39106        36.000        3454.266    97624911.40203
        20.000        2691.617    23840996.000  
  19888446.922   106016649.34008        51.000        2346.230    82457368.68007
        44.000        1824.922    19888450.273  
  20018409.344   106897104.78906        41.000       -1900.652    83142197.30507
        42.000       -1478.438    20018410.852  
  19808623.625   105925608.31308        48.000       -1705.285    82386539.11707
        42.000       -1326.438    19808624.703  
  22891341.156   122453226.38707        44.000       -3651.824                  
                                                
  20868730.609   111672733.72308        51.000        1682.527    86856602.75807
        47.000        1308.629    20868729.609  
 23  7 24 20 59 36.0000000  0 13G11G28G25G29G12G20G05G18R14R13R24R23            
                                R17                                             
  22402465.883   117725666.51607        43.000       -2793.273    91734351.28105
        33.000       -2176.586    22402469.266  
  24152882.414   126924269.83606        40.000        2559.551    98902024.38304
        25.000        1994.449    24152889.469  
  21348094.133   112184915.86708        48.000        2105.668    87416918.59806
        39.000        1640.777    21348099.180  
  22016186.516   115695842.44108        48.000         521.820    90152612.93806
        41.000         406.617    22016189.016  
  21073101.391   110739902.71508        50.000         152.402    86290829.30108
        51.000         118.754    21073102.406  
  22398021.242   117702403.28507        42.000         193.770    91716164.73804
        29.000         150.980    22398024.961  
  22795596.648   119791672.16807        46.000        1702.375    93344177.80507
        45.000        1326.516    22795598.117  
  23840332.930   125281839.52005        35.000        3453.777    97622222.39103
        20.000        2691.250    23840339.500  
  19888007.484   106014306.91808        51.000        2345.148    82455546.79307
        44.000        1823.844    19888011.148  
  20018765.828   106899009.35506        40.000       -1902.004    83143678.63307
        42.000       -1479.406    20018767.453  
  19808943.258   105927317.53508        48.000       -1706.301    82387868.50006
        41.000       -1327.207    19808943.898  
  22892024.125   122456881.45707        43.000       -3652.027                  
                                                
  20868416.672   111671055.15608        51.000        1681.387    86855297.20307
        47.000        1307.801    20868415.969  
 23  7 24 20 59 37.0000000  0 13G11G28G25G29G12G20G05G18R14R13R24R23            
                                R17                                             
  22402998.820   117728465.67207        44.000       -2794.023    91736532.44105
        33.000       -2177.168    22403001.914  
  24152396.961   126921716.71106        40.000        2558.684    98900034.93804
        25.000        1993.734    24152403.602  
  21347694.375   112182815.65608        48.000        2105.602    87415282.07406
        39.000        1640.730    21347699.500  
  22016088.180   115695326.30508        48.000         521.574    90152210.75406
        41.000         406.426    22016090.766  
  21073073.438   110739755.96108        50.000         152.195    86290714.94508
        51.000         118.598    21073074.469  
  22397985.711   117702215.57407        43.000         192.953    91716018.47304
        29.000         150.340    22397989.211  
  22795273.672   119789975.43807        46.000        1702.121    93342855.68407
        45.000        1326.305    22795275.258  
  23839677.094   125278391.35905        35.000        3453.492    97619535.51603
        20.000        2690.973    23839683.961  
  19887568.602   106011967.60508        51.000        2344.535    82453727.32407
        44.000        1823.621    19887572.617  
  20019123.164   106900917.18806        40.000       -1902.734    83145162.49607
        42.000       -1479.848    20019125.016  
  19809263.617   105929029.77708        48.000       -1706.895    82389200.25006
        41.000       -1327.660    19809264.109  
  22892707.992   122460539.02007        44.000       -3651.711                  
                                                
  20868103.711   111669379.71508        51.000        1680.664    86853994.07407
        47.000        1307.512    20868102.898  
 23  7 24 20 59 38.0000000  0 13G11G28G25G29G12G20G05G18R14R13R24R23            
                                R17                                             
  22403529.453   117731252.85907        44.000       -2793.891    91738704.28105
        34.000       -2177.082    22403532.227  
  24151908.805   126919151.67206        40.000        2558.598    98898036.21504
        25.000        1993.684    24151915.430  
  21347292.617   112180703.32008        48.000        2105.824    87413636.09806
        39.000        1640.898    21347297.531  
  22015987.672   115694798.02008        48.000         521.758    90151799.10506
        41.000         406.539    22015990.227  
  21073043.352   110739597.23808        50.000         152.082    86290591.26208
        51.000         118.504    21073044.273  
  22397947.586   117702016.09407        43.000         192.828    91715863.03104
        29.000         150.254    22397951.227  
  22794948.188   119788266.71907        46.000        1702.164    93341524.21507
        45.000        1326.367    22794950.078  
  23839018.266   125274931.14805        35.000        3453.406    97616839.27703
        20.000        2690.957    23839025.461  
  19887127.508   106009616.37108        51.000        2344.445    82451898.59807
        44.000        1823.352    19887131.766  
  20019478.328   106902813.23806        41.000       -1903.328    83146637.19507
        42.000       -1479.977    20019480.047  
  19809581.688   105930730.00008        48.000       -1706.996    82390522.64806
        41.000       -1327.719    19809582.000  
  22893389.336   122464184.00007        43.000       -3651.484                  
                                                
  20867788.461   111667692.32408        51.000        1680.641    86852681.66407
        47.000        1307.027    20867787.508  
 23  7 24 20 59 39.0000000  0 13G11G28G25G29G12G20G05G18R14R13R24R23            
                                R17                                             
  22404060.102   117734042.12907        44.000       -2794.031    91740877.73805
        34.000       -2177.160    22404062.992  
  24151421.414   126916588.83606        40.000        2557.660    98896039.19104
        25.000        1992.941    24151427.695  
  21346891.125   112178592.88708        48.000        2105.836    87411991.60506
        39.000        1640.891    21346895.930  
  22015887.719   115694271.66408        48.000         521.590    90151388.95706
        41.000         406.430    22015890.016  
  21073013.539   110739440.60508        50.000         151.789    86290469.21508
        51.000         118.262    21073014.438  
  22397910.102   117701818.94907        43.000         192.145    91715709.42204
        29.000         149.719    22397913.633  
  22794623.461   119786560.03907        47.000        1701.980    93340194.32807
        45.000        1326.230    22794625.297  
  23838360.602   125271472.91006        36.000        3452.977    97614144.55903
        20.000        2690.668    23838367.352  
  19886686.750   106007267.51608        51.000        2343.879    82450071.69507
        44.000        1823.391    19886690.891  
  20019833.570   106904711.78106        41.000       -1903.824    83148113.84807
        43.000       -1480.824    20019835.555  
  19809899.852   105932432.51208        48.000       -1707.641    82391846.81606
        41.000       -1327.973    19809900.234  
  22894070.805   122467830.73007        44.000       -3651.418                  
                                                
  20867473.344   111666007.33608        51.000        1679.953    86851371.11307
        47.000        1306.707    20867472.820  
 23  7 24 20 59 40.0000000  0 13G11G28G25G29G12G20G05G18R14R13R24R23            
                                R17                                             
  22404593.250   117736843.68807        44.000       -2794.777    91743060.76605
        34.000       -2177.750    22404596.086  
  24150935.953   126914038.30506        40.000        2557.516    98894051.76604
        26.000        1992.914    24150942.305  
  21346491.500   112176494.59008        48.000        2105.168    87410356.57406
        39.000        1640.387    21346496.641  
  22015789.797   115693757.42208        48.000         521.102    90150988.25406
        41.000         406.051    22015792.125  
  21072986.102   110739296.25008        50.000         151.316    86290356.72708
        51.000         117.918    21072986.945  
  22397875.156   117701634.28507        43.000         191.285    91715565.53104
        29.000         149.039    22397878.477  
  22794301.109   119784865.59807        47.000        1701.387    93338873.98807
        45.000        1325.762    22794302.844  
  23837705.813   125268026.83606        37.000        3453.363    97611459.30903
        20.000        2690.945    23837711.523  
  19886248.289   106004931.32008        51.000        2343.063    82448254.68807
        44.000        1822.285    19886252.813  
  20020191.531   106906623.13306        40.000       -1905.098    83149600.46107
        42.000       -1481.277    20020193.672  
  19810220.516   105934147.57808        48.000       -1708.406    82393180.79306
        40.000       -1328.727    19810220.617  
  22894754.508   122471489.51207        43.000       -3651.590                  
                                                
  20867160.578   111664335.06608        51.000        1678.969    86850070.47707
        47.000        1305.938    20867160.422  
 23  7 24 20 59 41.0000000  0 13G11G28G25G29G12G20G05G18R14R13R24R23            
                                R17                                             
  22405124.859   117739638.21507        44.000       -2794.648    91745238.30905
        34.000       -2177.617    22405127.797  
  24150449.531   126911480.84006        40.000        2557.246    98892058.93404
        26.000        1992.680    24150455.516  
  21346090.813   112174389.10908        48.000        2104.910    87408715.93406
        39.000        1640.199    21346095.953  
  22015690.703   115693235.98408        49.000         521.285    90150581.93806
        41.000         406.203    22015692.922  
  21072957.141   110739144.89508        50.000         150.941    86290238.78908
        51.000         117.625    21072958.164  
  22397837.977   117701442.85507        43.000         190.559    91715416.35904
        29.000         148.488    22397841.992  
  22793977.273   119783164.15607        47.000        1701.387    93337548.18807
        45.000        1325.754    22793979.047  
  23837048.430   125264573.66406        36.000        3453.340    97608768.52003
        20.000        2690.914    23837054.297  
  19885808.766   106002588.28108        51.000        2342.074    82446432.28507
        44.000        1822.191    19885813.523  
  20020547.992   106908527.79306        40.000       -1905.961    83151081.85507
        42.000       -1481.840    20020550.438  
  19810539.914   105935855.66408        48.000       -1708.965    82394509.27706
        40.000       -1329.082    19810540.016  
  22895437.406   122475140.83607        43.000       -3652.301                  
                                                
  20866846.898   111662655.96908        51.000        1678.059    86848764.49208
        48.000        1305.773    20866846.609  
 23  7 24 20 59 42.0000000  0 13G11G28G25G29G12G20G05G18R14R13R24R23            
                                R17                                             
  22405655.227   117742424.99607        44.000       -2794.965    91747409.82405
        34.000       -2177.879    22405658.086  
  24149961.172   126908915.66406        40.000        2556.883    98890060.08604
        26.000        1992.375    24149967.297  
  21345688.766   112172275.66408        48.000        2105.094    87407069.09406
        39.000        1640.324    21345693.750  
  22015589.984   115692706.60208        48.000         520.988    90150169.43006
        41.000         405.949    22015592.164  
  21072926.766   110738985.74208        50.000         150.773    86290114.77308
        51.000         117.477    21072927.867  
  22397800.125   117701243.83207        43.000         190.289    91715261.27304
        29.000         148.234    22397804.063  
  22793652.328   119781454.87507        47.000        1700.680    93336216.27307
        46.000        1325.207    22793653.750  
  23836389.797   125261112.59806        36.000        3452.902    97606071.60903
        20.000        2690.555    23836395.836  
  19885367.750   106000237.48808        51.000        2342.230    82444603.91007
        44.000        1821.809    19885372.602  
  20020903.031   106910424.82006        40.000       -1905.582    83152557.34407
        42.000       -1482.254    20020905.711  
  19810857.773   105937555.92208        48.000       -1708.953    82395831.72706
        40.000       -1329.152    19810857.852  
  22896118.352   122478783.75407        43.000       -3651.281                  
                                                
  20866531.453   111660969.13308        51.000        1678.238    86847452.53507
        47.000        1305.332    20866531.430  
 23  7 24 20 59 43.0000000  0 13G11G28G25G29G12G20G05G18R14R13R24R23            
                                R17                                             
  22406187.469   117745222.32407        44.000       -2795.734    91749589.56305
        34.000       -2178.496    22406190.367  
  24149475.172   126906361.12106        41.000        2556.313    98888069.53504
        26.000        1991.930    24149481.148  
  21345288.703   112170172.62508        48.000        2104.727    87405430.36706
        39.000        1640.039    21345293.555  
  22015491.000   115692187.61708        48.000         520.828    90149765.02706
        41.000         405.844    22015493.359  
  21072898.664   110738837.16008        50.000         150.348    86289999.00008
        51.000         117.145    21072899.578  
  22397764.586   117701055.60207        43.000         189.797    91715114.60204
        29.000         147.883    22397768.203  
  22793329.016   119779756.14107        47.000        1700.539    93334892.59007
        46.000        1325.078    22793330.477  
  23835732.547   125257662.00406        36.000        3452.184    97603382.84403
        20.000        2690.000    23835739.203  
  19884928.664   105997897.65608        51.000        2341.359    82442784.04707
        44.000        1821.160    19884933.594  
  20021260.242   106912333.02006        40.000       -1906.164    83154041.49607
        43.000       -1482.789    20021263.039  
  19811177.500   105939267.10908        48.000       -1709.449    82397162.64106
        40.000       -1329.672    19811177.570  
  22896800.539   122482437.06607        43.000       -3651.496                  
                                                
  20866217.922   111659293.35908        51.000        1677.465    86846149.16807
        47.000        1304.449    20866218.336  
 23  7 24 20 59 44.0000000  0 13G11G28G25G29G12G20G05G18R14R13R24R23            
                                R17                                             
  22406720.609   117748023.36707        44.000       -2796.098    91751772.19905
        34.000       -2178.777    22406723.383  
  24148989.563   126903810.34006        41.000        2555.734    98886081.92604
        26.000        1991.488    24148995.656  
  21344889.102   112168073.13308        48.000        2104.414    87403794.40206
        39.000        1639.816    21344894.023  
  22015393.023   115691672.16008        48.000         520.598    90149363.37906
        41.000         405.656    22015395.227  
  21072871.031   110738692.28108        50.000         149.801    86289886.10508
        51.000         116.738    21072871.992  
  22397729.734   117700871.29707        43.000         188.996    91714970.98804
        29.000         147.277    22397733.086  
  22793006.367   119778061.10507        47.000        1700.066    93333571.77707
        46.000        1324.719    22793007.891  
  23835076.477   125254214.97706        36.000        3452.188    97600696.85203
        20.000        2690.035    23835083.547  
  19884490.633   105995561.82008        51.000        2340.910    82440967.28907
        44.000        1820.574    19884495.188  
  20021618.461   106914245.36306        40.000       -1907.355    83155528.87907
        42.000       -1483.703    20021621.102  
  19811498.234   105940982.19508        48.000       -1710.035    82398496.59806
        40.000       -1330.184    19811498.492  
  22897484.148   122486093.76207        43.000       -3651.227                  
                                                
  20865905.656   111657621.60508        51.000        1676.844    86844848.91808
        48.000        1303.984    20865905.898  
 23  7 24 20 59 45.0000000  0 13G11G28G25G29G12G20G05G18R14R13R24R23            
                                R17                                             
  22407252.086   117750815.12907        43.000       -2795.938    91753947.59405
        34.000       -2178.641    22407254.609  
  24148503.109   126901250.36706        41.000        2555.621    98884087.14504
        26.000        1991.379    24148508.414  
  21344487.813   112165964.17608        48.000        2104.801    87402151.05506
        39.000        1640.098    21344492.688  
  22015292.961   115691147.25808        48.000         520.820    90148954.36706
        41.000         405.840    22015295.313  
  21072841.711   110738538.11308        49.000         149.969    86289765.97708
        51.000         116.855    21072842.648  
  22397692.828   117700677.92607        42.000         189.020    91714820.32404
        29.000         147.281    22397696.195  
  22792682.102   119776356.75807        47.000        1699.988    93332243.71507
        46.000        1324.672    22792683.523  
  23834419.406   125250758.59006        36.000        3451.668    97598003.57403
        20.000        2689.648    23834425.891  
  19884050.813   105993216.81608        51.000        2340.418    82439143.38707
        43.000        1820.527    19884054.922  
  20021974.930   106916148.65206        40.000       -1907.785    83157009.19507
        42.000       -1483.781    20021977.438  
  19811817.383   105942687.93808        48.000       -1710.465    82399823.27706
        40.000       -1330.125    19811817.391  
  22898166.133   122489740.66007        43.000       -3651.559                  
                                                
  20865591.758   111655940.69508        51.000        1676.020    86843541.51608
        48.000        1304.055    20865591.828  
 23  7 24 20 59 46.0000000  0 13G11G28G25G29G12G20G05G18R14R13R24R23            
                                R17                                             
  22407784.734   117753614.88307        44.000       -2796.172    91756129.22305
        34.000       -2178.820    22407787.352  
  24148017.438   126898698.46906        41.000        2555.305    98882098.65204
        26.000        1991.145    24148022.734  
  21344087.945   112163863.05508        48.000        2104.898    87400513.82406
        39.000        1640.184    21344092.852  
  22015194.664   115690630.18408        48.000         520.871    90148551.44906
        41.000         405.883    22015196.875  
  21072813.891   110738391.96108        49.000         149.629    86289652.09008
        51.000         116.590    21072814.820  
  22397657.242   117700492.80107        43.000         188.730    91714676.07404
        29.000         147.055    22397660.961  
  22792359.430   119774660.37507        47.000        1700.039    93330921.85507
        45.000        1324.711    22792360.648  
  23833762.656   125247310.08206        36.000        3452.355    97595316.43403
        20.000        2690.164    23833769.469  
  19883612.305   105990880.13708        51.000        2339.871    82437325.96107
        44.000        1819.852    19883616.078  
  20022332.586   106918060.44906        40.000       -1908.617    83158496.13307
        42.000       -1484.008    20022335.391  
  19812137.711   105944401.93408        48.000       -1710.758    82401156.37106
        40.000       -1330.363    19812137.531  
  22898848.961   122493395.31607        43.000       -3651.559                  
                                                
  20865278.891   111654268.18808        51.000        1675.727    86842240.67208
        48.000        1303.652    20865279.406  
 23  7 24 20 59 47.0000000  0 13G11G28G25G29G12G20G05G18R14R13R24R23            
                                R17                                             
  22408317.727   117756417.04707        44.000       -2796.961    91758312.72305
        34.000       -2179.449    22408320.555  
  24147532.367   126896149.01207        42.000        2554.613    98880112.07004
        26.000        1990.570    24147537.406  
  21343688.578   112161764.16408        48.000        2104.305    87398878.32406
        39.000        1639.703    21343693.422  
  22015096.586   115690115.34008        48.000         520.102    90148150.27706
        41.000         405.262    22015098.875  
  21072786.664   110738248.19108        50.000         149.004    86289540.06608
        51.000         116.102    21072787.453  
  22397622.867   117700310.29307        43.000         187.402    91714533.86704
        29.000         146.020    22397626.188  
  22792036.781   119772966.37507        47.000        1699.258    93329601.85507
        45.000        1324.098    22792038.250  
  23833106.844   125243863.83206        36.000        3451.625    97592631.04703
        20.000        2689.563    23833114.047  
  19883174.508   105988546.06608        51.000        2339.207    82435510.58207
        44.000        1819.355    19883178.352  
  20022691.109   106919974.99606        40.000       -1909.535    83159985.25807
        42.000       -1485.211    20022693.945  
  19812458.688   105946118.46508        48.000       -1711.324    82402491.48006
        40.000       -1331.430    19812458.758  
  22899532.727   122497051.92607        43.000       -3651.258                  
                                                
  20864966.898   111652598.33208        51.000        1675.098    86840941.92608
        48.000        1302.816    20864967.398  
