     2.10           OBSERVATION DATA    M (MIXED)           RINEX VERSION / TYPE
ComNav                                                      PGM / RUN BY / DATE 
comnav12                                                    MARKER NAME         
                                                            OBSERVER / AGENCY   
N31L04806           ComNav              55.0                REC # / TYPE / VERS 
                    Unknown                                 ANT # / TYPE        
  3752814.8313 -4538372.7995 -2442731.1577                  APPROX POSITION XYZ 
        1.8000        0.0000        0.0000                  ANTENNA: DELTA H/E/N
     1     1                                                WAVELENGTH FACT L1/2
     8    C1    L1    S1    D1    L2    S2    D2    P2      # / TYPES OF OBSERV 
     1.000                                                  INTERVAL
  2023     7    24    21     9   40.000000      GPS         TIME OF FIRST OBS   
                                                            END OF HEADER       
 23  7 24 21  9 40.0000000  0 15G24G11G28G25G29G12G20G05G18R14R15R13            
                                R24R23R17                                       
  22610445.289   118818665.57808        49.000       -3182.898    92586007.86706
        39.000       -2480.191    22610448.273  
  22734458.336   119470302.48807        42.000       -2977.117    93093808.48803
        20.000       -2319.832    22734462.555  
  23873264.555   125454835.52706        41.000        2301.316                  
                                                
  21112328.109   110945960.14808        49.000        1991.238    86451499.32005
        33.000        1551.602    21112332.180  
  21961548.367   115408728.18808        49.000         431.016    89928884.91007
        43.000         335.852    21961550.789  
  21067494.414   110710439.41807        44.000         -58.734    86267871.25805
        35.000         -45.805    21067495.484  
  22395324.047   117688226.51607        46.000        -148.719    91705118.90204
        29.000        -115.895    22395324.969  
  22611358.703   118823505.35507        47.000        1497.289    92589763.17605
        32.000        1166.730    22611360.203  
  23451742.258   123239801.52007        44.000        3302.137    96030985.38304
        26.000        2573.070    23451749.820  
  19642330.359   104704717.57008        51.000        1982.496    81436977.03908
        51.000        1541.832    19642333.156  
  23384648.445   124960486.10506        38.000        4079.723                  
                                                
  20257808.313   108175480.43806        41.000       -2321.680    84136489.07406
        41.000       -1805.813    20257809.008  
  20016729.305   107038442.01208        51.000       -1965.520    83252076.78108
        48.000       -1528.492    20016729.430  
  23301748.555   124648605.12106        40.000       -3599.820                  
                                                
  20698810.188   110763458.14108        50.000        1323.672    86149389.28908
        49.000        1029.699    20698810.008  
 23  7 24 21  9 41.0000000  0 15G24G11G28G25G29G12G20G05G18R14R15R13            
                                R24R23R17                                       
  22611052.406   118821854.87508        49.000       -3182.898    92588493.04307
        42.000       -2480.195    22611055.063  
  22735026.523   119473286.58606        41.000       -2977.742    93096133.76203
        20.000       -2320.324    22735030.445  
  23872827.789   125452541.02316        41.000        2300.820    97755251.62114
        24.000        1792.855    23872831.336  
  21111950.391   110943975.70708        49.000        1990.906    86449953.01205
        33.000        1551.336    21111954.547  
  21961467.688   115408303.87108        49.000         430.809    89928554.27307
        43.000         335.695    21961470.063  
  21067506.508   110710504.75407        43.000         -59.223    86267922.18005
        35.000         -46.156    21067507.953  
  22395353.750   117688382.10507        46.000        -149.426    91705240.15204
        29.000        -116.430    22395354.555  
  22611075.078   118822014.62107        47.000        1497.027    92588601.57405
        32.000        1166.520    22611076.516  
  23451115.531   123236505.88707        44.000        3301.980    96028417.37904
        27.000        2572.961    23451122.680  
  19641959.766   104702742.06608        51.000        1981.766    81435440.53508
        51.000        1541.414    19641962.414  
  23383886.047   124956413.75406        37.000        4079.438                  
                                                
  20258244.328   108177809.21106        41.000       -2322.180    84138300.35206
        41.000       -1806.246    20258244.781  
  20017098.102   107040414.22708        51.000       -1965.801    83253610.73408
        48.000       -1528.977    20017098.211  
  23302422.406   124652211.46906        40.000       -3599.652                  
                                                
  20698564.031   110762141.21508        50.000        1323.348    86148365.00808
        49.000        1029.328    20698564.125  
 23  7 24 21  9 42.0000000  0 15G24G11G28G25G29G12G20G05G18R14R15R13            
                                R24R23R17                                       
  22611660.313   118825048.99208        48.000       -3182.914    92590981.97707
        42.000       -2480.203    22611662.820  
  22735594.711   119476275.61706        41.000       -2977.820    93098462.88305
        32.000       -2320.359    22735599.266  
  23872392.109   125450251.60916        41.000        2300.699    97753467.67214
        24.000        1792.734    23872395.523  
  21111573.750   110941996.12508        49.000        1990.895    86448410.47705
        33.000        1551.348    21111577.844  
  21961387.914   115407884.32008        48.000         430.934    89928227.35507
        43.000         335.797    21961390.266  
  21067520.164   110710575.07807        43.000         -59.066    86267976.98405
        35.000         -46.016    21067521.383  
  22395384.430   117688542.91407        46.000        -149.820    91705365.46104
        29.000        -116.746    22395385.180  
  22610792.359   118820528.89507        47.000        1496.879    92587443.87507
        47.000        1166.398    22610793.781  
  23450489.250   123233215.19507        44.000        3301.664    96025853.22304
        27.000        2572.727    23450496.477  
  19641590.297   104700771.93008        51.000        1981.227    81433908.20308
        51.000        1540.977    19641592.852  
  23383124.563   124952345.63316        37.000        4079.195                  
                                                
  20258681.609   108180143.34806        41.000       -2322.746    84140115.80106
        41.000       -1806.805    20258681.969  
  20017468.000   107042391.59408        51.000       -1966.078    83255148.68808
        49.000       -1529.172    20017468.180  
  23303097.203   124655822.38706        40.000       -3599.473                  
                                                
  20698319.156   110760829.55508        51.000        1322.754    86147344.83208
        49.000        1028.938    20698319.117  
 23  7 24 21  9 43.0000000  0 15G24G11G28G25G29G12G20G05G18R14R15R13            
                                R24R23R17                                       
  22612265.852   118828230.62508        48.000       -3183.328    92593461.16807
        42.000       -2480.516    22612268.219  
  22736161.484   119479252.22306        41.000       -2978.113    93100782.31305
        32.000       -2320.621    22736165.688  
  23871954.688   125447949.96916        41.000        2299.949    97751674.19514
        24.000        1792.145    23871957.930  
  21111194.750   110940004.08608        49.000        1990.516    86446858.23405
        33.000        1551.035    21111198.758  
  21961305.750   115407452.25008        48.000         430.574    89927890.66807
        43.000         335.539    21961308.117  
  21067531.313   110710633.13307        43.000         -59.887    86268022.22307
        45.000         -46.652    21067532.477  
  22395412.703   117688691.64507        45.000        -150.320    91705481.35504
        29.000        -117.129    22395413.484  
  22610507.297   118819030.88307        47.000        1496.520    92586276.59407
        47.000        1166.117    22610508.703  
  23449860.406   123229912.10907        44.000        3301.367    96023279.39804
        27.000        2572.477    23449867.836  
  19641218.531   104698789.58608        51.000        1980.582    81432366.38308
        51.000        1540.520    19641220.992  
  23382360.797   124948264.68816        38.000        4078.961    97181979.92215
        34.000        3172.316    23382363.828  
  20259116.359   108182465.32806        41.000       -2323.984    84141921.77306
        41.000       -1807.582    20259116.828  
  20017835.609   107044356.47308        51.000       -1966.492    83256676.92608
        49.000       -1529.539    20017835.750  
  23303770.023   124659420.31306        40.000       -3599.820                  
                                                
  20698072.023   110759505.58208        51.000        1322.078    86146315.08208
        49.000        1028.363    20698071.836  
 23  7 24 21  9 44.0000000  0 15G24G11G28G25G29G12G20G05G18R14R15R13            
                                R24R23R17                                       
  22612869.172   118831402.57408        48.000       -3183.480    92595932.82807
        42.000       -2480.629    22612871.797  
  22736725.969   119482219.27006        41.000       -2978.133    93103094.30505
        32.000       -2320.680    22736730.305  
  23871514.688   125445638.96116        41.000        2299.320    97749873.41414
        24.000        1791.668    23871518.219  
  21110813.875   110938002.43808        49.000        1990.324    86445298.50806
        41.000        1550.914    21110817.875  
  21961221.797   115407010.47708        48.000         430.379    89927546.43408
        49.000         335.352    21961224.063  
  21067540.586   110710681.68007        43.000         -59.949    86268060.05507
        45.000         -46.707    21067541.766  
  22395439.148   117688831.11707        45.000        -151.340    91705590.03905
        34.000        -117.945    22395440.039  
  22610220.461   118817523.42207        47.000        1496.117    92585101.95307
        47.000        1165.781    22610221.828  
  23449230.047   123226599.46507        43.000        3301.180    96020698.12504
        27.000        2572.348    23449237.453  
  19640844.922   104696797.90208        51.000        1979.887    81430817.29308
        51.000        1540.047    19640847.375  
  23381595.375   124944173.73416        38.000        4079.746    97178798.06615
        34.000        3172.289    23381598.586  
  20259549.461   108184777.95306        41.000       -2324.305    84143720.49606
        40.000       -1807.789    20259550.078  
  20018201.094   107046311.70308        51.000       -1966.922    83258197.66008
        49.000       -1529.773    20018201.484  
  23304440.891   124663008.10906        40.000       -3599.586                  
                                                
  20697822.813   110758172.19108        51.000        1321.496    86145278.00408
        49.000        1027.766    20697822.516  
 23  7 24 21  9 45.0000000  0 15G24G11G28G25G29G12G20G05G18R14R15R13            
                                R24R23R17                                       
  22613474.672   118834584.91008        48.000       -3183.418    92598412.57807
        45.000       -2480.613    22613477.344  
  22737292.688   119485196.82406        41.000       -2978.973    93105414.48005
        32.000       -2321.281    22737296.969  
  23871077.227   125443338.60916        41.000        2298.840    97748080.93813
        23.000        1791.285    23871080.828  
  21110434.938   110936011.20308        49.000        1989.902    86443746.89806
        41.000        1550.555    21110438.977  
  21961139.664   115406579.05108        48.000         430.020    89927210.26208
        49.000         335.070    21961141.969  
  21067551.203   110710740.83207        43.000         -60.520    86268106.15607
        45.000         -47.164    21067553.078  
  22395467.719   117688981.35907        45.000        -151.938    91705707.11705
        34.000        -118.418    22395468.641  
  22609935.461   118816026.51607        47.000        1495.633    92583935.53507
        47.000        1165.414    22609936.977  
  23448601.820   123223297.30507        44.000        3300.578    96018125.02305
        31.000        2571.836    23448609.000  
  19640473.258   104694817.19508        51.000        1979.230    81429276.74608
        51.000        1539.379    19640475.852  
  23380832.172   124940093.15616        37.000        4080.055    97175624.27715
        35.000        3173.250    23380835.156  
  20259984.406   108187101.66806        41.000       -2325.391    84145527.81606
        40.000       -1808.543    20259985.031  
  20018568.625   107048277.68808        51.000       -1967.422    83259726.75808
        49.000       -1530.133    20018569.281  
  23305113.391   124666606.16406        40.000       -3599.590                  
                                                
  20697575.602   110756849.81308        51.000        1320.891    86144249.49208
        49.000        1027.176    20697575.289  
 23  7 24 21  9 46.0000000  0 15G24G11G28G25G29G12G20G05G18R14R15R13            
                                R24R23R17                                       
  22614083.328   118837782.46508        48.000       -3183.613    92600904.18807
        45.000       -2480.734    22614085.781  
  22737862.258   119488189.67606        41.000       -2979.484    93107746.57005
        32.000       -2321.680    22737866.484  
  23870642.141   125441053.74216        40.000        2298.766    97746300.52313
        23.000        1791.258    23870645.703  
  21110058.852   110934035.22308        49.000        1989.672    86442207.18006
        41.000        1550.395    21110062.969  
  21961060.219   115406162.80508        48.000         429.801    89926885.92208
        49.000         334.895    21961062.758  
  21067565.453   110710815.38707        43.000         -60.965    86268164.25007
        45.000         -47.488    21067567.328  
  22395499.328   117689147.22307        45.000        -152.461    91705836.35905
        34.000        -118.797    22395500.219  
  22609653.680   118814545.03107        47.000        1495.188    92582781.14508
        48.000        1165.070    22609655.055  
  23447976.531   123220010.44907        43.000        3300.543    96015563.84805
        31.000        2571.828    23447983.500  
  19640104.789   104692852.38308        51.000        1978.398    81427748.56308
        51.000        1538.777    19640107.250  
  23380071.195   124936027.98816        38.000        4079.012    97172462.44515
        34.000        3173.258    23380074.328  
  20260422.375   108189441.31306        41.000       -2325.633    84147347.56306
        40.000       -1809.418    20260423.242  
  20018939.336   107050259.38708        51.000       -1967.980    83261268.08208
        49.000       -1530.598    20018939.867  
  23305788.633   124670219.42606        40.000       -3599.449                  
                                                
  20697331.516   110755543.33208        51.000        1320.344    86143233.33208
        49.000        1027.004    20697331.148  
 23  7 24 21  9 47.0000000  0 15G24G11G28G25G29G12G20G05G18R14R15R13            
                                R24R23R17                                       
  22614690.523   118840973.52708        48.000       -3183.961    92603390.72707
        45.000       -2480.996    22614693.008  
  22738430.633   119491176.14106        41.000       -2979.855    93110073.68405
        32.000       -2321.918    22738434.766  
  23870206.664   125438762.64816        40.000        2298.000    97744515.25813
        23.000        1790.648    23870209.906  
  21109681.586   110932052.78908        49.000        1989.434    86440662.42606
        41.000        1550.215    21109685.688  
  21960979.711   115405740.01208        48.000         429.703    89926556.46908
        49.000         334.848    21960982.344  
  21067578.852   110710883.63707        43.000         -61.242    86268217.43007
        45.000         -47.703    21067580.367  
  22395529.883   117689306.98407        45.000        -153.020    91705960.85205
        34.000        -119.234    22395530.602  
  22609370.586   118813057.24607        47.000        1494.820    92581621.82808
        48.000        1164.789    22609371.977  
  23447349.430   123216717.21107        43.000        3300.160    96012997.69105
        31.000        2571.551    23447356.773  
  19639735.273   104690881.43008        51.000        1977.816    81426215.59808
        51.000        1538.246    19639737.484  
  23379309.672   124931956.04316        38.000        4078.750    97169295.43415
        34.000        3172.297    23379312.430  
  20260859.859   108191774.87906        41.000       -2326.879    84149162.53506
        41.000       -1809.809    20260860.203  
  20019309.063   107052234.69908        51.000       -1968.316    83262804.43808
        49.000       -1530.824    20019309.445  
  23306463.602   124673825.77306        40.000       -3598.672                  
                                                
  20697086.500   110754230.60508        51.000        1319.621    86142212.32008
        49.000        1026.352    20697085.906  
 23  7 24 21  9 48.0000000  0 15G24G11G28G25G29G12G20G05G18R14R15R13            
                                R24R23R17                                       
  22615294.789   118844148.98007        47.000       -3184.027    92605865.10507
        45.000       -2481.059    22615297.266  
  22738995.844   119494147.09006        41.000       -2979.566    93112388.71505
        32.000       -2321.746    22739000.109  
  23869767.461   125436456.23016        40.000        2297.801    97742718.05113
        23.000        1790.441    23869771.078  
  21109301.383   110930054.79708        48.000        1989.352    86439105.54706
        41.000        1550.152    21109305.484  
  21960896.438   115405301.59408        48.000         429.938    89926214.83608
        49.000         334.996    21960898.953  
  21067588.977   110710936.48007        43.000         -61.559    86268258.60907
        45.000         -47.969    21067590.477  
  22395557.430   117689451.55107        45.000        -153.078    91706073.50405
        34.000        -119.285    22395558.109  
  22609084.578   118811554.03907        47.000        1494.652    92580450.50008
        48.000        1164.664    22609085.961  
  23446720.008   123213408.45707        43.000        3300.133    96010419.44505
        31.000        2571.574    23446727.148  
  19639362.680   104688895.12908        51.000        1977.410    81424670.69908
        51.000        1537.992    19639364.859  
  23378544.383   124927868.16016        37.000        4078.559    97166115.92215
        34.000        3173.379    23378546.797  
  20261294.000   108194093.07006        41.000       -2327.129    84150965.56606
        41.000       -1809.766    20261294.453  
  20019675.617   107054194.34408        51.000       -1968.414    83264328.60508
        49.000       -1530.883    20019675.938  
  23307134.594   124677415.98406        40.000       -3599.152                  
                                                
  20696838.453   110752902.39508        51.000        1319.352    86141179.27708
        49.000        1026.195    20696837.547  
 23  7 24 21  9 49.0000000  0 15G24G11G28G25G29G12G20G05G18R14R15R13            
                                R24R23R17                                       
  22615899.273   118847325.46907        47.000       -3184.258    92608340.28907
        45.000       -2481.230    22615901.734  
  22739561.109   119497119.18806        41.000       -2980.309    93114704.63705
        32.000       -2322.285    22739565.664  
  23869328.523   125434151.14506        41.000        2296.977    97740921.89113
        23.000        1789.836    23869332.477  
  21108921.289   110928057.87908        48.000        1989.121    86437549.51206
        41.000        1549.961    21108925.492  
  21960813.383   115404864.17208        48.000         429.527    89925873.99608
        49.000         334.672    21960815.703  
  21067599.320   110710990.54707        43.000         -61.977    86268300.74207
        45.000         -48.324    21067600.805  
  22395585.102   117689597.55907        45.000        -153.840    91706187.28105
        34.000        -119.883    22395585.906  
  22608798.789   118810052.09807        47.000        1494.004    92579280.15608
        48.000        1164.164    22608800.141  
  23446090.625   123210100.84407        43.000        3299.840    96007842.09405
        31.000        2571.301    23446097.695  
  19638990.148   104686910.36308        51.000        1976.637    81423126.99208
        51.000        1537.418    19638992.500  
  23377779.492   124923781.13716        37.000        4078.895    97162937.11705
        35.000        3173.820    23377782.477  
  20261728.133   108196412.81606        41.000       -2327.473    84152769.84406
        41.000       -1810.555    20261728.688  
  20020042.109   107056155.26208        51.000       -1968.984    83265853.75808
        49.000       -1531.383    20020042.734  
  23307805.586   124681006.93006        40.000       -3599.129                  
                                                
  20696590.352   110751575.67208        51.000        1318.645    86140147.39108
        49.000        1025.512    20696589.570  
 23  7 24 21  9 50.0000000  0 15G24G11G28G25G29G12G20G05G18R14R15R13            
                                R24R23R17                                       
  22616506.063   118850515.71907        47.000       -3184.629    92610826.19907
        45.000       -2481.539    22616508.852  
  22740129.523   119500105.11306        40.000       -2980.191    93117031.33205
        32.000       -2322.242    22740133.859  
  23868893.109   125431860.05906        40.000        2296.656    97739136.64113
        23.000        1789.605    23868896.633  
  21108544.031   110926074.76608        48.000        1988.992    86436004.23006
        41.000        1549.863    21108548.133  
  21960732.500   115404440.46508        48.000         429.492    89925543.84008
        49.000         334.676    21960735.078  
  21067612.203   110711058.56307        43.000         -62.262    86268353.74607
        45.000         -48.516    21067613.805  
  22395615.391   117689757.72707        44.000        -154.500    91706312.08605
        34.000        -120.395    22395616.422  
  22608515.883   118808564.09807        47.000        1493.566    92578120.68008
        48.000        1163.820    22608517.008  
  23445463.727   123206807.10207        43.000        3299.371    96005275.54705
        31.000        2570.914    23445470.867  
  19638620.469   104684940.01208        51.000        1976.063    81421594.49608
        51.000        1537.000    19638622.805  
  23377017.344   124919707.95716        37.000        4079.059    97159769.12105
        35.000        3173.402    23377020.875  
  20262165.688   108198747.09406        41.000       -2328.730    84154585.37106
        41.000       -1811.188    20262165.695  
  20020411.453   107058130.36308        51.000       -1969.148    83267389.96108
        49.000       -1531.715    20020412.133  
  23308479.094   124684611.56606        40.000       -3598.508                  
                                                
  20696345.070   110750263.38308        51.000        1318.023    86139126.71108
        49.000        1025.203    20696344.383  
 23  7 24 21  9 51.0000000  0 15G24G11G28G25G29G12G20G05G18R14R15R13            
                                R24R23R17                                       
  22617113.102   118853704.60507        47.000       -3184.695    92613311.04707
        45.000       -2481.602    22617115.727  
  22740697.781   119503089.78906        40.000       -2980.391    93119357.06305
        32.000       -2322.379    22740701.797  
  23868456.727   125429567.91006        40.000        2296.223    97737350.55503
        23.000        1789.266    23868460.477  
  21108166.547   110924090.33608        48.000        1988.457    86434457.92606
        41.000        1549.441    21108170.500  
  21960651.656   115404015.35908        48.000         429.281    89925212.59008
        49.000         334.508    21960654.219  
  21067624.836   110711125.41407        43.000         -62.637    86268405.84007
        45.000         -48.813    21067626.586  
  22395645.859   117689916.94907        44.000        -155.430    91706436.15205
        34.000        -121.109    22395646.727  
  22608232.578   118807074.91007        47.000        1493.340    92576960.27308
        48.000        1163.637    22608233.648  
  23444837.008   123203512.09007        43.000        3299.012    96002708.00805
        31.000        2570.652    23444843.820  
  19638250.789   104682968.72708        51.000        1975.344    81420061.28108
        51.000        1536.477    19638252.992  
  23376254.711   124915633.28906        37.000        4078.691    97156599.94105
        35.000        3172.785    23376257.727  
  20262602.625   108201080.46506        41.000       -2329.348    84156400.22706
        41.000       -1811.906    20262602.648  
  20020780.766   107060104.27708        51.000       -1969.703    83268925.22308
        49.000       -1531.898    20020781.258  
  23309152.539   124688214.53506        40.000       -3598.426                  
                                                
  20696100.008   110748950.12108        51.000        1317.395    86138105.28908
        48.000        1024.676    20696098.953  
 23  7 24 21  9 52.0000000  0 15G24G11G28G25G29G12G20G05G18R14R15R13            
                                R24R23R17                                       
  22617717.797   118856882.05107        47.000       -3184.922    92615786.98007
        45.000       -2481.762    22617720.398  
  22741263.578   119506063.14106        40.000       -2981.023    93121673.96105
        32.000       -2322.879    22741267.586  
  23868018.461   125427264.58606        40.000        2295.695    97735555.75803
        23.000        1788.805    23868022.281  
  21107786.695   110922094.51208        48.000        1988.352    86432902.73406
        41.000        1549.375    21107790.719  
  21960568.523   115403578.78508        48.000         429.242    89924872.40208
        49.000         334.469    21960571.141  
  21067635.352   110711181.02307        43.000         -63.242    86268449.17207
        45.000         -49.254    21067637.203  
  22395673.883   117690065.11707        44.000        -156.063    91706551.60505
        34.000        -121.617    22395674.961  
  22607947.125   118805574.49607        47.000        1492.914    92575791.12508
        48.000        1163.320    22607948.148  
  23444207.586   123200205.74607        43.000        3298.867    96000131.64805
        31.000        2570.520    23444214.586  
  19637878.938   104680986.31608        51.000        1974.727    81418519.40608
        51.000        1535.879    19637881.094  
  23375490.719   124911546.82806        38.000        4079.086    97153421.59005
        35.000        3173.320    23375492.852  
  20263037.477   108203402.70706        41.000       -2330.375    84158206.39806
        41.000       -1812.156    20263037.586  
  20021147.789   107062066.77008        51.000       -1970.129    83270451.60508
        49.000       -1532.266    20021148.313  
  23309823.750   124691805.56306        40.000       -3598.383                  
                                                
  20695852.516   110747625.62108        51.000        1316.852    86137075.12908
        49.000        1024.164    20695851.305  
 23  7 24 21  9 53.0000000  0 15G24G11G28G25G29G12G20G05G18R14R15R13            
                                R24R23R17                                       
  22618323.984   118860067.55507        47.000       -3185.223    92618269.19107
        45.000       -2481.996    22618326.617  
  22741830.227   119509044.62106        40.000       -2981.262    93123997.19905
        32.000       -2323.063    22741834.914  
  23867581.344   125424969.59406        40.000        2295.320    97733767.45303
        23.000        1788.535    23867585.453  
  21107408.406   110920106.78108        48.000        1988.020    86431353.86306
        41.000        1549.105    21107412.492  
  21960486.922   115403150.22708        48.000         428.996    89924538.46908
        49.000         334.273    21960489.570  
  21067647.469   110711244.86307        43.000         -63.730    86268498.91807
        45.000         -49.660    21067649.414  
  22395703.555   117690221.72707        44.000        -156.219    91706673.64805
        34.000        -121.727    22395704.750  
  22607663.016   118804082.30907        47.000        1492.492    92574628.38308
        48.000        1162.988    22607664.195  
  23443580.039   123196907.55907        43.000        3298.508    95997561.64105
        31.000        2570.270    23443586.953  
  19637508.617   104679012.54708        51.000        1973.871    81416984.25408
        51.000        1535.285    19637510.773  
  23374727.023   124907468.41006        37.000        4078.637    97150249.47705
        35.000        3172.930    23374729.844  
  20263473.648   108205733.59006        41.000       -2330.863    84160019.30506
        41.000       -1812.676    20263473.922  
  20021516.242   107064037.68808        51.000       -1970.730    83271984.53908
        49.000       -1532.594    20021516.727  
  23310496.367   124695404.51206        41.000       -3598.770                  
                                                
  20695606.320   110746309.74208        51.000        1316.082    86136051.67608
        49.000        1023.570    20695605.359  
 23  7 24 21  9 54.0000000  0 15G24G11G28G25G29G12G20G05G18R14R15R13            
                                R24R23R17                                       
  22618931.813   118863261.48807        47.000       -3185.363    92620757.97307
        45.000       -2482.102    22618934.453  
  22742399.430   119512034.63306        40.000       -2981.008    93126327.07805
        31.000       -2322.863    22742403.906  
  23867146.555   125422683.31306        41.000        2295.219    97731985.93403
        23.000        1788.477    23867150.273  
  21107031.781   110918127.52308        48.000        1988.195    86429811.58606
        41.000        1549.246    21107035.852  
  21960407.273   115402730.06608        48.000         428.930    89924211.07008
        49.000         334.230    21960409.609  
  21067661.539   110711317.35207        43.000         -64.125    86268555.41007
        45.000         -49.961    21067663.258  
  22395735.117   117690387.20707        44.000        -157.086    91706802.59805
        34.000        -122.430    22395736.281  
  22607380.875   118802598.75807        47.000        1492.301    92573472.37108
        48.000        1162.832    22607381.914  
  23442953.898   123193617.91807        43.000        3298.578    95994998.28505
        31.000        2570.348    23442960.930  
  19637140.133   104677047.80108        51.000        1973.527    81415456.11708
        51.000        1534.961    19637142.148  
  23373965.055   124903398.43806        37.000        4078.414    97147083.97305
        35.000        3172.129    23373967.859  
  20263911.586   108208073.56306        41.000       -2331.270    84161839.28906
        41.000       -1813.105    20263912.164  
  20021886.453   107066017.40208        51.000       -1970.844    83273524.32008
        49.000       -1532.895    20021886.883  
  23311171.172   124699011.72306        41.000       -3598.168                  
                                                
  20695362.047   110745002.86708        51.000        1315.688    86135035.21108
        48.000        1023.273    20695360.977  
 23  7 24 21  9 55.0000000  0 15G24G11G28G25G29G12G20G05G18R14R15R13            
                                R24R23R17                                       
  22619537.703   118866445.07007        47.000       -3185.203    92623238.68807
        45.000       -2481.977    22619540.320  
  22742966.719   119515014.44906        40.000       -2981.570    93128649.01605
        31.000       -2323.309    22742970.953  
  23866709.906   125420386.96906        40.000        2294.793    97730196.56603
        23.000        1788.180    23866713.398  
  21106653.203   110916137.96908        49.000        1987.984    86428261.28506
        41.000        1549.082    21106657.219  
  21960325.477   115402299.52708        48.000         428.910    89923875.59008
        49.000         334.215    21960327.711  
  21067673.281   110711379.67607        44.000         -64.055    86268603.97307
        45.000         -49.914    21067675.148  
  22395764.422   117690542.71907        44.000        -157.059    91706923.77005
        34.000        -122.344    22395765.914  
  22607096.656   118801105.05907        47.000        1491.992    92572308.44908
        48.000        1162.598    22607097.719  
  23442326.109   123190318.03107        43.000        3297.918    95992426.94905
        31.000        2569.809    23442332.953  
  19636769.758   104675073.02708        51.000        1972.801    81413920.18008
        51.000        1534.441    19636771.648  
  23373201.180   124899317.79306        37.000        4078.500    97143910.16405
        35.000        3172.180    23373204.133  
  20264347.984   108210403.53506        41.000       -2331.727    84163651.50006
        40.000       -1813.758    20264348.563  
  20022254.906   107067986.79308        51.000       -1971.188    83275056.07008
        49.000       -1533.219    20022255.250  
  23311844.188   124702608.13706        41.000       -3598.055                  
                                                
  20695116.086   110743685.84008        51.000        1315.051    86134010.85508
        49.000        1023.035    20695114.883  
 23  7 24 21  9 56.0000000  0 15G24G11G28G25G29G12G20G05G18R14R15R13            
                                R24R23R17                                       
  22620141.672   118869619.55507        47.000       -3185.637    92625712.30907
        45.000       -2482.316    22620144.461  
  22743531.703   119517985.19506        40.000       -2981.605    93130963.87905
        31.000       -2323.316    22743536.227  
  23866271.281   125418081.79306        40.000        2293.926    97728400.32403
        23.000        1787.480    23866274.773  
  21106272.797   110914139.34408        48.000        1987.566    86426703.91406
        41.000        1548.750    21106276.875  
  21960241.711   115401859.83608        48.000         428.504    89923532.97308
        49.000         333.898    21960244.070  
  21067683.242   110711433.07807        44.000         -64.563    86268645.58207
        45.000         -50.270    21067685.344  
  22395792.320   117690689.53907        44.000        -158.148    91707038.17605
        34.000        -123.242    22395793.852  
  22606810.648   118799602.43807        47.000        1491.270    92571137.57408
        48.000        1162.035    22606811.813  
  23441696.383   123187009.11707        43.000        3297.863    95989848.57805
        31.000        2569.750    23441703.234  
  19636397.656   104673089.46108        51.000        1972.109    81412377.41408
        51.000        1533.824    19636399.680  
  23372435.484   124895227.79706        37.000        4078.766    97140728.99605
        35.000        3173.277    23372438.844  
  20264782.758   108212724.76206        41.000       -2332.664    84165456.90206
        41.000       -1814.594    20264783.391  
  20022621.344   107069947.11308        51.000       -1971.770    83276580.76208
        49.000       -1533.703    20022621.961  
  23312514.547   124706194.97706        41.000       -3597.855                  
                                                
  20694868.281   110742359.92208        51.000        1314.402    86132979.59008
        49.000        1022.395    20694867.039  
 23  7 24 21  9 57.0000000  0 15G24G11G28G25G29G12G20G05G18R14R15R13            
                                R24R23R17                                       
  22620747.781   118872804.28907        47.000       -3185.723    92628193.92207
        45.000       -2482.387    22620750.570  
  22744098.969   119520966.33606        40.000       -2982.172    93133286.85205
        31.000       -2323.750    22744103.523  
  23865834.266   125415787.17206        40.000        2293.367    97726612.31303
        23.000        1787.078    23865838.383  
  21105894.578   110912151.03508        48.000        1987.203    86425154.58206
        41.000        1548.477    21105898.539  
  21960159.734   115401430.36708        48.000         428.637    89923198.32808
        49.000         334.023    21960162.344  
  21067695.633   110711496.94907        44.000         -65.055    86268695.35907
        45.000         -50.691    21067697.539  
  22395822.164   117690847.03107        43.000        -158.883    91707160.90605
        34.000        -123.809    22395823.859  
  22606526.602   118798110.26607        47.000        1490.906    92569974.85208
        48.000        1161.742    22606527.875  
  23441068.797   123183710.58607        43.000        3297.664    95987278.30505
        31.000        2569.586    23441075.508  
  19636027.594   104671116.79308        51.000        1971.301    81410843.10908
        51.000        1533.355    19636029.648  
  23371671.781   124891148.04706        37.000        4078.762    97137555.91005
        35.000        3172.504    23371675.586  
  20265219.352   108215056.95706        40.000       -2333.539    84167270.82006
        41.000       -1815.039    20265220.102  
  20022989.797   107071918.07008        51.000       -1972.113    83278113.73008
        49.000       -1533.910    20022990.492  
  23313186.500   124709791.97306        41.000       -3597.777                  
                                                
  20694622.297   110741044.89808        51.000        1313.758    86131956.80108
        49.000        1021.949    20694621.469  
 23  7 24 21  9 58.0000000  0 15G24G11G28G25G29G12G20G05G18R14R15R13            
                                R24R23R17                                       
  22621355.523   118875998.31307        47.000       -3185.980    92630682.77007
        45.000       -2482.578    22621358.453  
  22744667.938   119523956.86306        40.000       -2982.984    93135617.12905
        31.000       -2324.422    22744672.578  
  23865399.484   125413502.07806        40.000        2293.316    97724831.72703
        23.000        1786.977    23865403.406  
  21105517.945   110910172.03508        48.000        1987.246    86423612.50406
        41.000        1548.504    21105521.953  
  21960079.820   115401010.16008        48.000         428.324    89922870.89508
        49.000         333.742    21960082.383  
  21067709.633   110711570.29707        44.000         -65.285    86268752.51607
        45.000         -50.887    21067711.539  
  22395854.117   117691014.19507        43.000        -159.340    91707291.16405
        34.000        -124.113    22395855.695  
  22606244.641   118796627.59007        47.000        1490.770    92568819.52308
        49.000        1161.641    22606245.758  
  23440442.813   123180421.44107        43.000        3297.117    95984715.34005
        31.000        2569.184    23440449.547  
  19635659.438   104669154.04308        51.000        1970.719    81409316.53108
        51.000        1532.816    19635661.430  
  23370910.133   124887077.62506        37.000        4078.945    97134390.02305
        35.000        3171.914    23370913.781  
  20265658.070   108217399.06606        40.000       -2334.035    84169092.45706
        41.000       -1815.297    20265658.891  
  20023360.320   107073898.69108        51.000       -1972.527    83279654.21108
        49.000       -1534.160    20023360.867  
  23313860.578   124713398.16406        40.000       -3598.121                  
                                                
  20694378.383   110739739.74608        51.000        1313.020    86130941.68808
        49.000        1021.363    20694377.703  
 23  7 24 21  9 59.0000000  0 15G24G11G28G25G29G12G20G05G18R14R15R13            
                                R24R23R17                                       
  22621961.203   118879182.25007        47.000       -3186.086    92633163.75407
        45.000       -2482.660    22621964.406  
  22745235.273   119526937.39806        41.000       -2982.633    93137939.62905
        31.000       -2324.105    22745239.727  
  23864962.734   125411207.19106        40.000        2292.844    97723043.49203
        23.000        1786.590    23864966.734  
  21105139.359   110908183.02008        49.000        1986.813    86422062.62506
        41.000        1548.168    21105143.422  
  21959998.102   115400579.83608        48.000         428.090    89922535.57408
        49.000         333.578    21960000.516  
  21067721.734   110711633.77007        44.000         -65.820    86268801.96907
        46.000         -51.293    21067723.625  
  22395883.805   117691171.69107        43.000        -159.840    91707413.89105
        34.000        -124.512    22395885.703  
  22605960.523   118795135.05507        47.000        1490.285    92567656.50008
        49.000        1161.293    22605961.797  
  23439814.984   123177122.31607        43.000        3296.941    95982144.59805
        31.000        2569.027    23439821.695  
  19635289.477   104667181.53908        51.000        1969.984    81407782.35908
        51.000        1532.328    19635291.375  
  23370146.367   124882996.81606        37.000        4078.402    97131216.05905
        35.000        3171.574    23370149.961  
  20266094.734   108219731.43806        40.000       -2335.184    84170906.52306
        41.000       -1815.875    20266095.852  
  20023728.945   107075869.28908        51.000       -1972.977    83281186.89808
        49.000       -1534.398    20023729.359  
  23314533.141   124716993.77306        41.000       -3597.734                  
                                                
  20694132.797   110738424.71108        51.000        1312.434    86129918.88308
        49.000        1020.824    20694131.961  
 23  7 24 21 10  0.0000000  0 15G24G11G28G25G29G12G20G05G18R14R15R13            
                                R24R23R17                                       
  22622566.492   118882362.88307        47.000       -3186.324    92635642.16807
        45.000       -2482.863    22622569.734  
  22745802.211   119529914.71906        40.000       -2982.520    93140259.61705
        31.000       -2324.012    22745806.281  
  23864525.508   125408909.30506        40.000        2291.793    97721252.93003
        23.000        1785.813    23864529.336  
  21104760.320   110906190.73808        48.000        1986.598    86420510.19506
        41.000        1548.000    21104764.297  
  21959915.625   115400146.16808        48.000         427.988    89922197.64508
        49.000         333.492    21959917.984  
  21067733.133   110711694.12907        44.000         -66.281    86268849.00007
        46.000         -51.637    21067735.148  
  22395913.234   117691326.31607        43.000        -160.816    91707534.38305
        33.000        -125.340    22395915.133  
  22605675.969   118793639.39807        47.000        1489.695    92566491.05908
        49.000        1160.797    22605677.219  
  23439186.555   123173820.00807        43.000        3296.781    95979571.37505
        31.000        2568.926    23439193.211  
  19634918.867   104665206.12908        51.000        1969.500    81406245.94108
        51.000        1531.684    19634920.883  
  23369382.453   124878912.49606        38.000        4079.031    97128039.35905
        35.000        3172.941    23369385.602  
  20266530.680   108222060.93406        40.000       -2335.465    84172718.36706
        41.000       -1816.699    20266531.992  
  20024096.766   107077836.74208        51.000       -1973.371    83282717.14808
        49.000       -1534.824    20024097.234  
  23315204.305   124720585.71106        41.000       -3597.777                  
                                                
  20693886.258   110737106.69508        51.000        1311.879    86128893.75808
        49.000        1020.445    20693885.695  
 23  7 24 21 10  1.0000000  0 15G24G11G28G25G29G12G20G05G18R14R15R13            
                                R24R23R17                                       
  22623174.102   118885555.41407        47.000       -3186.238    92638129.85907
        45.000       -2482.770    22623177.352  
  22746370.742   119532904.06306        40.000       -2983.063    93142588.97305
        31.000       -2324.477    22746375.141  
  23864090.563   125406623.58206        41.000        2291.699    97719471.84003
        23.000        1785.762    23864094.258  
  21104383.633   110904210.39808        48.000        1986.719    86418967.07406
        41.000        1548.098    21104387.461  
  21959835.180   115399724.36708        48.000         428.309    89921868.97708
        49.000         333.746    21959837.703  
  21067747.141   110711766.58207        44.000         -66.180    86268905.45707
        46.000         -51.582    21067748.969  
  22395944.961   117691493.21507        43.000        -161.035    91707664.43805
        33.000        -125.480    22395946.906  
  22605393.859   118792155.82807        47.000        1489.910    92565335.03508
        49.000        1160.973    22605394.930  
  23438560.305   123170529.68407        43.000        3296.844    95977007.48805
        31.000        2568.980    23438567.031  
  19634550.617   104663243.25408        51.000        1969.063    81404719.25008
        51.000        1531.500    19634552.719  
  23368620.688   124874840.25006        37.000        4078.309    97124872.05105
        34.000        3171.742    23368623.117  
  20266969.219   108224403.02006        40.000       -2336.020    84174539.99206
        41.000       -1816.992    20266970.477  
  20024466.945   107079816.48808        51.000       -1973.391    83284256.94508
        49.000       -1534.813    20024467.539  
  23315878.195   124724189.48006        41.000       -3597.488                  
                                                
  20693642.234   110735801.23008        51.000        1311.609    86127878.40608
        49.000        1020.086    20693641.734  
 23  7 24 21 10  2.0000000  0 15G24G11G28G25G29G12G20G05G18R14R15R13            
                                R24R23R17                                       
  22623781.156   118888746.44507        47.000       -3186.289    92640616.37507
        45.000       -2482.828    22623784.672  
  22746939.609   119535891.98806        40.000       -2983.660    93144917.22305
        31.000       -2324.945    22746943.711  
  23863655.336   125404336.62906        41.000        2291.320    97717689.79303
        23.000        1785.434    23863659.172  
  21104006.461   110902228.60508        49.000        1986.406    86417422.81606
        41.000        1547.844    21104010.336  
  21959754.711   115399301.02708        48.000         427.746    89921539.09808
        49.000         333.305    21959757.164  
  21067760.750   110711837.70707        44.000         -66.598    86268960.87907
        46.000         -51.902    21067762.531  
  22395976.664   117691659.01607        43.000        -161.496    91707793.63305
        33.000        -125.844    22395978.438  
  22605111.328   118790670.94907        47.000        1489.266    92564177.98808
        49.000        1160.469    22605112.438  
  23437934.266   123167237.98407        43.000        3296.328    95974442.53105
        31.000        2568.555    23437940.602  
  19634182.383   104661279.30508        51.000        1968.258    81403191.73808
        51.000        1530.777    19634184.336  
  23367857.906   124870766.28106        37.000        4078.168    97121703.39105
        35.000        3172.984    23367860.750  
  20267407.805   108226744.09806        40.000       -2336.637    84176360.81606
        41.000       -1817.391    20267409.047  
  20024837.094   107081794.90208        51.000       -1973.914    83285795.71908
        49.000       -1535.328    20024837.516  
  23316551.719   124727791.43406        41.000       -3597.027                  
                                                
  20693398.133   110734494.68408        51.000        1310.820    86126862.19508
        49.000        1019.695    20693397.633  
 23  7 24 21 10  3.0000000  0 15G24G11G28G25G29G12G20G05G18R14R15R13            
                                R24R23R17                                       
  22624386.305   118891925.82807        46.000       -3186.918    92643093.81307
        45.000       -2483.301    22624389.781  
  22747505.891   119538868.36706        41.000       -2983.883    93147236.48805
        31.000       -2325.105    22747510.070  
  23863218.695   125402038.28506        41.000        2291.043    97715898.87503
        23.000        1785.227    23863221.867  
  21103627.117   110900235.18808        49.000        1986.148    86415869.50806
        41.000        1547.645    21103630.992  
  21959671.625   115398865.98808        48.000         427.668    89921200.10908
        49.000         333.242    21959674.406  
  21067772.148   110711897.39107        44.000         -67.305    86269007.38307
        46.000         -52.441    21067773.922  
  22396006.039   117691813.55507        43.000        -162.098    91707914.05505
        33.000        -126.313    22396007.844  
  22604826.516   118789174.60907        47.000        1488.938    92563012.00808
        49.000        1160.199    22604827.750  
  23437305.430   123163934.72307        43.000        3295.555    95971868.56605
        31.000        2567.969    23437311.938  
  19633811.734   104659303.98808        51.000        1967.488    81401655.38308
        51.000        1530.270    19633813.797  
  23367092.984   124866680.30506        36.000        4078.277    97118525.44905
        34.000        3171.742    23367095.172  
  20267844.047   108229073.82806        40.000       -2337.582    84178172.83206
        41.000       -1817.922    20267845.516  
  20025204.867   107083761.70308        51.000       -1974.504    83287325.44108
        49.000       -1535.734    20025205.273  
  23317222.758   124731381.21906        41.000       -3596.938                  
                                                
  20693151.906   110733176.68408        51.000        1310.184    86125837.09008
        49.000        1018.875    20693151.375  
 23  7 24 21 10  4.0000000  0 15G24G11G28G25G29G12G20G05G18R14R15R13            
                                R24R23R17                                       
  22624992.797   118895113.05507        46.000       -3186.953    92645577.37107
        45.000       -2483.313    22624996.375  
  22748073.867   119541852.70306        40.000       -2984.090    93149561.94105
        31.000       -2325.262    22748077.922  
  23862782.883   125399748.10906        41.000        2290.332    97714114.32003
        23.000        1784.637    23862786.188  
  21103249.500   110898249.69508        49.000        1985.828    86414322.37106
        41.000        1547.398    21103253.195  
  21959590.438   115398438.76608        48.000         427.598    89920867.21108
        49.000         333.191    21959593.086  
  21067784.992   110711965.12507        44.000         -67.617    86269060.16007
        46.000         -52.707    21067786.828  
  22396037.016   117691976.37507        43.000        -162.543    91708040.93405
        33.000        -126.660    22396038.859  
  22604543.266   118787686.33207        47.000        1488.633    92561852.31308
        49.000        1159.973    22604544.563  
  23436678.359   123160639.40607        43.000        3295.742    95969300.78905
        31.000        2568.102    23436684.789  
  19633442.813   104657337.14808        51.000        1967.016    81400125.61708
        51.000        1529.875    19633444.820  
  23366330.047   124862602.19906        37.000        4078.391    97115353.55505
        35.000        3171.789    23366332.383  
  20268281.555   108231412.04706        40.000       -2337.945    84179991.45306
        41.000       -1818.500    20268283.414  
  20025574.094   107085736.73408        51.000       -1974.852    83288861.57808
        49.000       -1535.953    20025574.570  
  23317894.742   124734978.75806        41.000       -3597.313                  
                                                
  20692906.953   110731867.06308        51.000        1309.832    86124818.50408
        49.000        1018.625    20692906.555  
 23  7 24 21 10  5.0000000  0 15G24G11G28G25G29G12G20G05G18R14R15R13            
                                R24R23R17                                       
  22625600.977   118898308.85207        46.000       -3187.219    92648067.59807
        45.000       -2483.566    22625604.609  
  22748643.242   119544845.68406        41.000       -2984.211    93151894.12905
        31.000       -2325.301    22748647.430  
  23862348.344   125397466.74606        41.000        2289.617    97712336.63703
        23.000        1784.125    23862352.078  
  21102873.227   110896272.78908        49.000        1985.453    86412781.92606
        41.000        1547.105    21102877.008  
  21959510.945   115398020.07408        48.000         427.590    89920540.95708
        49.000         333.168    21959513.430  
  21067799.648   110712041.59807        44.000         -67.813    86269119.75407
        46.000         -52.844    21067801.398  
  22396069.438   117692148.15607        43.000        -163.266    91708174.78905
        33.000        -127.199    22396071.547  
  22604261.680   118786206.80907        47.000        1488.215    92560699.44108
        49.000        1159.645    22604263.047  
  23436052.734   123157352.78507        43.000        3295.102    95966739.79305
        31.000        2567.613    23436059.289  
  19633075.555   104655379.47308        51.000        1966.316    81398602.98808
        51.000        1529.387    19633077.555  
  23365568.813   124858532.62906        38.000        4078.746    97112188.35905
        35.000        3172.465    23365570.469  
  20268721.133   108233759.46906        40.000       -2339.188    84181817.20706
        41.000       -1818.883    20268723.023  
  20025945.219   107087720.66408        51.000       -1975.164    83290404.64508
        49.000       -1536.309    20025945.523  
  23318569.078   124738584.66806        41.000       -3596.680                  
                                                
  20692663.906   110730566.53508        51.000        1309.156    86123806.98408
        49.000        1018.195    20692663.602  
 23  7 24 21 10  6.0000000  0 15G24G11G28G25G29G12G20G05G18R14R15R13            
                                R24R23R17                                       
  22626207.086   118901494.39807        46.000       -3187.461    92650549.83607
        45.000       -2483.738    22626210.883  
  22749211.023   119547828.51606        41.000       -2984.465    93154218.41005
        31.000       -2325.496    22749215.031  
  23861912.484   125395175.42606        41.000        2289.613    97710551.18803
        23.000        1784.086    23861916.094  
  21102495.055   110894285.69508        49.000        1985.352    86411233.53906
        41.000        1547.035    21102498.859  
  21959429.203   115397591.10208        48.000         427.332    89920206.69108
        49.000         332.992    21959431.844  
  21067812.234   110712108.05107        44.000         -68.438    86269171.53507
        46.000         -53.328    21067814.047  
  22396100.445   117692310.09807        43.000        -163.793    91708300.96905
        33.000        -127.625    22396102.367  
  22603978.445   118784717.23407        47.000        1487.555    92559538.73008
        49.000        1159.137    22603979.656  
  23435425.414   123154056.01207        43.000        3294.707    95964170.88305
        31.000        2567.301    23435431.852  
  19632706.383   104653411.88308        51.000        1965.531    81397072.64108
        51.000        1528.750    19632708.469  
  23364805.164   124854452.51606        37.000        4078.297    97109014.94505
        35.000        3172.098    23364807.500  
  20269159.180   108236096.93406        40.000       -2339.074    84183635.24606
        41.000       -1819.664    20269160.625  
  20026314.469   107089694.37108        51.000       -1975.629    83291939.75008
        49.000       -1536.516    20026314.570  
  23319241.523   124742179.88706        41.000       -3596.836                  
                                                
  20692419.125   110729256.02308        51.000        1308.523    86122787.69908
        49.000        1017.578    20692418.734  
 23  7 24 21 10  7.0000000  0 15G24G11G28G25G29G12G20G05G18R14R15R13            
                                R24R23R17                                       
  22626811.500   118904670.92607        46.000       -3187.457    92653025.05507
        45.000       -2483.734    22626815.430  
  22749776.617   119550802.44106        41.000       -2985.266    93156535.76205
        31.000       -2326.191    22749780.977  
  23861474.914   125392875.35906        41.000        2289.188    97708758.92603
        23.000        1783.781    23861478.500  
  21102115.031   110892289.63308        49.000        1984.938    86409678.16406
        41.000        1546.707    21102119.055  
  21959345.906   115397153.07408        48.000         427.195    89919865.37508
        49.000         332.879    21959348.484  
  21067823.156   110712165.66807        44.000         -69.012    86269216.43407
        46.000         -53.789    21067825.016  
  22396129.484   117692463.42607        43.000        -164.383    91708420.44505
        33.000        -128.090    22396131.547  
  22603693.117   118783218.86707        47.000        1487.027    92558371.17208
        49.000        1158.719    22603694.578  
  23434796.750   123150750.33607        43.000        3294.109    95961595.03905
        31.000        2566.832    23434802.781  
  19632335.602   104651435.61308        51.000        1964.887    81395535.54708
        51.000        1528.270    19632337.852  
  23364039.492   124850363.12106        37.000        4078.055    97105834.28905
        35.000        3172.879    23364042.250  
  20269595.313   108238425.75806        40.000       -2340.672    84185446.54306
        41.000       -1820.141    20269596.570  
  20026681.859   107091659.10908        51.000       -1976.090    83293467.87908
        49.000       -1536.941    20026681.875  
  23319911.617   124745765.62506        41.000       -3596.695                  
                                                
  20692172.563   110727936.77708        51.000        1307.879    86121761.62508
        49.000        1017.109    20692172.102  
 23  7 24 21 10  8.0000000  0 15G24G11G28G25G29G12G20G05G18R14R15R13            
                                R24R23R17                                       
  22627417.820   118907857.75007        46.000       -3187.723    92655508.29307
        45.000       -2483.941    22627421.914  
  22750344.602   119553786.76606        41.000       -2985.602    93158861.22705
        31.000       -2326.453    22750348.867  
  23861039.000   125390585.89506        41.000        2288.555    97706974.93003
        23.000        1783.309    23861042.820  
  21101737.242   110890303.89108        49.000        1984.895    86408130.83606
        41.000        1546.660    21101741.211  
  21959264.656   115396725.30108        48.000         427.059    89919532.04708
        49.000         332.773    21959267.055  
  21067835.727   110712233.75807        44.000         -69.008    86269269.49207
        46.000         -53.777    21067837.969  
  22396160.297   117692627.44907        43.000        -164.590    91708548.25805
        33.000        -128.273    22396162.766  
  22603409.789   118781730.96907        47.000        1486.949    92557211.77708
        49.000        1158.648    22603411.469  
  23434169.594   123147455.03507        43.000        3294.379    95959027.27705
        31.000        2567.043    23434175.664  
  19631966.766   104649470.25008        51.000        1964.398    81394006.93008
        51.000        1527.934    19631969.133  
  23363276.109   124846284.03506        37.000        4078.633    97102661.68405
        34.000        3171.762    23363279.125  
  20270033.547   108240765.48006        40.000       -2340.344    84187266.32806
        41.000       -1820.508    20270034.781  
  20027051.180   107093634.54708        51.000       -1976.348    83295004.33208
        49.000       -1537.211    20027051.078  
  23320583.414   124749361.54706        41.000       -3596.781                  
                                                
  20691927.922   110726628.43808        51.000        1307.215    86120744.02708
        49.000        1016.645    20691927.563  
 23  7 24 21 10  9.0000000  0 15G24G11G28G25G29G12G20G05G18R14R15R13            
                                R24R23R17                                       
  22628025.969   118911053.62907        45.000       -3188.000    92657998.59007
        45.000       -2484.156    22628030.156  
  22750913.969   119556780.22306        41.000       -2985.770    93161193.77705
        31.000       -2326.535    22750918.477  
  23860605.453   125388305.73806        41.000        2288.191    97705198.18803
        23.000        1783.031    23860609.008  
  21101361.219   110888327.27008        49.000        1984.520    86406590.61306
        41.000        1546.387    21101365.094  
  21959184.867   115396306.55108        48.000         426.770    89919205.75008
        49.000         332.551    21959187.375  
  21067850.500   110712311.11707        44.000         -69.660    86269329.77007
        46.000         -54.270    21067852.680  
  22396193.766   117692800.94507        43.000        -165.695    91708683.45705
        33.000        -129.117    22396195.828  
  22603128.672   118780252.34407        47.000        1486.504    92556059.60208
        49.000        1158.316    22603130.141  
  23433544.133   123144168.89507        43.000        3293.918    95956466.66005
        31.000        2566.684    23433550.266  
  19631599.953   104647514.52308        51.000        1963.691    81392485.81308
        51.000        1527.242    19631602.320  
  23362514.453   124842214.05106        37.000        4078.195    97099496.14105
        34.000        3172.207    23362517.602  
  20270473.703   108243114.95306        40.000       -2341.293    84189093.70306
        41.000       -1821.129    20270474.836  
  20027422.430   107095619.42608        51.000       -1976.820    83296548.12908
        49.000       -1537.563    20027422.289  
  23321257.305   124752966.37106        41.000       -3596.336                  
                                                
  20691685.289   110725329.69908        51.000        1306.645    86119733.89108
        49.000        1016.336    20691684.836  
 23  7 24 21 10 10.0000000  0 15G24G11G28G25G29G12G20G05G18R14R15R13            
                                R24R23R17                                       
  22628632.500   118914239.94907        45.000       -3187.965    92660481.42607
        45.000       -2484.125    22628636.578  
  22751482.305   119559764.24606        41.000       -2985.648    93163518.99605
        31.000       -2326.469    22751486.273  
  23860169.500   125386016.31606        41.000        2287.590    97703414.22303
        23.000        1782.578    23860173.336  
  21100983.297   110886341.13308        49.000        1984.328    86405042.96906
        41.000        1546.227    21100987.117  
  21959103.305   115395878.21508        48.000         426.613    89918871.98008
        49.000         332.410    21959105.883  
  21067863.563   110712379.11307        44.000         -69.699    86269382.75407
        46.000         -54.332    21067865.617  
  22396224.813   117692965.29707        43.000        -166.441    91708811.52305
        33.000        -129.684    22396227.109  
  22602845.609   118778764.37107        47.000        1486.195    92554900.13708
        49.000        1158.086    22602847.063  
  23432917.109   123140873.32407        43.000        3293.699    95953898.68405
        31.000        2566.523    23432923.070  
  19631231.336   104645549.57408        51.000        1963.086    81390957.52308
        51.000        1526.793    19631233.789  
  23361750.516   124838134.19106        38.000        4078.574    97096322.93005
        34.000        3171.559    23361753.508  
  20270912.172   108245455.26606        40.000       -2342.738    84190913.92606
        41.000       -1821.535    20270913.313  
  20027791.992   107097594.76608        51.000       -1977.238    83298084.50408
        49.000       -1537.785    20027791.648  
  23321928.930   124756561.17606        41.000       -3596.223                  
                                                
  20691440.961   110724021.60208        51.000        1306.082    86118716.48808
        49.000        1015.773    20691440.367  
 23  7 24 21 10 11.0000000  0 15G24G11G28G25G29G12G20G05G18R14R15R13            
                                R24R23R17                                       
  22629238.094   118917423.09407        45.000       -3187.934    92662961.79707
        45.000       -2484.102    22629242.359  
  22752049.289   119562745.18006        41.000       -2986.156    93165841.80905
        31.000       -2326.902    22752053.445  
  23859733.188   125383724.00406        41.000        2287.086    97701628.00003
        23.000        1782.176    23859737.141  
  21100604.656   110884351.87108        49.000        1984.281    86403492.89806
        41.000        1546.180    21100608.625  
  21959021.234   115395446.66808        48.000         426.555    89918535.70708
        49.000         332.379    21959023.742  
  21067876.172   110712444.15207        44.000         -70.176    86269433.43407
        46.000         -54.684    21067877.977  
  22396255.602   117693126.86307        43.000        -166.445    91708937.41805
        33.000        -129.715    22396257.883  
  22602561.656   118777273.40607        47.000        1486.027    92553738.35208
        49.000        1157.941    22602563.375  
  23432289.219   123137574.68407        43.000        3293.395    95951328.32405
        31.000        2566.273    23432295.336  
  19630862.094   104643581.88708        51.000        1962.406    81389427.09408
        51.000        1526.445    19630864.641  
  23360986.469   124834050.96106        37.000        4078.141    97093147.09805
        34.000        3171.375    23360989.742  
  20271349.633   108247792.83606        40.000       -2342.832    84192732.04706
        41.000       -1822.246    20271350.961  
  20028160.734   107099567.09808        51.000       -1977.594    83299618.53908
        49.000       -1538.066    20028160.367  
  23322599.703   124760152.47306        41.000       -3596.625                  
                                                
  20691195.805   110722710.65208        51.000        1305.848    86117696.86308
        49.000        1015.508    20691195.242  
 23  7 24 21 10 12.0000000  0 15G24G11G28G25G29G12G20G05G18R14R15R13            
                                R24R23R17                                       
  22629845.891   118920618.43407        45.000       -3188.496    92665451.67607
        45.000       -2484.539    22629850.484  
  22752619.258   119565738.42606        41.000       -2986.844    93168174.20705
        31.000       -2327.418    22752623.039  
  23859300.070   125381444.16407        42.000        2286.551    97699851.50403
        23.000        1781.738    23859303.266  
  21100228.445   110882374.84808        49.000        1984.008    86401952.36306
        41.000        1545.973    21100232.430  
  21958941.438   115395027.26608        48.000         426.422    89918208.90608
        49.000         332.258    21958943.898  
  21067891.141   110712521.54307        44.000         -70.359    86269493.74207
        46.000         -54.805    21067892.680  
  22396288.398   117693301.04307        42.000        -167.477    91709073.15205
        33.000        -130.520    22396291.039  
  22602280.430   118775794.82007        47.000        1485.586    92552586.21108
        49.000        1157.598    22602282.023  
  23431663.984   123134288.34007        43.000        3293.102    95948767.54305
        31.000        2566.043    23431669.938  
  19630495.281   104641627.05508        51.000        1961.676    81387906.67608
        51.000        1525.773    19630497.969  
  23360224.539   124829980.02306        37.000        4078.086    97089980.80905
        34.000        3171.750    23360227.859  
  20271789.977   108250143.30506        40.000       -2343.688    84194560.19506
        41.000       -1822.762    20271791.102  
  20028531.867   107101552.05908        51.000       -1977.840    83301162.39808
        49.000       -1538.355    20028531.656  
  23323273.594   124763755.84406        41.000       -3595.871                  
                                                
  20690953.211   110721412.57008        50.000        1304.953    86116687.23808
        49.000        1014.949    20690952.516  
 23  7 24 21 10 13.0000000  0 15G24G11G28G25G29G12G20G05G18R14R15R13            
                                R24R23R17                                       
  22630453.664   118923812.10207        45.000       -3188.449    92667940.24207
        45.000       -2484.504    22630458.289  
  22753188.516   119568730.07806        41.000       -2986.719    93170505.36705
        31.000       -2327.258    22753192.320  
  23858866.016   125379162.93407        42.000        2285.996    97698073.91803
        23.000        1781.328    23858869.133  
  21099852.000   110880396.21108        49.000        1983.574    86400410.57006
        41.000        1545.648    21099855.922  
  21958861.305   115394606.18808        48.000         426.125    89917880.79308
        49.000         332.055    21958863.766  
  21067905.203   110712597.48407        44.000         -70.766    86269552.91807
        46.000         -55.133    21067907.125  
  22396321.422   117693473.96107        43.000        -167.926    91709207.89805
        33.000        -130.840    22396323.930  
  22601998.992   118774314.79707        47.000        1485.094    92551432.94108
        49.000        1157.211    22602000.422  
  23431038.148   123131000.43407        43.000        3292.773    95946205.53905
        31.000        2565.793    23431044.195  
  19630128.297   104639671.02308        51.000        1961.027    81386385.31608
        51.000        1525.234    19630131.109  
  23359462.414   124825907.27306        37.000        4077.723    97086813.10205
        34.000        3171.926    23359465.656  
  20272230.219   108252492.61306        41.000       -2344.168    84196387.43806
        41.000       -1823.441    20272231.086  
  20028902.945   107103535.53908        51.000       -1978.254    83302705.10508
        49.000       -1538.598    20028902.523  
  23323946.859   124767357.28506        40.000       -3596.008                  
                                                
  20690710.703   110720113.23408        50.000        1304.418    86115676.65208
        49.000        1014.473    20690709.797  
 23  7 24 21 10 14.0000000  0 15G24G11G28G25G29G12G20G05G18R14R15R13            
                                R24R23R17                                       
  22631059.055   118926993.84807        45.000       -3188.879    92670419.52307
        45.000       -2484.848    22631063.828  
  22753755.469   119571709.90207        42.000       -2986.766    93172827.31305
        31.000       -2327.352    22753759.359  
  23858429.258   125376870.03107        42.000        2285.629    97696287.24203
        23.000        1780.992    23858432.820  
  21099473.148   110878405.68408        49.000        1983.273    86398859.50806
        41.000        1545.410    21099477.109  
  21958778.914   115394173.11708        48.000         425.891    89917543.33608
        49.000         331.859    21958781.352  
  21067917.656   110712661.68807        44.000         -71.410    86269602.94107
        46.000         -55.660    21067919.320  
  22396352.117   117693635.34007        42.000        -168.516    91709333.65205
        33.000        -131.313    22396354.664  
  22601714.734   118772823.02007        47.000        1484.668    92550270.52008
        50.000        1156.871    22601716.586  
  23430410.766   123127700.69507        43.000        3292.816    95943634.31305
        31.000        2565.824    23430416.234  
  19629759.031   104637703.34408        51.000        1960.410    81384854.90608
        51.000        1524.543    19629761.984  
  23358697.766   124821822.23806        37.000        4078.070    97083635.87105
        35.000        3171.695    23358701.008  
  20272668.055   108254830.28906        41.000       -2345.387    84198205.62106
        41.000       -1824.117    20272668.930  
  20029271.602   107105507.06608        51.000       -1978.836    83304238.52008
        49.000       -1539.109    20029271.211  
  23324617.133   124770946.26206        40.000       -3596.109                  
                                                
  20690465.656   110718802.16408        50.000        1303.699    86114656.93008
        49.000        1013.953    20690464.758  
 23  7 24 21 10 15.0000000  0 15G24G11G28G25G29G12G20G05G18R14R15R13            
                                R24R23R17                                       
  22631666.070   118930182.65607        45.000       -3188.738    92672904.31307
        45.000       -2484.730    22631670.703  
  22754323.820   119574696.91806        41.000       -2987.316    93175154.85905
        31.000       -2327.777    22754327.719  
  23857994.414   125374584.52007        42.000        2285.137    97694506.33603
        23.000        1780.605    23857997.922  
  21099095.672   110876422.26608        49.000        1983.309    86397313.98406
        41.000        1545.426    21099099.695  
  21958697.797   115393747.08208        48.000         426.086    89917211.36708
        49.000         332.008    21958700.234  
  21067930.992   110712733.16407        44.000         -71.484    86269658.63707
        46.000         -55.699    21067932.883  
  22396383.930   117693804.20707        42.000        -169.203    91709465.24605
        33.000        -131.848    22396386.805  
  22601432.578   118771338.50807        47.000        1484.289    92549113.77008
        50.000        1156.582    22601434.102  
  23429784.219   123124408.14807        43.000        3292.172    95941068.69905
        31.000        2565.320    23429789.664  
  19629391.219   104635743.28508        51.000        1959.949    81383330.41408
        51.000        1524.324    19629394.297  
  23357935.102   124817744.25806        37.000        4078.637    97080464.10905
        34.000        3172.195    23357937.531  
  20273107.453   108257175.63306        40.000       -2345.367    84200029.76206
        41.000       -1824.145    20273108.227  
  20029641.508   107107486.00008        51.000       -1979.027    83305777.68808
        49.000       -1539.242    20029641.125  
  23325289.086   124774542.17606        40.000       -3595.898                  
                                                
  20690221.695   110717498.68008        50.000        1303.477    86113643.11308
        49.000        1013.855    20690221.148  
 23  7 24 21 10 16.0000000  0 15G24G11G28G25G29G12G20G05G18R14R15R13            
                                R24R23R17                                       
  22632274.641   118933379.72307        44.000       -3189.105    92675395.53507
        45.000       -2485.031    22632279.172  
  22754893.836   119577692.28106        41.000       -2987.629    93177488.91005
        31.000       -2328.059    22754897.695  
  23857561.414   125372307.50007        42.000        2285.047    97692732.03903
        23.000        1780.570    23857564.570  
  21098719.852   110874447.15208        49.000        1983.176    86395774.93806
        41.000        1545.332    21098723.859  
  21958618.383   115393329.27308        48.000         426.039    89916885.80508
        49.000         331.980    21958620.703  
  21067946.297   110712813.10207        44.000         -72.160    86269720.93007
        46.000         -56.242    21067948.055  
  22396418.117   117693981.73407        43.000        -169.578    91709603.57805
        33.000        -132.145    22396420.586  
  22601151.539   118769862.48007        47.000        1483.949    92547963.62108
        50.000        1156.324    22601153.266  
  23429159.445   123121123.96907        43.000        3291.953    95938509.60905
        31.000        2565.137    23429164.672  
  19629025.188   104633792.07808        51.000        1959.012    81381812.80908
        51.000        1523.695    19629028.328  
  23357172.914   124813674.53506        37.000        4078.094    97077298.77005
        34.000        3171.461    23357176.211  
  20273548.305   108259529.87506        41.000       -2346.586    84201860.84806
        41.000       -1824.977    20273549.180  
  20030013.258   107109473.55908        51.000       -1979.527    83307323.56608
        49.000       -1539.645    20030012.711  
  23325962.719   124778146.22306        40.000       -3595.953                  
                                                
  20689979.781   110716204.01208        50.000        1302.566    86112636.14808
        48.000        1013.184    20689979.172  
 23  7 24 21 10 17.0000000  0 15G24G11G28G25G29G12G20G05G18R14R15R13            
                                R24R23R17                                       
  22632880.641   118936566.30107        45.000       -3189.402    92677878.57007
        45.000       -2485.254    22632885.648  
  22755461.922   119580677.25006        41.000       -2988.070    93179814.85205
        31.000       -2328.379    22755465.672  
  23857125.922   125370020.31307        42.000        2283.938    97690949.80904
        24.000        1779.691    23857129.242  
  21098342.234   110872461.60208        49.000        1982.762    86394227.75006
        41.000        1545.016    21098346.031  
  21958536.969   115392900.95308        48.000         425.668    89916552.04308
        49.000         331.699    21958539.195  
  21067959.344   110712882.74607        44.000         -72.613    86269775.19507
        46.000         -56.566    21067961.281  
  22396450.070   117694149.19907        43.000        -170.289    91709734.07005
        33.000        -132.691    22396452.477  
  22600868.703   118768376.17207        47.000        1483.516    92546805.45708
        50.000        1155.988    22600870.500  
  23428532.063   123117829.39107        43.000        3292.109    95935942.41005
        31.000        2565.281    23428537.680  
  19628657.250   104631830.68408        51.000        1958.348    81380287.28508
        51.000        1523.211    19628660.453  
  23356409.578   124809594.00406        37.000        4078.223    97074125.03105
        34.000        3171.137    23356412.227  
  20273987.148   108261873.98406        41.000       -2347.535    84203684.03106
        41.000       -1825.305    20273988.203  
  20030383.133   107111450.66408        51.000       -1980.004    83308861.31608
        49.000       -1539.953    20030382.547  
  23326634.102   124781739.30106        40.000       -3595.781                  
                                                
  20689736.109   110714899.10208        50.000        1301.938    86111621.21508
        48.000        1012.547    20689735.297  
 23  7 24 21 10 18.0000000  0 15G24G11G28G25G29G12G20G05G18R14R15R13            
                                R24R23R17                                       
  22633485.367   118939744.07407        44.000       -3189.453    92680354.75407
        45.000       -2485.301    22633490.430  
  22756028.211   119583653.50406        41.000       -2987.828    93182134.01205
        30.000       -2328.180    22756032.031  
  23856688.945   125367724.58607        42.000        2283.770    97689160.93804
        24.000        1779.531    23856692.289  
  21097962.680   110870467.28508        48.000        1982.621    86392673.73806
        41.000        1544.898    21097966.547  
  21958453.773   115392463.78508        48.000         425.602    89916211.39808
        49.000         331.613    21958455.961  
  21067970.977   110712943.77307        44.000         -72.895    86269822.75007
        46.000         -56.797    21067972.844  
  22396480.664   117694308.23807        43.000        -170.773    91709858.00405
        33.000        -133.066    22396482.758  
  22600584.094   118766881.25007        47.000        1483.195    92545640.58608
        50.000        1155.727    22600586.086  
  23427903.445   123114526.11307        43.000        3291.621    95933368.42605
        31.000        2564.867    23427909.008  
  19628287.570   104629860.83608        51.000        1957.824    81378755.17208
        51.000        1522.891    19628290.945  
  23355644.766   124805504.37506        37.000        4077.738    97070944.20305
        35.000        3171.344    23355647.406  
  20274424.180   108264209.61306        41.000       -2347.477    84205500.64506
        41.000       -1826.098    20274425.656  
  20030751.180   107113418.98808        51.000       -1980.094    83310392.23008
        49.000       -1540.035    20030750.539  
  23327304.172   124785323.10906        40.000       -3595.328                  
                                                
  20689490.453   110713585.64108        50.000        1301.625    86110599.64108
        48.000        1012.379    20689489.672  
 23  7 24 21 10 19.0000000  0 15G24G11G28G25G29G12G20G05G18R14R15R13            
                                R24R23R17                                       
  22634091.805   118942932.35507        44.000       -3189.445    92682839.12507
        45.000       -2485.273    22634097.211  
  22756596.898   119586640.38706        41.000       -2988.234    93184461.44905
        30.000       -2328.504    22756600.391  
  23856253.711   125365439.63707        42.000        2283.906    97687380.46104
        24.000        1779.664    23856257.406  
  21097585.063   110868483.54708        49.000        1982.578    86391127.97706
        41.000        1544.848    21097589.086  
  21958372.672   115392037.09408        48.000         425.594    89915878.91408
        49.000         331.617    21958374.711  
  21067984.820   110713015.50807        44.000         -72.883    86269878.64107
        46.000         -56.793    21067986.438  
  22396512.672   117694478.21507        43.000        -171.367    91709990.46105
        33.000        -133.535    22396515.102  
  22600301.547   118765397.05907        47.000        1482.961    92544484.07808
        50.000        1155.555    22600303.680  
  23427276.961   123111233.48007        43.000        3291.434    95930802.74605
        31.000        2564.758    23427282.367  
  19627920.016   104627902.14108        51.000        1957.383    81377231.75408
        51.000        1522.262    19627923.453  
  23354881.383   124801425.34406        37.000        4077.695    97067771.59005
        35.000        3172.766    23354884.539  
  20274863.742   108266556.42206        40.000       -2348.492    84207325.94106
        41.000       -1826.336    20274864.906  
  20031121.125   107115398.22708        51.000       -1980.441    83311931.64108
        49.000       -1540.441    20031120.672  
  23327975.367   124788917.32406        40.000       -3595.191                  
                                                
  20689246.719   110712283.28508        50.000        1301.004    86109586.70308
        48.000        1011.840    20689246.281  
 23  7 24 21 10 20.0000000  0 15G24G11G28G25G29G12G20G05G18R14R15R13            
                                R24R23R17                                       
  22634701.859   118946135.98007        44.000       -3189.777    92685335.45307
        45.000       -2485.516    22634706.938  
  22757167.953   119589642.70306        41.000       -2988.559    93186800.92205
        30.000       -2328.742    22757171.664  
  23855822.516   125363170.32807        42.000        2283.254    97685612.16004
        24.000        1779.164    23855825.578  
  21097210.477   110866515.18408        48.000        1982.316    86389594.18406
        41.000        1544.660    21097214.516  
  21958294.234   115391625.71508        48.000         425.270    89915558.36308
        49.000         331.383    21958296.391  
  21068001.820   110713102.78507        44.000         -73.418    86269946.65207
        46.000         -57.199    21068003.000  
  22396548.234   117694663.92607        43.000        -171.832    91710135.17205
        33.000        -133.863    22396550.469  
  22600021.930   118763928.39507        47.000        1482.430    92543339.66808
        50.000        1155.137    22600024.219  
  23426653.273   123107956.28107        43.000        3290.781    95928249.08605
        31.000        2564.227    23426658.688  
  19627555.469   104625959.47708        51.000        1956.523    81375720.79308
        51.000        1521.699    19627559.055  
  23354121.195   124797361.78506        37.000        4078.043    97064611.07805
        34.000        3172.332    23354124.430  
  20275306.547   108268919.30906        41.000       -2349.328    84209163.73806
        41.000       -1827.203    20275307.352  
  20031494.320   107117393.29308        51.000       -1981.023    83313483.35508
        49.000       -1540.730    20031493.797  
  23328649.984   124792526.85206        40.000       -3595.211                  
                                                
  20689006.242   110710996.92608        50.000        1300.266    86108586.19108
        48.000        1011.719    20689005.852  
 23  7 24 21 10 21.0000000  0 15G24G11G28G25G29G12G20G05G18R14R15R13            
                                R24R23R17                                       
  22635310.141   118949332.94107        44.000       -3189.875    92687826.59007
        45.000       -2485.617    22635315.422  
  22757738.031   119592638.46107        42.000       -2988.844    93189135.27705
        30.000       -2328.957    22757741.742  
  23855389.508   125360894.64507        42.000        2282.699    97683838.89804
        24.000        1778.734    23855392.594  
  21096834.672   110864540.22308        49.000        1982.027    86388055.25006
        41.000        1544.449    21096838.672  
  21958214.820   115391207.62908        48.000         425.117    89915232.57808
        49.000         331.262    21958216.836  
  21068017.000   110713183.60507        44.000         -73.945    86270009.62907
        46.000         -57.637    21068018.375  
  22396582.430   117694843.39507        43.000        -172.445    91710275.02005
        33.000        -134.371    22396584.641  
  22599741.336   118762453.28107        47.000        1482.148    92542190.23008
        50.000        1154.898    22599743.570  
  23426028.367   123104672.52307        43.000        3290.660    95925690.32005
        31.000        2564.125    23426033.781  
  19627189.828   104624010.53108        51.000        1955.898    81374204.94508
        51.000        1521.328    19627193.500  
  23353359.359   124793291.32806        38.000        4077.961    97061445.19905
        34.000        3171.672    23353362.461  
  20275748.211   108271275.93406        41.000       -2350.195    84210996.65206
        41.000       -1827.516    20275748.898  
  20031866.445   107119381.79308        51.000       -1981.313    83315029.98008
        49.000       -1541.180    20031865.734  
  23329323.344   124796129.28906        39.000       -3595.125                  
                                                
  20688764.836   110709704.21108        50.000        1299.664    86107580.76208
        48.000        1010.961    20688764.352  
 23  7 24 21 10 22.0000000  0 15G24G11G28G25G29G12G20G05G18R14R15R13            
                                R24R23R17                                       
  22635915.313   118952514.38307        44.000       -3190.051    92690305.62107
        45.000       -2485.738    22635920.930  
  22758304.953   119595618.80106        41.000       -2989.262    93191457.62905
        30.000       -2329.281    22758308.836  
  23854953.719   125358603.73407        42.000        2282.082    97682053.77704
        24.000        1778.234    23854956.750  
  21096455.891   110862549.78908        48.000        1981.664    86386504.26206
        41.000        1544.152    21096459.898  
  21958132.211   115390774.01207        47.000         424.910    89914894.69508
        49.000         331.094    21958134.289  
  21068029.547   110713249.09007        44.000         -74.086    86270060.65207
        46.000         -57.723    21068030.820  
  22396613.672   117695007.77007        43.000        -173.246    91710403.10205
        33.000        -135.004    22396615.930  
  22599457.820   118760962.85207        47.000        1481.738    92541028.85508
        50.000        1154.602    22599460.000  
  23425400.656   123101373.35907        43.000        3290.539    95923119.55105
        31.000        2564.063    23425405.914  
  19626821.305   104622046.31308        51.000        1955.176    81372677.22308
        51.000        1520.625    19626825.078  
  23352594.688   124789204.95706        38.000        4077.844    97058266.90205
        35.000        3171.164    23352597.398  
  20276186.656   108273617.28906        41.000       -2350.203    84212817.72306
        41.000       -1828.105    20276187.359  
  20032235.477   107121354.74608        51.000       -1981.859    83316564.49208
        49.000       -1541.547    20032234.617  
  23329993.578   124799715.60906        39.000       -3594.656                  
                                                
  20688520.180   110708396.15608        50.000        1299.012    86106563.37908
        48.000        1010.375    20688519.953  
 23  7 24 21 10 23.0000000  0 15G24G11G28G25G29G12G20G05G18R14R15R13            
                                R24R23R17                                       
  22636520.813   118955697.02307        44.000       -3190.246    92692785.59807
        45.000       -2485.902    22636526.664  
  22758872.539   119598600.44107        42.000       -2989.445    93193780.98805
        30.000       -2329.422    22758876.188  
  23854517.570   125356314.28907        42.000        2281.750    97680269.79304
        24.000        1777.984    23854521.039  
  21096077.398   110860560.59408        49.000        1981.547    86384954.24206
        41.000        1544.055    21096081.383  
  21958049.766   115390341.53107        47.000         424.961    89914557.69908
        49.000         331.133    21958051.938  
  21068042.164   110713315.98807        44.000         -74.508    86270112.78507
        46.000         -58.051    21068043.492  
  22396644.836   117695173.75007        43.000        -173.832    91710532.43805
        33.000        -135.480    22396647.547  
  22599174.531   118759473.80907        47.000        1481.301    92539868.56308
        50.000        1154.250    22599176.648  
  23424773.078   123098075.50807        43.000        3290.313    95920549.80905
        31.000        2563.855    23424778.352  
  19626453.117   104620083.75808        51.000        1954.586    81371150.79308
        51.000        1520.242    19626456.883  
  23351830.234   124785119.68006        38.000        4077.715    97055089.44105
        34.000        3171.871    23351832.445  
  20276625.289   108275960.41006        41.000       -2351.188    84214640.13306
        41.000       -1828.758    20276626.016  
  20032604.633   107123329.12108        51.000       -1982.199    83318100.12108
        49.000       -1541.695    20032603.742  
  23330663.594   124803302.85906        39.000       -3594.844                  
                                                
  20688275.609   110707089.73408        50.000        1298.609    86105547.28108
        48.000        1009.961    20688275.703  
 23  7 24 21 10 24.0000000  0 15G24G11G28G25G29G12G20G05G18R14R15R13            
                                R24R23R17                                       
  22637128.820   118958893.16007        43.000       -3190.461    92695276.08607
        45.000       -2486.086    22637134.945  
  22759442.555   119601595.67607        42.000       -2989.367    93196114.94105
        30.000       -2329.340    22759446.148  
  23854084.828   125354038.62907        42.000        2281.367    97678496.55104
        24.000        1777.695    23854087.852  
  21095701.352   110858584.96508        49.000        1981.215    86383414.79306
        41.000        1543.801    21095705.438  
  21957970.125   115389922.54707        47.000         424.707    89914231.21908
        48.000         330.930    21957972.148  
  21068057.711   110713396.59407        44.000         -74.875    86270175.59407
        46.000         -58.348    21068058.781  
  22396678.906   117695353.61307        43.000        -174.148    91710672.59405
        33.000        -135.703    22396681.773  
  22598893.539   118757998.47707        47.000        1480.930    92538718.96108
        50.000        1153.969    22598895.906  
  23424148.273   123094791.27307        44.000        3289.840    95917990.67205
        31.000        2563.508    23424153.359  
  19626087.570   104618135.39508        51.000        1953.949    81369635.40208
        51.000        1519.684    19626091.422  
  23351068.578   124781048.02706        38.000        4077.477    97051922.62105
        34.000        3171.090    23351070.922  
  20277066.641   108278317.75406        41.000       -2351.941    84216473.63706
        41.000       -1829.133    20277067.586  
  20032976.461   107125317.42208        51.000       -1982.609    83319646.58208
        49.000       -1542.016    20032975.516  
  23331336.039   124806903.57406        39.000       -3594.965                  
                                                
  20688033.836   110705797.49608        50.000        1298.063    86104542.21108
        48.000        1009.391    20688034.156  
 23  7 24 21 10 25.0000000  0 15G24G11G28G25G29G12G20G05G18R14R15R13            
                                R24R23R17                                       
  22637736.922   118962088.09407        43.000       -3190.383    92697765.64507
        45.000       -2486.039    22637743.023  
  22760012.414   119604589.79307        42.000       -2989.969    93198448.02305
        30.000       -2329.824    22760015.875  
  23853651.461   125351762.04307        42.000        2280.832    97676722.58604
        24.000        1777.273    23853654.500  
  21095325.211   110856608.16008        49.000        1981.258    86381874.43006
        41.000        1543.852    21095329.266  
  21957890.305   115389502.30508        48.000         424.664    89913903.76208
        48.000         330.891    21957892.141  
  21068072.477   110713476.18407        44.000         -75.168    86270237.60507
        46.000         -58.555    21068073.898  
  22396713.133   117695532.68007        43.000        -174.652    91710812.12505
        33.000        -136.098    22396715.828  
  22598612.586   118756522.12907        47.000        1480.680    92537568.56308
        50.000        1153.766    22598615.000  
  23423522.922   123091505.92607        44.000        3289.633    95915430.66805
        31.000        2563.340    23423528.078  
  19625722.000   104616186.28108        51.000        1953.383    81368119.42208
        51.000        1519.305    19625725.813  
  23350306.844   124776975.03906        38.000        4077.559    97048754.70305
        34.000        3172.289    23350308.188  
  20277507.961   108280674.38706        41.000       -2352.543    84218306.56306
        41.000       -1829.449    20277508.852  
  20033348.242   107127304.68008        51.000       -1982.902    83321192.21508
        49.000       -1542.137    20033347.188  
  23332008.711   124810502.75006        39.000       -3594.258                  
                                                
  20687792.445   110704504.39508        50.000        1297.383    86103536.47708
        48.000        1008.910    20687792.523  
 23  7 24 21 10 26.0000000  0 15G24G11G28G25G29G12G20G05G18R14R15R13            
                                R24R23R17                                       
  22638342.055   118965269.48407        43.000       -3190.879    92700244.64507
        45.000       -2486.375    22638348.531  
  22760579.469   119607570.48007        42.000       -2990.180    93200770.63705
        30.000       -2330.023    22760583.055  
  23853216.047   125349472.20307        42.000        2280.098    97674938.28904
        24.000        1776.727    23853218.734  
  21094946.445   110854617.86708        49.000        1980.746    86380323.55106
        41.000        1543.430    21094950.500  
  21957807.586   115389068.50007        47.000         424.359    89913565.73008
        48.000         330.668    21957809.555  
  21068085.086   110713542.42207        44.000         -75.887    86270289.21907
        46.000         -59.129    21068086.492  
  22396745.070   117695698.62907        43.000        -175.605    91710941.43805
        33.000        -136.824    22396747.422  
  22598329.328   118755032.45707        47.000        1480.273    92536407.78108
        50.000        1153.457    22598331.555  
  23422895.094   123088207.14107        44.000        3289.383    95912860.18805
        31.000        2563.148    23422900.281  
  19625353.789   104614223.92208        51.000        1952.480    81366593.14108
        51.000        1518.676    19625357.617  
  23349542.047   124772888.09806        38.000        4077.750    97045576.02705
        34.000        3170.633    23349543.234  
  20277946.875   108283017.73406        41.000       -2352.816    84220129.18406
        41.000       -1830.367    20277947.672  
  20033717.289   107129278.39108        51.000       -1983.359    83322727.33208
        49.000       -1542.668    20033716.367  
  23332678.266   124814087.87106        38.000       -3594.539                  
                                                
  20687548.258   110703197.87108        50.000        1296.723    86102520.28508
        48.000        1008.496    20687548.234  
 23  7 24 21 10 27.0000000  0 15G24G11G28G25G29G12G20G05G18R14R15R13            
                                R24R23R17                                       
  22638948.398   118968452.92607        43.000       -3190.789    92702725.24607
        45.000       -2486.328    22638954.406  
  22761146.813   119610553.33207        42.000       -2990.629    93203094.94105
        30.000       -2330.352    22761150.641  
  23852780.141   125347184.71107        42.000        2279.438    97673155.83604
        24.000        1776.156    23852783.359  
  21094568.148   110852629.69108        49.000        1980.723    86378774.32806
        41.000        1543.414    21094572.164  
  21957725.508   115388636.73808        48.000         424.305    89913229.29708
        48.000         330.629    21957727.313  
  21068097.922   110713610.93407        44.000         -76.059    86270342.60507
        46.000         -59.277    21068099.453  
  22396777.422   117695867.04707        43.000        -175.922    91711072.68405
        33.000        -137.086    22396779.469  
  22598046.406   118753545.07007        47.000        1479.914    92535248.77708
        50.000        1153.164    22598048.508  
  23422267.867   123084910.53907        44.000        3289.344    95910291.41005
        31.000        2563.105    23422273.016  
  19624986.164   104612264.12508        51.000        1951.977    81365068.85908
        51.000        1518.172    19624990.008  
  23348777.414   124768803.17606        38.000        4077.754    97042398.80905
        34.000        3171.805    23348778.945  
  20278385.773   108285363.69506        41.000       -2354.031    84221953.79706
        41.000       -1830.688    20278386.930  
  20034086.695   107131254.41008        51.000       -1983.637    83324264.23408
        49.000       -1542.855    20034085.852  
  23333348.883   124817674.80906        38.000       -3594.582                  
                                                
  20687304.242   110701893.87108        50.000        1296.234    86101506.06308
        48.000        1008.188    20687304.500  
 23  7 24 21 10 28.0000000  0 15G24G11G28G25G29G12G20G05G18R14R15R13            
                                R24R23R17                                       
  22639557.016   118971650.32807        43.000       -3190.855    92705216.73007
        45.000       -2486.359    22639562.953  
  22761717.586   119613550.22707        42.000       -2990.527    93205430.19505
        30.000       -2330.293    22761720.914  
  23852347.766   125344911.41807        42.000        2279.703    97671384.44104
        24.000        1776.402    23852350.695  
  21094192.609   110850655.51208        49.000        1980.375    86377236.01206
        41.000        1543.145    21094196.500  
  21957645.992   115388218.88308        48.000         424.117    89912903.69908
        48.000         330.492    21957647.719  
  21068114.078   110713693.58607        44.000         -76.422    86270407.00807
        46.000         -59.555    21068115.109  
  22396812.383   117696049.82407        43.000        -176.801    91711215.10905
        33.000        -137.793    22396814.227  
  22597765.750   118752071.80107        47.000        1479.770    92534100.78508
        50.000        1153.078    22597768.141  
  23421643.180   123081628.00007        44.000        3288.656    95907733.59805
        31.000        2562.582    23421648.383  
  19624621.203   104610318.93808        51.000        1951.340    81363555.93008
        51.000        1517.781    19624625.172  
  23348015.141   124764732.25406        38.000        4077.398    97039232.56305
        34.000        3171.258    23348017.367  
  20278827.953   108287724.28506        41.000       -2354.660    84223789.82806
        41.000       -1831.379    20278828.953  
  20034458.852   107133244.80908        51.000       -1984.195    83325812.32008
        49.000       -1543.254    20034458.031  
  23334021.539   124821275.66806        38.000       -3594.188                  
                                                
  20687062.969   110700604.52008        49.000        1295.422    86100503.23408
        48.000        1007.605    20687063.602  
 23  7 24 21 10 29.0000000  0 15G24G11G28G25G29G12G20G05G18R14R15R13            
                                R24R23R17                                       
  22640165.008   118974846.37507        43.000       -3191.148    92707707.14107
        44.000       -2486.582    22640171.258  
  22762287.250   119616545.85907        42.000       -2990.539    93207764.45305
        30.000       -2330.281    22762290.930  
  23851914.945   125342637.08607        42.000        2279.230    97669612.23403
        23.000        1776.023    23851917.797  
  21093816.602   110848680.03108        49.000        1980.281    86375696.67606
        41.000        1543.078    21093820.523  
  21957566.086   115387799.63708        48.000         424.254    89912577.01608
        48.000         330.598    21957567.898  
  21068129.500   110713775.09407        45.000         -76.656    86270470.51607
        46.000         -59.730    21068130.578  
  22396846.703   117696231.64507        44.000        -177.043    91711356.78905
        33.000        -137.969    22396848.781  
  22597485.063   118750597.41407        47.000        1478.973    92532951.91408
        50.000        1152.477    22597487.617  
  23421018.336   123078344.20307        44.000        3288.660    95905174.80105
        31.000        2562.559    23421023.453  
  19624256.195   104608372.85208        51.000        1950.891    81362042.31308
        51.000        1517.379    19624260.125  
  23347253.180   124760659.82006        39.000        4077.207    97036065.10505
        34.000        3172.152    23347254.672  
  20279269.789   108290083.99206        41.000       -2355.227    84225625.14506
        41.000       -1831.500    20279270.844  
  20034830.891   107135234.06308        51.000       -1984.301    83327359.52008
        49.000       -1543.395    20034830.023  
  23334694.516   124824874.85206        38.000       -3593.898                  
                                                
  20686821.875   110699314.23808        49.000        1295.066    86099499.68408
        48.000        1007.328    20686822.391  
 23  7 24 21 10 30.0000000  0 15G24G11G28G25G29G12G20G05G18R14R15R13            
                                R24R23R17                                       
  22640770.883   118978030.76207        42.000       -3191.371    92710188.48007
        44.000       -2486.801    22640777.344  
  22762854.914   119619529.93407        42.000       -2991.117    93210089.70305
        30.000       -2330.730    22762858.734  
  23851480.461   125340351.35907        42.000        2278.496    97667831.14503
        23.000        1775.426    23851482.914  
  21093438.617   110846692.93008        49.000        1980.309    86374148.28106
        41.000        1543.086    21093442.352  
  21957484.102   115387368.69508        48.000         423.961    89912241.21508
        48.000         330.340    21957485.836  
  21068143.219   110713845.13307        45.000         -77.098    86270525.09407
        46.000         -60.094    21068143.859  
  22396879.219   117696402.21107        44.000        -177.691    91711489.69505
        33.000        -138.441    22396881.234  
  22597202.461   118749111.55907        47.000        1478.777    92531794.10508
        50.000        1152.305    22597204.891  
  23420391.445   123075048.85507        44.000        3288.453    95902607.00405
        31.000        2562.414    23420396.336  
  19623889.016   104606415.43408        51.000        1950.039    81360519.88308
        51.000        1516.762    19623892.898  
  23346488.773   124756575.36706        38.000        4077.391    97032888.32005
        34.000        3171.461    23346490.289  
  20279709.727   108292432.33606        40.000       -2355.660    84227451.63306
        41.000       -1831.949    20279710.602  
  20035200.641   107137211.67208        51.000       -1984.781    83328897.65208
        49.000       -1543.602    20035199.813  
  23335364.781   124828461.92606        37.000       -3594.531                  
                                                
  20686578.539   110698012.47308        49.000        1294.508    86098487.20308
        48.000        1006.953    20686579.094  
 23  7 24 21 10 31.0000000  0 15G24G11G28G25G29G12G20G05G18R14R15R13            
                                R24R23R17                                       
  22641378.227   118981222.70307        42.000       -3191.309    92712675.70707
        44.000       -2486.730    22641384.875  
  22763424.195   119622521.66807        42.000       -2991.008    93212420.91405
        30.000       -2330.637    22763428.031  
  23851046.828   125338073.48807        42.000        2278.535    97666056.18003
        23.000        1775.523    23851049.438  
  21093061.813   110844713.44908        49.000        1980.207    86372605.82406
        41.000        1543.027    21093065.672  
  21957403.500   115386945.27008        48.000         424.125    89911911.27708
        48.000         330.500    21957405.180  
  21068157.531   110713922.93407        45.000         -77.316    86270585.72707
        46.000         -60.250    21068158.586  
  22396912.836   117696580.75007        44.000        -178.148    91711628.82005
        33.000        -138.797    22396915.211  
  22596920.945   118747633.46507        47.000        1478.594    92530642.34808
        50.000        1152.145    22596923.625  
  23419765.922   123071761.18807        44.000        3288.059    95900045.19105
        31.000        2562.113    23419770.703  
  19623523.336   104604466.17608        51.000        1949.629    81359003.78908
        51.000        1516.477    19623527.273  
  23345725.867   124752498.50406        38.000        4077.223    97029717.43405
        34.000        3170.926    23345727.008  
  20280150.797   108294788.89506        41.000       -2356.320    84229284.50806
        41.000       -1832.617    20280152.070  
  20035571.711   107139197.17208        51.000       -1985.094    83330441.93008
        49.000       -1543.742    20035571.016  
  23336036.016   124832056.36306        37.000       -3594.305                  
                                                
  20686336.547   110696718.79308        49.000        1294.215    86097481.01608
        48.000        1006.484    20686337.203  
 23  7 24 21 10 32.0000000  0 15G24G11G28G25G29G12G20G05G18R14R15R13            
                                R24R23R17                                       
  22641986.813   118984422.72307        42.000       -3191.941    92715169.21907
        44.000       -2487.227    22641993.945  
  22763995.008   119625521.57807        42.000       -2991.535    93214758.50405
        30.000       -2331.035    22763998.875  
  23850614.969   125335803.93807        42.000        2278.371    97664287.70303
        23.000        1775.313    23850617.492  
  21092686.680   110842742.07808        49.000        1979.930    86371069.69506
        40.000        1542.809    21092690.531  
  21957324.547   115386529.88308        48.000         423.789    89911587.60208
        48.000         330.230    21957326.078  
  21068173.992   110714008.98007        45.000         -77.637    86270652.77307
        46.000         -60.504    21068174.906  
  22396948.539   117696767.75807        44.000        -178.711    91711774.54705
        33.000        -139.254    22396950.797  
  22596641.313   118746163.64107        47.000        1478.301    92529497.02708
        50.000        1151.895    22596643.938  
  23419141.789   123068481.68807        44.000        3287.945    95897489.74605
        31.000        2562.043    23419146.586  
  19623159.438   104602525.57008        51.000        1948.930    81357494.43008
        51.000        1515.906    19623163.266  
  23344964.516   124748429.73806        38.000        4076.902    97026552.82805
        34.000        3171.582    23344965.977  
  20280593.750   108297154.16006        41.000       -2356.844    84231124.17206
        41.000       -1833.383    20280595.180  
  20035944.633   107141191.07408        51.000       -1985.406    83331992.75808
        49.000       -1544.258    20035943.898  
  23336709.703   124835658.68006        37.000       -3593.777                  
                                                
  20686096.414   110695433.76208        49.000        1293.418    86096481.54308
        48.000        1005.852    20686097.156  
 23  7 24 21 10 33.0000000  0 15G24G11G28G25G29G12G20G05G18R14R15R13            
                                R24R23R17                                       
  22642593.492   118987612.03507        42.000       -3191.703    92717654.39507
        44.000       -2487.012    22642600.984  
  22764563.930   119628510.90207        42.000       -2991.867    93217087.84005
        30.000       -2331.328    22764567.695  
  23850180.875   125333524.03107        43.000        2277.125    97662511.14804
        24.000        1774.367    23850183.719  
  21092309.539   110840760.08208        49.000        1979.418    86369525.28106
        40.000        1542.398    21092313.320  
  21957243.523   115386103.78108        48.000         423.449    89911255.57808
        48.000         329.965    21957244.969  
  21068188.625   110714084.58207        45.000         -78.273    86270711.68007
        46.000         -60.984    21068189.273  
  22396982.344   117696944.50007        44.000        -179.258    91711912.26605
        33.000        -139.676    22396984.453  
  22596359.414   118744683.32407        47.000        1477.922    92528343.53508
        50.000        1151.629    22596362.266  
  23418515.773   123065191.62107        44.000        3287.566    95894926.06305
        31.000        2561.719    23418520.477  
  19622793.500   104600574.58208        51.000        1948.160    81355977.00008
        51.000        1515.211    19622797.367  
  23344200.750   124744349.99206        38.000        4076.707    97023379.69905
        34.000        3171.027    23344201.625  
  20281034.953   108299509.10206        41.000       -2358.090    84232955.77707
        42.000       -1833.887    20281036.172  
  20036315.664   107143174.35508        51.000       -1986.109    83333535.30108
        49.000       -1544.844    20036314.953  
  23337380.648   124839249.84406        36.000       -3593.727                  
                                                
  20685854.469   110694138.25808        49.000        1292.703    86095473.94108
        48.000        1005.293    20685855.086  
 23  7 24 21 10 34.0000000  0 15G24G11G28G25G29G12G20G05G18R14R15R13            
                                R24R23R17                                       
  22643198.563   118990792.28107        42.000       -3192.035    92720132.50007
        44.000       -2487.305    22643206.273  
  22765130.688   119631491.25006        41.000       -2992.113    93219410.19505
        30.000       -2331.563    22765134.805  
  23849745.570   125331235.30507        43.000        2276.969    97660727.73004
        24.000        1774.250    23849748.117  
  21091930.508   110838769.05108        49.000        1979.066    86367973.82806
        40.000        1542.133    21091934.445  
  21957160.750   115385668.56608        48.000         423.355    89910916.44908
        48.000         329.887    21957162.109  
  21068201.508   110714151.28507        45.000         -78.672    86270763.66007
        46.000         -61.297    21068201.922  
  22397014.313   117697112.57407        44.000        -180.066    91712043.24205
        33.000        -140.320    22397016.398  
  22596075.953   118743194.17207        46.000        1477.219    92527183.16008
        49.000        1151.082    22596078.875  
  23417887.875   123061892.59007        44.000        3287.102    95892355.39505
        31.000        2561.375    23417892.727  
  19622425.867   104598614.82408        51.000        1947.570    81354452.74608
        51.000        1514.664    19622429.719  
  23343435.391   124740260.88306        38.000        4077.184    97020199.28505
        34.000        3171.652    23343436.781  
  20281474.391   108301855.31606        41.000       -2358.875    84234780.62107
        42.000       -1834.480    20281475.563  
  20036684.859   107145148.62508        51.000       -1986.426    83335070.84808
        49.000       -1545.055    20036684.125  
  23338049.633   124842831.46906        36.000       -3593.293                  
                                                
  20685610.539   110692833.93408        49.000        1292.066    86094459.46908
        48.000        1004.715    20685611.313  
 23  7 24 21 10 35.0000000  0 15G24G11G28G25G29G12G20G05G18R14R15R13            
                                R24R23R17                                       
  22643805.961   118993983.01206        41.000       -3192.844    92722618.78107
        44.000       -2487.969    22643813.547  
  22765700.328   119634482.16407        42.000       -2992.320    93221740.77705
        30.000       -2331.707    22765703.977  
  23849312.219   125328957.35507        43.000        2276.313    97658952.71104
        24.000        1773.762    23849314.461  
  21091553.648   110836788.54308        49.000        1979.082    86366430.57806
        40.000        1542.145    21091557.578  
  21957079.641   115385243.78508        48.000         423.195    89910585.45308
        48.000         329.754    21957081.203  
  21068216.211   110714228.66407        45.000         -79.023    86270823.95707
        46.000         -61.582    21068216.578  
  22397048.461   117697291.52707        44.000        -180.445    91712182.69105
        33.000        -140.625    22397050.414  
  22595794.594   118741715.68807        46.000        1477.055    92526031.09808
        49.000        1150.953    22595797.492  
  23417261.969   123058604.14507        44.000        3286.895    95889792.98005
        31.000        2561.203    23417267.000  
  19622060.289   104596666.16808        51.000        1946.867    81352937.12108
        51.000        1514.238    19622064.047  
  23342672.023   124736182.30506        38.000        4076.934    97017027.07005
        34.000        3170.910    23342673.648  
  20281915.789   108304212.68406        41.000       -2358.988    84236614.12507
        42.000       -1834.836    20281916.969  
  20037055.930   107147133.75008        51.000       -1986.762    83336614.82808
        49.000       -1545.223    20037055.273  
  23338720.992   124846423.44506        36.000       -3592.969                  
                                                
  20685368.367   110691540.68008        49.000        1291.625    86093453.59808
        48.000        1004.508    20685369.508  
 23  7 24 21 10 36.0000000  0 15G24G11G28G25G29G12G20G05G18R14R15R13            
                                R24R23R17                                       
  22644416.094   118997189.21906        41.000       -3192.430    92725117.11307
        44.000       -2487.609    22644423.758  
  22766272.305   119637488.68406        41.000       -2992.719    93224083.52305
        30.000       -2331.957    22766276.094  
  23848881.758   125326695.18407        43.000        2275.527    97657189.98404
        24.000        1773.137    23848883.922  
  21091179.758   110834823.60208        49.000        1978.563    86364899.46106
        41.000        1541.734    21091183.664  
  21957001.750   115384834.46908        48.000         423.316    89910266.51208
        48.000         329.840    21957003.242  
  21068233.672   110714321.75007        45.000         -79.199    86270896.49207
        46.000         -61.734    21068234.242  
  22397085.414   117697486.38707        44.000        -180.945    91712334.53105
        33.000        -141.000    22397087.391  
  22595516.336   118740252.89807        46.000        1476.414    92524891.27308
        49.000        1150.469    22595519.109  
  23416639.258   123055331.30907        44.000        3286.406    95887242.72305
        31.000        2560.828    23416644.180  
  19621697.773   104594733.74208        51.000        1946.191    81351434.12508
        51.000        1513.746    19621701.609  
  23341911.766   124732119.34406        39.000        4077.148    97013867.00005
        34.000        3170.949    23341913.648  
  20282360.297   108306586.29706        41.000       -2360.078    84238460.26607
        42.000       -1835.262    20282361.727  
  20037430.203   107149134.81308        51.000       -1987.129    83338171.21108
        49.000       -1545.438    20037429.516  
  23339395.094   124850030.93405        35.000       -3593.082                  
                                                
  20685129.742   110690263.62108        49.000        1290.930    86092460.33208
        48.000        1004.102    20685130.883  
 23  7 24 21 10 37.0000000  0 15G24G11G28G25G29G12G20G05G18R14R15R13            
                                R24R23R17                                       
  22645025.102   119000388.73006        41.000       -3192.668    92727610.23007
        44.000       -2487.793    22645032.742  
  22766843.055   119640488.61307        42.000       -2993.418    93226421.13305
        30.000       -2332.508    22766846.922  
  23848449.609   125324426.57007        43.000        2275.605    97655422.23804
        24.000        1773.211    23848452.242  
  21090804.602   110832852.00008        49.000        1978.484    86363363.14106
        41.000        1541.680    21090808.438  
  21956922.703   115384418.42208        48.000         422.871    89909942.32008
        48.000         329.512    21956924.055  
  21068250.313   110714408.34007        45.000         -79.992    86270963.96507
        46.000         -62.336    21068250.680  
  22397121.383   117697674.96907        44.000        -181.824    91712481.47705
        33.000        -141.676    22397123.219  
  22595236.695   118738783.60507        46.000        1476.078    92523746.37108
        49.000        1150.199    22595239.531  
  23416015.313   123052051.89107        44.000        3285.934    95884687.34005
        31.000        2560.465    23416020.133  
  19621334.164   104592795.02308        51.000        1945.434    81349926.23408
        51.000        1513.199    19621337.898  
  23341150.109   124728049.41406        38.000        4077.016    97010701.50005
        35.000        3170.949    23341152.063  
  20282803.563   108308953.60906        41.000       -2360.699    84240301.50807
        42.000       -1836.047    20282805.008  
  20037803.391   107151129.26208        51.000       -1987.563    83339722.45308
        49.000       -1545.875    20037802.516  
  23340067.992   124853631.32805        35.000       -3593.180                  
                                                
  20684890.203   110688980.15208        49.000        1290.324    86091462.08208
        48.000        1003.660    20684891.148  
 23  7 24 21 10 38.0000000  0 15G24G11G28G25G29G12G20G05G18R14R15R13            
                                R24R23R17                                       
  22645630.891   119003572.82006        41.000       -3192.535    92730091.33207
        44.000       -2487.672    22645638.766  
  22767411.406   119643473.18807        42.000       -2993.336    93228746.77005
        30.000       -2332.422    22767414.813  
  23848015.328   125322142.84407        43.000        2274.703    97653642.70704
        24.000        1772.496    23848017.625  
  21090426.508   110830865.01608        49.000        1978.438    86361814.84006
        41.000        1541.648    21090430.289  
  21956840.797   115383986.90208        48.000         422.789    89909606.07008
        48.000         329.453    21956841.914  
  21068264.141   110714479.69107        45.000         -80.371    86271019.56307
        46.000         -62.633    21068264.227  
  22397154.609   117697848.51607        44.000        -182.371    91712616.70705
        33.000        -142.109    22397156.219  
  22594954.180   118737299.11707        46.000        1475.527    92522589.62108
        49.000        1149.789    22594957.055  
  23415388.625   123048757.13307        44.000        3285.855    95882120.00005
        31.000        2560.391    23415393.148  
  19620967.633   104590841.14508        51.000        1944.785    81348406.55108
        51.000        1512.648    19620971.320  
  23340385.711   124723963.66806        38.000        4077.285    97007523.68405
        34.000        3171.758    23340387.578  
  20283244.086   108311305.72306        41.000       -2361.113    84242130.93006
        41.000       -1836.430    20283245.281  
  20038173.539   107153108.26208        51.000       -1987.902    83341261.67608
        49.000       -1546.309    20038172.609  
  23340738.094   124857215.70705        34.000       -3593.109                  
                                                
  20684647.570   110687681.39108        49.000        1289.641    86090451.93008
        48.000        1003.176    20684648.383  
 23  7 24 21 10 39.0000000  0 15G24G11G28G25G29G12G20G05G18R14R15R13            
                                R24R23R17                                       
  22646236.602   119006758.10206        40.000       -3192.809    92732573.37107
        44.000       -2487.895    22646244.984  
  22767980.016   119646459.05907        42.000       -2993.375    93231073.41805
        30.000       -2332.559    22767982.922  
  23847580.641   125319860.59807        43.000        2274.430    97651864.33604
        24.000        1772.281    23847583.305  
  21090048.469   110828879.29708        49.000        1977.836    86360267.53106
        41.000        1541.168    21090052.430  
  21956758.773   115383556.55508        48.000         422.691    89909270.73408
        48.000         329.391    21956759.977  
  21068277.617   110714552.45307        45.000         -80.602    86271076.26207
        46.000         -62.809    21068278.008  
  22397187.688   117698023.68807        44.000        -183.059    91712753.19905
        33.000        -142.645    22397189.492  
  22594671.867   118735816.00407        46.000        1475.328    92521433.96108
        49.000        1149.602    22594674.789  
  23414761.484   123045463.68407        44.000        3286.086    95879553.68005
        31.000        2560.586    23414766.453  
  19620601.430   104588888.95308        51.000        1944.238    81346888.18008
        51.000        1512.207    19620605.008  
  23339621.352   124719879.04306        38.000        4076.813    97004346.72705
        34.000        3171.281    23339623.023  
  20283684.859   108313659.57806        41.000       -2361.801    84243961.69906
        41.000       -1836.906    20283686.070  
  20038543.797   107155088.71508        51.000       -1988.363    83342802.02308
        49.000       -1546.402    20038542.953  
  23341408.016   124860801.04305        34.000       -3593.059                  
                                                
  20684404.945   110686384.26608        49.000        1289.121    86089443.06308
        48.000        1002.762    20684405.938  
 23  7 24 21 10 40.0000000  0 15G24G11G28G25G29G12G20G05G18R14R15R13            
                                R24R23R17                                       
  22646845.188   119009957.45706        40.000       -3193.398    92735066.35907
        44.000       -2488.340    22646853.906  
  22768550.641   119649459.12907        42.000       -2994.066    93233411.14105
        30.000       -2333.039    22768553.805  
  23847149.008   125317592.68407        43.000        2274.152    97650097.13304
        24.000        1772.059    23847151.703  
  21089673.539   110826907.68808        49.000        1977.703    86358731.21506
        41.000        1541.059    21089677.258  
  21956679.555   115383140.23808        48.000         422.648    89908946.34008
        48.000         329.336    21956680.711  
  21068294.250   110714639.48007        45.000         -80.914    86271144.07807
        46.000         -63.047    21068294.484  
  22397224.031   117698213.33207        44.000        -183.551    91712900.97705
        33.000        -143.031    22397225.563  
  22594392.203   118734347.18007        46.000        1474.867    92520289.43008
        49.000        1149.227    22594395.242  
  23414137.680   123042184.44507        44.000        3285.484    95876998.43805
        31.000        2560.133    23414142.453  
  19620237.930   104586951.49208        51.000        1943.832    81345381.27008
        51.000        1511.707    19620241.586  
  23338859.477   124715808.56606        38.000        4077.199    97001180.82005
        34.000        3171.094    23338861.281  
  20284128.438   108316028.20706        41.000       -2362.527    84245803.97706
        41.000       -1837.156    20284129.656  
  20038916.852   107157083.64108        51.000       -1988.379    83344353.64108
        49.000       -1546.781    20038915.930  
  23342080.453   124864400.41805        34.000       -3592.855                  
                                                
  20684165.125   110685101.86708        49.000        1288.711    86088445.64808
        48.000        1002.191    20684166.258  
 23  7 24 21 10 41.0000000  0 15G24G11G28G25G29G12G20G05G18R14R15R13            
                                R24R23R17                                       
  22647453.391   119013155.36706        40.000       -3192.816    92737558.22707
        43.000       -2487.844    22647462.547  
  22769120.969   119652457.85907        42.000       -2994.004    93235747.80905
        30.000       -2332.992    22769124.438  
  23846717.180   125315323.67607        43.000        2273.570    97648329.07803
        23.000        1771.605    23846719.797  
  21089298.055   110824934.71508        49.000        1977.727    86357193.83206
        41.000        1541.090    21089301.797  
  21956600.000   115382722.48008        48.000         422.344    89908620.81308
        48.000         329.117    21956601.188  
  21068310.727   110714725.30507        45.000         -81.152    86271210.95307
        46.000         -63.234    21068310.797  
  22397259.992   117698401.98407        44.000        -184.324    91713047.98005
        33.000        -143.625    22397261.414  
  22594112.453   118732877.14507        46.000        1474.426    92519143.94908
        49.000        1148.914    22594115.523  
  23413513.359   123038903.90207        44.000        3284.836    95874442.16405
        31.000        2559.613    23413518.148  
  19619874.391   104585013.07008        51.000        1942.969    81343873.60508
        51.000        1511.227    19619877.891  
  23338097.313   124711736.56306        38.000        4076.523    96998013.71905
        34.000        3171.379    23338099.445  
  20284572.180   108318395.94106        41.000       -2363.098    84247645.55107
        42.000       -1838.195    20284573.070  
  20039289.766   107159077.34408        51.000       -1989.082    83345904.29708
        49.000       -1547.191    20039288.758  
  23342753.289   124867998.04305        34.000       -3592.512                  
                                                
  20683925.719   110683818.44108        49.000        1287.973    86087447.41808
        48.000        1001.891    20683926.555  
 23  7 24 21 10 42.0000000  0 15G24G11G28G25G29G12G20G05G18R14R15R13            
                                R24R23R17                                       
  22648059.758   119016341.86706        39.000       -3193.309    92740041.20707
        43.000       -2488.289    22648069.023  
  22769689.625   119655445.24607        42.000       -2994.336    93238075.63705
        30.000       -2333.227    22769692.836  
  23846283.633   125313043.46507        43.000        2273.445    97646552.28503
        23.000        1771.547    23846285.867  
  21088920.422   110822950.34808        49.000        1977.516    86355647.57406
        41.000        1540.926    21088924.172  
  21956518.305   115382293.23408        48.000         422.336    89908286.33208
        48.000         329.090    21956519.477  
  21068324.938   110714799.86707        45.000         -81.367    86271269.05507
        46.000         -63.379    21068324.945  
  22397293.594   117698579.59007        44.000        -184.648    91713186.37105
        33.000        -143.887    22397295.172  
  22593830.688   118731395.86307        46.000        1474.273    92517989.70308
        49.000        1148.785    22593833.648  
  23412886.852   123035611.99207        44.000        3285.086    95871877.04305
        31.000        2559.801    23412891.727  
  19619508.633   104583063.48408        51.000        1942.402    81342357.26208
        51.000        1510.758    19619512.211  
  23337333.172   124707652.78106        38.000        4076.387    96994837.45705
        34.000        3170.707    23337335.078  
  20285013.336   108320752.52706        41.000       -2363.992    84249478.43006
        41.000       -1838.387    20285014.422  
  20039660.453   107161059.62908        51.000       -1989.398    83347446.07008
        49.000       -1547.313    20039659.414  
  23343423.430   124871583.71105        34.000       -3592.516                  
                                                
  20683683.953   110682523.76608        49.000        1287.535    86086440.45308
        48.000        1001.340    20683684.664  
 23  7 24 21 10 43.0000000  0 15G24G11G28G25G29G12G20G05G18R14R15R13            
                                R24R23R17                                       
  22648667.281   119019536.00806        39.000       -3194.070    92742530.14507
        43.000       -2488.891    22648676.922  
  22770259.734   119658440.38307        42.000       -2994.965    93240409.51205
        30.000       -2333.770    22770262.742  
  23845851.461   125310771.20307        43.000        2272.484    97644781.70303
        23.000        1770.711    23845853.500  
  21088544.266   110820973.67608        49.000        1976.996    86354107.30906
        41.000        1540.512    21088548.039  
  21956437.961   115381871.60208        48.000         421.941    89907957.78908
        48.000         328.777    21956439.180  
  21068340.500   110714882.29307        45.000         -82.137    86271333.28507
        46.000         -64.008    21068340.563  
  22397329.203   117698765.24207        45.000        -185.453    91713331.04305
        33.000        -144.512    22397330.492  
  22593550.227   118729922.41807        46.000        1473.762    92516841.56608
        49.000        1148.406    22593553.234  
  23412261.898   123032327.86707        44.000        3284.102    95869317.99205
        31.000        2559.035    23412266.828  
  19619144.359   104581122.10508        51.000        1941.500    81340847.30108
        51.000        1510.121    19619147.891  
  23336570.422   124703576.61306        38.000        4076.578    96991667.09805
        34.000        3171.023    23336572.258  
  20285456.211   108323117.34406        41.000       -2364.742    84251317.75007
        42.000       -1839.523    20285457.500  
  20040032.500   107163049.91808        51.000       -1990.043    83348994.07408
        49.000       -1547.734    20040031.617  
  23344094.766   124875176.88305        34.000       -3591.938                  
                                                
  20683443.539   110681237.31308        50.000        1286.660    86085439.88308
        48.000        1000.707    20683444.313  
 23  7 24 21 10 44.0000000  0 15G24G11G28G25G29G12G20G05G18R14R15R13            
                                R24R23R17                                       
  22649276.406   119022738.50006        38.000       -3193.719    92745025.59007
        43.000       -2488.613    22649286.453  
  22770831.305   119661443.99607        42.000       -2995.332    93242749.98805
        30.000       -2334.027    22770834.281  
  23845420.539   125308507.60207        43.000        2272.371    97643017.85503
        23.000        1770.668    23845422.781  
  21088169.734   110819005.43808        49.000        1977.008    86352573.61706
        40.000        1540.527    21088173.484  
  21956359.234   115381458.30508        48.000         422.020    89907635.74208
        48.000         328.855    21956360.492  
  21068357.719   110714973.28107        45.000         -82.391    86271404.18407
        46.000         -64.199    21068357.852  
  22397365.984   117698959.68007        45.000        -185.934    91713482.55505
        33.000        -144.871    22397367.438  
  22593271.586   118728457.55907        46.000        1473.527    92515700.12108
        49.000        1148.191    22593274.469  
  23411638.492   123029052.21107        44.000        3284.289    95866765.53505
        31.000        2559.184    23411643.492  
  19618781.875   104579189.70708        51.000        1941.047    81339344.32808
        51.000        1509.688    19618785.398  
  23335809.352   124699508.86306        38.000        4076.406    96988503.30105
        35.000        3171.105    23335810.922  
  20285900.789   108325491.18806        41.000       -2365.332    84253164.06607
        42.000       -1839.805    20285902.094  
  20040406.414   107165048.91408        51.000       -1990.148    83350548.84808
        49.000       -1548.023    20040405.469  
  23344768.391   124878778.29705        34.000       -3591.859                  
                                                
  20683205.000   110679959.80108        50.000        1286.332    86084446.26208
        48.000        1000.535    20683205.672  
 23  7 24 21 10 45.0000000  0 15G24G11G28G25G29G12G20G05G18R14R15R13            
                                R24R23R17                                       
  22649883.797   119025930.78906        38.000       -3194.152    92747513.07407
        43.000       -2488.906    22649894.039  
  22771400.547   119664437.43807        42.000       -2994.961    93245082.54305
        30.000       -2333.734    22771403.883  
  23844987.789   125306234.03907        43.000        2271.656    97641246.25403
        23.000        1770.082    23844990.164  
  21087793.352   110817027.00008        49.000        1976.656    86351031.97706
        40.000        1540.250    21087796.977  
  21956278.602   115381034.73008        48.000         421.867    89907305.68808
        48.000         328.727    21956279.867  
  21068373.141   110715054.23407        45.000         -82.871    86271467.26207
        46.000         -64.605    21068373.203  
  22397401.297   117699144.27707        45.000        -186.398    91713626.39805
        33.000        -145.238    22397402.547  
  22592990.773   118726982.67607        46.000        1473.152    92514550.85908
        49.000        1147.922    22592993.797  
  23411013.328   123025766.41407        44.000        3283.992    95864205.17605
        31.000        2558.945    23411018.266  
  19618417.586   104577247.44108        51.000        1940.387    81337833.67208
        51.000        1509.223    19618420.922  
  23335045.797   124695430.57806        39.000        4076.402    96985331.31605
        34.000        3170.203    23335047.102  
  20286343.703   108327855.12906        41.000       -2366.234    84255002.69507
        42.000       -1840.414    20286344.555  
  20040778.383   107167037.67208        51.000       -1990.656    83352095.65608
        49.000       -1548.230    20040777.398  
  23345439.672   124882368.98005        34.000       -3591.863                  
                                                
  20682964.789   110678672.23808        50.000        1285.750    86083444.83208
        48.000         999.953    20682965.000  
 23  7 24 21 10 46.0000000  0 15G24G11G28G25G29G12G20G05G18R14R15R13            
                                R24R23R17                                       
  22650489.469   119029113.86306        38.000       -3193.961    92749993.38707
        43.000       -2488.789    22650499.867  
  22771968.758   119667421.83207        42.000       -2995.465    93247408.05905
        30.000       -2334.160    22771971.773  
  23844553.195   125303951.61707        43.000        2271.105    97639467.73803
        23.000        1769.668    23844555.758  
  21087415.242   110815039.48408        49.000        1976.336    86349483.25806
        40.000        1540.000    21087418.781  
  21956196.383   115380601.96908        48.000         421.848    89906968.47308
        48.000         328.719    21956197.500  
  21068386.961   110715126.23007        45.000         -83.105    86271523.36307
        46.000         -64.762    21068386.852  
  22397434.930   117699320.14807        45.000        -187.035    91713763.44505
        33.000        -145.750    22397436.000  
  22592708.391   118725498.85207        46.000        1472.754    92513394.63708
        49.000        1147.605    22592711.391  
  23410386.203   123022471.59407        44.000        3283.762    95861637.78905
        31.000        2558.750    23410391.313  
  19618051.523   104575296.40608        51.000        1939.551    81336316.20708
        51.000        1508.473    19618054.914  
  23334281.016   124691342.85506        39.000        4076.813    96982152.00405
        34.000        3170.063    23334282.555  
  20286784.461   108330210.27706        41.000       -2366.785    84256834.47707
        42.000       -1840.660    20286785.672  
  20041148.547   107169017.34008        51.000       -1990.957    83353635.40608
        49.000       -1548.695    20041147.539  
  23346108.609   124885950.02305        34.000       -3591.707                  
                                                
  20682722.414   110677375.76208        50.000        1285.059    86082436.46908
        48.000         999.367    20682722.875  
 23  7 24 21 10 47.0000000  0 15G24G11G28G25G29G12G20G05G18R14R15R13            
                                R24R23R17                                       
  22651097.617   119032307.41806        38.000       -3194.164    92752481.86707
        43.000       -2488.949    22651107.664  
  22772538.914   119670416.76607        42.000       -2995.473    93249741.77705
        30.000       -2334.160    22772541.695  
  23844120.805   125301679.89807        43.000        2271.191    97637697.57403
        23.000        1769.770    23844123.438  
  21087038.883   110813062.42608        49.000        1976.523    86347942.70306
        40.000        1540.145    21087042.578  
  21956115.805   115380179.59808        48.000         421.973    89906639.35208
        48.000         328.805    21956117.094  
  21068402.875   110715208.87107        45.000         -83.215    86271587.75807
        46.000         -64.852    21068402.492  
  22397470.148   117699506.85207        45.000        -187.305    91713908.93405
        33.000        -145.965    22397471.461  
  22592427.922   118724025.66807        46.000        1472.504    92512246.70708
        49.000        1147.402    22592431.008  
  23409761.328   123019187.30907        44.000        3283.859    95859078.62105
        31.000        2558.844    23409766.430  
  19617687.555   104573356.41808        51.000        1939.285    81334807.32808
        51.000        1508.199    19617690.969  
  23333518.523   124687265.63706        39.000        4076.625    96978980.83605
        34.000        3169.977    23333519.719  
  20287227.313   108332576.53106        41.000       -2367.145    84258674.87906
        41.000       -1840.926    20287228.844  
  20041520.563   107171007.85508        51.000       -1991.195    83355183.57008
        49.000       -1548.527    20041519.688  
  23346779.273   124889541.41805        34.000       -3592.613                  
                                                
  20682482.117   110676090.34408        50.000        1284.535    86081436.69108
        48.000         999.180    20682482.734  
 23  7 24 21 10 48.0000000  0 15G24G11G28G25G29G12G20G05G18R14R15R13            
                                R24R23R17                                       
  22651707.422   119035516.28106        37.000       -3194.449    92754982.27307
        43.000       -2489.176    22651718.383  
  22773111.891   119673427.13307        42.000       -2995.750    93252087.52305
        30.000       -2334.324    22773114.484  
  23843691.766   125299423.79707        43.000        2270.457    97635939.57403
        23.000        1769.211    23843694.117  
  21086665.758   110811100.75408        49.000        1976.621    86346414.12906
        40.000        1540.230    21086669.289  
  21956038.258   115379772.52308        48.000         421.695    89906322.16008
        48.000         328.594    21956039.602  
  21068421.578   110715307.03107        45.000         -83.504    86271664.25407
        46.000         -65.090    21068421.117  
  22397508.539   117699709.28507        45.000        -187.891    91714066.68005
        33.000        -146.398    22397509.961  
  22592150.758   118722567.99207        46.000        1472.387    92511110.85908
        49.000        1147.313    22592153.594  
  23409139.563   123015918.47307        44.000        3283.535    95856531.48005
        31.000        2558.594    23409144.453  
  19617326.656   104571432.43408        51.000        1938.738    81333310.89808
        51.000        1507.961    19617330.047  
  23332758.500   124683203.85906        39.000        4076.590    96975821.62905
        34.000        3171.352    23332759.336  
  20287673.531   108334958.82406        41.000       -2367.473    84260527.78507
        42.000       -1841.242    20287675.039  
  20041895.766   107173014.16408        51.000       -1991.348    83356744.04308
        49.000       -1548.859    20041894.945  
  23347453.617   124893148.09805        34.000       -3592.063                  
                                                
  20682245.117   110674820.96508        50.000        1284.191    86080449.40208
        48.000         998.883    20682245.586  
 23  7 24 21 10 49.0000000  0 15G24G11G28G25G29G12G20G05G18R14R15R13            
                                R24R23R17                                       
  22652316.727   119038718.49606        38.000       -3194.445    92757477.48007
        43.000       -2489.180    22652327.852  
  22773683.469   119676430.93807        42.000       -2996.266    93254428.14105
        30.000       -2334.715    22773686.039  
  23843261.211   125297161.32807        43.000        2270.250    97634176.61703
        23.000        1769.004    23843263.578  
  21086291.094   110809132.50008        49.000        1975.859    86344880.42206
        40.000        1539.633    21086294.742  
  21955959.695   115379358.76208        48.000         421.250    89905999.73808
        48.000         328.246    21955960.875  
  21068438.930   110715398.75407        46.000         -84.188    86271735.72307
        46.000         -65.598    21068438.563  
  22397546.156   117699905.49607        45.000        -188.813    91714219.56605
        33.000        -147.121    22397547.266  
  22591872.172   118721103.88707        46.000        1471.746    92509970.00008
        49.000        1146.816    22591874.984  
  23408515.992   123012643.09407        45.000        3283.109    95853979.24205
        31.000        2558.277    23408521.133  
  19616964.609   104569502.19908        51.000        1937.602    81331809.60208
        51.000        1507.055    19616967.930  
  23331997.148   124679135.21506        39.000        4076.570    96972657.16405
        34.000        3169.871    23331997.938  
  20288118.828   108337334.91006        41.000       -2368.582    84262375.85507
        42.000       -1842.316    20288120.008  
  20042269.906   107175013.93408        51.000       -1992.004    83358299.43008
        49.000       -1549.547    20042268.844  
  23348127.156   124896747.73405        34.000       -3592.297                  
                                                
  20682007.156   110673545.25008        51.000        1283.359    86079457.18808
        48.000         997.984    20682007.273  
 23  7 24 21 10 50.0000000  0 15G24G11G28G25G29G12G20G05G18R14R15R13            
                                R24R23R17                                       
  22652923.711   119041904.78506        38.000       -3194.551    92759960.28907
        43.000       -2489.281    22652934.258  
  22774251.852   119679418.94107        43.000       -2996.234    93256756.45304
        29.000       -2334.746    22774254.609  
  23842828.055   125294883.25007        43.000        2269.820    97632401.48003
        23.000        1768.699    23842830.133  
  21085913.469   110807148.37908        49.000        1975.934    86343334.35506
        40.000        1539.688    21085917.172  
  21955877.875   115378929.06608        48.000         421.586    89905664.92208
        48.000         328.512    21955879.117  
  21068453.336   110715474.78507        46.000         -84.410    86271794.96907
        46.000         -65.789    21068453.039  
  22397580.445   117700086.20707        45.000        -189.133    91714360.37905
        33.000        -147.379    22397581.656  
  22591590.469   118719624.07407        46.000        1471.133    92508816.90208
        49.000        1146.332    22591593.398  
  23407889.773   123009351.94107        44.000        3282.688    95851414.70705
        31.000        2557.938    23407894.844  
  19616599.641   104567556.27708        51.000        1937.254    81330296.10908
        51.000        1506.730    19616602.836  
  23331232.750   124675050.28106        39.000        4076.887    96969480.00405
        34.000        3171.020    23331233.070  
  20288560.883   108339695.35206        41.000       -2369.332    84264211.76207
        42.000       -1842.672    20288562.094  
  20042640.961   107176997.73008        51.000       -1992.313    83359842.37108
        49.000       -1549.625    20042639.820  
  23348796.680   124900330.89805        34.000       -3592.566                  
                                                
  20681766.070   110672253.73008        51.000        1282.680    86078452.66408
        49.000         997.758    20681765.992  
 23  7 24 21 10 51.0000000  0 15G24G11G28G25G29G12G20G05G18R14R15R13            
                                R24R23R17                                       
  22653528.742   119045086.04306        37.000       -3194.676    92762439.19107
        43.000       -2489.402    22653539.648  
  22774819.445   119682402.02707        42.000       -2996.891    93259080.94104
        29.000       -2335.258    22774822.234  
  23842393.258   125292600.43407        43.000        2268.957    97630622.67603
        23.000        1768.008    23842395.820  
  21085534.820   110805159.30908        49.000        1975.172    86341784.43406
        40.000        1539.105    21085538.688  
  21955795.266   115378494.31608        48.000         420.996    89905326.15608
        48.000         328.027    21955796.398  
  21068466.945   110715545.98007        45.000         -85.023    86271850.44507
        46.000         -66.254    21068466.555  
  22397613.922   117700262.30107        45.000        -189.969    91714497.59405
        33.000        -148.023    22397615.125  
  22591307.750   118718139.42207        46.000        1470.762    92507660.02308
        49.000        1146.055    22591310.867  
  23407262.500   123006055.85907        44.000        3282.125    95848846.33205
        31.000        2557.488    23407267.641  
  19616233.750   104565605.72308        51.000        1936.297    81328779.01208
        51.000        1505.887    19616236.844  
  23330467.164   124670960.10506        39.000        4076.500    96966298.71505
        34.000        3170.430    23330467.820  
  20289001.734   108342051.18806        41.000       -2370.137    84266044.08607
        42.000       -1843.566    20289003.188  
  20043010.891   107178976.60208        51.000       -1992.996    83361381.48808
        49.000       -1550.047    20043009.891  
  23349466.023   124903908.57405        34.000       -3591.207                  
                                                
  20681523.656   110670957.45708        50.000        1282.074    86077444.46108
        49.000         997.086    20681523.852  
 23  7 24 21 10 52.0000000  0 15G24G11G28G25G29G12G20G05G18R14R15R13            
                                R24R23R17                                       
  22654136.625   119048279.93806        38.000       -3194.863    92764927.93407
        43.000       -2489.496    22654147.453  
  22775389.602   119685397.79707        43.000       -2997.563    93261415.30504
        29.000       -2335.770    22775392.227  
  23841961.180   125290330.50407        43.000        2268.035    97628853.90203
        23.000        1767.293    23841963.875  
  21085158.789   110803182.85908        49.000        1974.992    86340244.34406
        40.000        1538.957    21085162.594  
  21955714.797   115378072.11708        48.000         420.785    89904997.16808
        48.000         327.883    21955716.047  
  21068482.539   110715629.99207        46.000         -85.809    86271915.91407
        46.000         -66.871    21068482.484  
  22397649.938   117700451.38307        45.000        -190.582    91714644.94105
        33.000        -148.469    22397651.078  
  22591027.734   118716667.58607        46.000        1470.328    92506513.14808
        49.000        1145.703    22591030.727  
  23406638.078   123002772.48407        45.000        3281.645    95846287.87105
        31.000        2557.117    23406642.859  
  19615870.180   104563668.42208        51.000        1935.496    81327272.22308
        51.000        1505.434    19615873.383  
  23329704.320   124666882.57406        39.000        4076.320    96963127.32405
        33.000        3170.000    23329704.703  
  20289444.766   108344420.29706        41.000       -2371.012    84267886.71906
        41.000       -1843.871    20289446.781  
  20043383.188   107180968.50408        51.000       -1993.789    83362930.75008
        49.000       -1550.551    20043382.398  
  23350136.688   124907498.85205        35.000       -3590.988                  
                                                
  20681283.852   110669674.43408        51.000        1281.199    86076446.55108
        49.000         996.613    20681284.063  
 23  7 24 21 10 53.0000000  0 15G24G11G28G25G29G12G20G05G18R14R15R13            
                                R24R23R17                                       
  22654747.852   119051489.65206        38.000       -3195.676    92767429.01607
        43.000       -2490.082    22654758.297  
  22775963.102   119688409.51207        42.000       -2997.512    93263762.10504
        29.000       -2335.738    22775965.281  
  23841532.453   125288076.68807        43.000        2268.047    97627097.68804
        24.000        1767.313    23841535.047  
  21084785.883   110801222.30908        49.000        1974.805    86338716.64506
        40.000        1538.816    21084789.508  
  21955637.648   115377665.72708        48.000         420.762    89904680.50808
        48.000         327.852    21955638.688  
  21068501.906   110715730.02007        45.000         -85.746    86271993.85907
        46.000         -66.805    21068501.516  
  22397689.016   117700656.74207        45.000        -191.191    91714804.96905
        33.000        -148.977    22397690.133  
  22590750.688   118715211.80507        46.000        1470.117    92505378.77708
        49.000        1145.559    22590753.672  
  23406016.336   122999505.05107        45.000        3282.180    95843741.82005
        31.000        2557.566    23406021.070  
  19615509.891   104561747.70708        51.000        1934.980    81325778.33608
        51.000        1504.895    19615513.055  
  23328944.391   124662821.04706        39.000        4076.410    96959968.42605
        33.000        3168.875    23328945.117  
  20289891.742   108346806.02006        41.000       -2371.316    84269742.28106
        41.000       -1844.230    20289893.469  
  20043758.852   107182976.71108        51.000       -1993.613    83364492.69908
        49.000       -1550.824    20043757.969  
  23350811.141   124911104.96105        35.000       -3591.172                  
                                                
  20681047.297   110668407.98408        51.000        1280.809    86075461.55108
        49.000         996.008    20681047.352  
 23  7 24 21 10 54.0000000  0 15G24G11G28G25G29G12G20G05G18R14R15R13            
                                R24R23R17                                       
  22655357.797   119054693.19506        38.000       -3194.996    92769925.26207
        43.000       -2489.602    22655367.969  
  22776534.875   119691415.19907        42.000       -2997.582    93266104.19904
        29.000       -2335.789    22776537.203  
  23841102.422   125285817.05107        44.000        2267.609    97625336.92204
        24.000        1766.977    23841105.070  
  21084411.563   110799255.69508        49.000        1974.883    86337184.21506
        40.000        1538.887    21084415.258  
  21955559.203   115377253.18808        48.000         420.891    89904359.04708
        48.000         327.988    21955560.203  
  21068519.859   110715824.14107        46.000         -85.855    86272067.19907
        46.000         -66.867    21068519.430  
  22397727.211   117700856.37907        45.000        -191.324    91714960.52705
        33.000        -149.070    22397728.078  
  22590472.672   118713750.12507        46.000        1470.066    92504239.80908
        49.000        1145.508    22590475.531  
  23405393.195   122996231.62507        45.000        3281.820    95841191.09405
        31.000        2557.262    23405398.070  
  19615148.641   104559821.28908        51.000        1934.629    81324280.00808
        51.000        1504.703    19615151.656  
  23328183.227   124658753.19506        39.000        4076.176    96956804.46105
        34.000        3170.273    23328183.359  
  20290337.492   108349186.02706        41.000       -2372.086    84271593.39506
        41.000       -1844.996    20290339.289  
  20044133.422   107184978.90208        51.000       -1993.715    83366049.95708
        49.000       -1550.883    20044132.391  
  23351483.852   124914704.56605        35.000       -3591.500                  
                                                
  20680809.875   110667135.73408        51.000        1280.465    86074472.02008
        49.000         995.949    20680809.742  
 23  7 24 21 10 55.0000000  0 15G24G11G28G25G29G12G20G05G18R14R15R13            
                                R24R23R17                                       
  22655963.922   119057880.94106        38.000       -3195.762    92772409.21107
        43.000       -2490.211    22655974.617  
  22777103.813   119694405.14507        42.000       -2998.016    93268434.03104
        29.000       -2336.125    22777106.117  
  23840669.492   125283541.84807        43.000        2267.004    97623564.04304
        24.000        1766.453    23840672.148  
  21084034.219   110797273.29708        49.000        1974.336    86335639.48806
        40.000        1538.441    21084038.008  
  21955477.609   115376824.77008        48.000         420.359    89904025.20708
        48.000         327.523    21955478.703  
  21068534.844   110715902.62107        46.000         -86.461    86272128.35207
        46.000         -67.367    21068534.383  
  22397762.203   117701040.58607        45.000        -192.539    91715104.06305
        33.000        -150.035    22397763.094  
  22590191.328   118712272.79307        46.000        1469.121    92503088.63308
        49.000        1144.758    22590194.406  
  23404767.406   122992942.47707        45.000        3280.895    95838628.12105
        31.000        2556.531    23404772.188  
  19614784.359   104557879.29308        51.000        1933.707    81322769.57408
        51.000        1503.824    19614787.289  
  23327418.938   124654669.05906        39.000        4076.445    96953627.95305
        34.000        3169.879    23327419.180  
  20290780.477   108351550.40606        41.000       -2373.238    84273432.35207
        42.000       -1845.660    20290782.156  
  20044505.008   107186965.19108        51.000       -1994.527    83367594.83608
        49.000       -1551.148    20044503.703  
  23352154.094   124918287.65605        34.000       -3590.359                  
                                                
  20680569.375   110665847.76608        51.000        1279.457    86073470.26608
        49.000         995.230    20680569.070  
 23  7 24 21 10 56.0000000  0 15G24G11G28G25G29G12G20G05G18R14R15R13            
                                R24R23R17                                       
  22656569.336   119061063.38306        38.000       -3195.668    92774889.02307
        43.000       -2490.051    22656580.258  
  22777671.852   119697389.88307        42.000       -2997.887    93270759.80104
        29.000       -2336.016    22777674.055  
  23840235.766   125281261.62507        43.000        2266.793    97621787.25004
        24.000        1766.328    23840238.156  
  21083656.047   110795285.64508        49.000        1974.422    86334090.67206
        40.000        1538.508    21083659.797  
  21955395.047   115376391.01208        48.000         420.621    89903687.21908
        48.000         327.766    21955396.156  
  21068549.234   110715976.01207        46.000         -86.715    86272185.54307
        46.000         -67.578    21068548.344  
  22397796.219   117701219.91007        45.000        -192.652    91715243.80105
        33.000        -150.141    22397797.211  
  22589909.359   118710790.37107        46.000        1468.945    92501933.50008
        49.000        1144.633    22589912.273  
  23404140.586   122989648.12107        45.000        3281.246    95836061.09805
        31.000        2556.813    23404145.367  
  19614419.117   104555932.36708        51.000        1933.176    81321255.30508
        51.000        1503.477    19614421.977  
  23326653.750   124650579.48806        39.000        4076.219    96950447.16805
        34.000        3170.164    23326654.016  
  20291221.930   108353909.89806        41.000       -2373.188    84275267.51607
        42.000       -1845.754    20291224.070  
  20044875.281   107188946.30908        51.000       -1994.699    83369135.71108
        49.000       -1551.363    20044874.117  
  23352822.398   124921865.12505        34.000       -3591.141                  
                                                
  20680327.555   110664554.78108        50.000        1279.238    86072464.62108
        49.000         995.004    20680327.586  
 23  7 24 21 10 57.0000000  0 15G24G11G28G25G29G12G20G05G18R14R15R13            
                                R24R23R17                                       
  22657177.359   119064258.00406        38.000       -3195.641    92777378.33207
        43.000       -2490.105    22657188.203  
  22778242.148   119700386.91007        42.000       -2998.285    93273095.15204
        29.000       -2336.340    22778244.336  
  23839804.297   125278993.87107        43.000        2266.461    97620020.18403
        23.000        1766.070    23839806.602  
  21083280.117   110793310.24208        49.000        1974.023    86332551.40206
        40.000        1538.199    21083283.930  
  21955314.672   115375969.42208        48.000         420.344    89903358.71108
        48.000         327.520    21955315.898  
  21068565.391   110716061.78907        46.000         -87.293    86272252.38307
        46.000         -68.012    21068564.641  
  22397832.711   117701411.82007        45.000        -193.293    91715393.35205
        33.000        -150.621    22397833.711  
  22589629.586   118709320.35507        46.000        1468.695    92500788.03908
        49.000        1144.434    22589632.484  
  23403516.063   122986366.08607        45.000        3280.750    95833503.68005
        31.000        2556.410    23403520.875  
  19614056.281   104553998.25008        51.000        1932.531    81319750.98008
        51.000        1503.254    19614059.133  
  23325890.500   124646502.12106        39.000        4076.406    96947275.87105
        34.000        3170.766    23325891.391  
  20291665.922   108356282.29306        41.000       -2374.094    84277112.69907
        42.000       -1846.254    20291668.352  
  20045247.977   107190940.02708        51.000       -1995.141    83370686.37908
        49.000       -1551.855    20045246.906  
  23353493.898   124925454.77305        34.000       -3591.223                  
                                                
  20680088.063   110663274.59408        50.000        1278.691    86071468.92608
        49.000         994.332    20680088.289  
 23  7 24 21 10 58.0000000  0 15G24G11G28G25G29G12G20G05G18R14R15R13            
                                R24R23R17                                       
  22657786.977   119067462.56306        37.000       -3196.340    92779875.39107
        43.000       -2490.648    22657798.063  
  22778814.359   119703393.99207        42.000       -2999.035    93275438.34004
        29.000       -2336.926    22778816.539  
  23839374.578   125276736.35507        43.000        2265.777    97618261.07803
        23.000        1765.547    23839377.086  
  21082905.984   110791344.83208        49.000        1973.602    86331019.91406
        40.000        1537.855    21082909.930  
  21955236.328   115375557.73008        48.000         420.070    89903037.92208
        48.000         327.320    21955237.555  
  21068583.500   110716157.71107        46.000         -87.773    86272327.13307
        46.000         -68.391    21068582.914  
  22397871.016   117701614.09007        45.000        -194.023    91715550.96105
        33.000        -151.184    22397872.188  
  22589351.844   118707860.47307        45.000        1468.008    92499650.46908
        48.000        1143.898    22589354.664  
  23402893.133   122983094.09407        45.000        3280.344    95830954.08605
        31.000        2556.113    23402898.250  
  19613695.492   104552074.67608        51.000        1931.746    81318254.87108
        51.000        1502.500    19613698.242  
  23325129.023   124642434.75006        39.000        4076.219    96944112.38705
        34.000        3170.293    23325130.055  
  20292112.391   108358665.29306        41.000       -2374.887    84278966.15607
        42.000       -1847.277    20292114.719  
  20045622.773   107192944.06608        51.000       -1995.566    83372245.08208
        49.000       -1552.273    20045621.656  
  23354167.102   124929054.16405        34.000       -3590.426                  
                                                
  20679851.031   110662004.96508        51.000        1277.855    86070481.43408
        49.000         993.840    20679851.148  
 23  7 24 21 10 59.0000000  0 15G24G11G28G25G29G12G20G05G18R14R15R13            
                                R24R23R17                                       
  22658395.047   119070656.78906        37.000       -3195.313    92782364.39807
        43.000       -2489.941    22658405.984  
  22779384.961   119706390.82807        42.000       -2998.668    93277773.52704
        29.000       -2336.617    22779386.734  
  23838943.148   125274468.80907        43.000        2265.645    97616494.15203
        23.000        1765.426    23838945.555  
  21082529.938   110789369.15608        49.000        1973.828    86329480.42206
        40.000        1538.047    21082533.961  
  21955156.125   115375135.69508        48.000         420.211    89902709.06308
        48.000         327.414    21955157.281  
  21068599.633   110716243.51607        46.000         -87.715    86272393.98807
        46.000         -68.348    21068599.273  
  22397907.625   117701806.45707        45.000        -194.258    91715700.85505
        33.000        -151.371    22397908.773  
  22589071.984   118706390.48007        45.000        1467.918    92498505.02008
        48.000        1143.828    22589074.945  
  23402268.758   122979811.91007        45.000        3280.156    95828396.54305
        31.000        2555.941    23402273.648  
  19613332.781   104550141.14508        51.000        1931.586    81316751.01208
        51.000        1502.363    19613335.563  
  23324365.547   124638356.79306        39.000        4076.223    96940940.64505
        34.000        3170.664    23324366.477  
  20292556.672   108361038.34006        41.000       -2375.574    84280811.85206
        41.000       -1847.344    20292559.078  
  20045995.742   107194937.81608        51.000       -1995.566    83373795.78108
        49.000       -1552.430    20045994.492  
  23354838.227   124932642.82405        34.000       -3591.508                  
                                                
  20679612.180   110660725.30108        51.000        1277.570    86069486.14508
        49.000         993.473    20679612.063  
 23  7 24 21 11  0.0000000  0 15G24G11G28G25G29G12G20G05G18R14R15R13            
                                R24R23R17                                       
  22659001.680   119073841.99206        37.000       -3196.332    92784846.36307
        43.000       -2490.652    22659012.156  
  22779953.617   119709378.70307        42.000       -2998.355    93280101.74204
        29.000       -2336.391    22779955.281  
  23838509.883   125272192.49207        43.000        2265.211    97614720.40603
        23.000        1765.078    23838512.406  
  21082152.352   110787384.47308        49.000        1973.820    86327933.91406
        40.000        1538.012    21082156.297  
  21955073.852   115374704.54708        48.000         420.340    89902373.10508
        48.000         327.520    21955075.266  
  21068614.461   110716320.47307        46.000         -88.039    86272453.95307
        46.000         -68.594    21068613.922  
  22397942.367   117701990.17607        45.000        -194.801    91715844.02005
        33.000        -151.797    22397943.711  
  22588790.406   118704911.63307        45.000        1467.934    92497352.67208
        48.000        1143.816    22588793.484  
  23401641.977   122976520.76207        45.000        3280.273    95825832.01205
        31.000        2556.047    23401647.430  
  19612968.406   104548198.91408        51.000        1930.969    81315240.38708
        51.000        1501.887    19612971.203  
  23323600.500   124634269.49206        39.000        4076.148    96937761.61305
        34.000        3170.430    23323602.188  
  20292999.227   108363402.63706        41.000       -2375.625    84282650.75406
        41.000       -1847.742    20293001.844  
  20046366.883   107196922.55508        51.000       -1995.836    83375339.46508
        49.000       -1552.398    20046365.695  
  23355507.063   124936221.87505        34.000       -3591.285                  
                                                
  20679371.344   110659436.82808        51.000        1277.145    86068483.99608
        49.000         993.398    20679371.438  
 23  7 24 21 11  1.0000000  0 15G24G11G28G25G29G12G20G05G18R14R15R13            
                                R24R23R17                                       
  22659610.516   119077038.03506        37.000       -3197.805    92787336.78107
        44.000       -2491.797    22659620.375  
  22780523.797   119712377.53507        43.000       -2999.625    93282438.49204
        29.000       -2337.387    22780525.891  
  23838078.633   125269927.28107        43.000        2264.340    97612955.31303
        23.000        1764.445    23838081.258  
  21081776.594   110785410.69508        49.000        1972.750    86326395.90606
        40.000        1537.203    21081780.719  
  21954993.789   115374284.20708        48.000         419.531    89902045.57008
        48.000         326.906    21954995.281  
  21068630.953   110716408.46107        46.000         -88.883    86272522.51607
        46.000         -69.262    21068630.641  
  22397979.703   117702185.12507        45.000        -195.922    91715995.93005
        33.000        -152.637    22397980.805  
  22588511.164   118703443.85907        45.000        1466.715    92496208.95708
        48.000        1142.891    22588514.125  
  23401017.852   122973240.57807        45.000        3279.230    95823276.03105
        31.000        2555.234    23401023.266  
  19612606.172   104546268.17608        51.000        1929.582    81313738.70708
        51.000        1500.676    19612608.891  
  23322838.289   124630193.09406        39.000        4075.613    96934591.12105
        34.000        3169.543    23322839.578  
  20293443.820   108365778.46906        40.000       -2377.035    84284498.62507
        42.000       -1848.516    20293446.781  
  20046739.984   107198918.54708        51.000       -1996.934    83376891.89808
        49.000       -1553.270    20046738.828  
  23356178.344   124939811.67205        34.000       -3588.879                  
                                                
  20679132.516   110658159.77308        51.000        1276.051    86067490.73008
        49.000         992.438    20679132.844  
 23  7 24 21 11  2.0000000  0 15G24G11G28G25G29G12G20G05G18R14R15R13            
                                R24R23R17                                       
  22660219.438   119080243.40206        37.000       -3196.516    92789834.47307
        44.000       -2490.781    22660230.398  
  22781096.336   119715385.87507        42.000       -2999.961    93284782.66004
        29.000       -2337.637    22781098.305  
  23837649.633   125267671.79307        43.000        2263.926    97611197.79303
        23.000        1764.102    23837651.961  
  21081402.820   110783446.38308        49.000        1972.566    86324865.28106
        40.000        1537.063    21081406.945  
  21954915.828   115373873.25408        48.000         419.316    89901725.34408
        48.000         326.746    21954917.094  
  21068649.656   110716506.07007        46.000         -89.160    86272598.57407
        46.000         -69.453    21068649.211  
  22398018.641   117702389.91007        45.000        -196.402    91716155.50405
        33.000        -153.063    22398019.773  
  22588233.852   118701985.68407        45.000        1466.461    92495072.72308
        48.000        1142.734    22588236.625  
  23400395.523   122969969.93007        45.000        3278.879    95820727.48005
        31.000        2554.980    23400400.930  
  19612245.844   104544347.48808        51.000        1928.992    81312244.83608
        51.000        1500.383    19612248.570  
  23322077.367   124626126.14506        39.000        4075.715    96931427.92205
        33.000        3169.887    23322078.469  
  20293890.664   108368164.37106        40.000       -2377.570    84286354.33206
        41.000       -1849.305    20293893.586  
  20047115.133   107200924.31308        51.000       -1997.273    83378451.93408
        49.000       -1553.414    20047114.023  
  23356851.117   124943410.85905        34.000       -3590.262                  
                                                
  20678895.922   110656892.68408        51.000        1275.602    86066505.22708
        49.000         992.023    20678896.164  
 23  7 24 21 11  3.0000000  0 15G24G11G28G25G29G12G20G05G18R14R15R13            
                                R24R23R17                                       
  22660827.078   119083438.78906        37.000       -3196.777    92792324.37507
        44.000       -2490.957    22660838.563  
  22781667.023   119718384.26207        43.000       -3000.082    93287119.06304
        29.000       -2337.730    22781668.836  
  23837218.969   125265406.54307        43.000        2263.648    97609432.66403
        23.000        1763.867    23837220.984  
  21081027.195   110781472.08208        49.000        1972.621    86323326.85906
        40.000        1537.109    21081031.234  
  21954835.727   115373452.22308        48.000         419.324    89901397.27008
        48.000         326.723    21954837.016  
  21068666.305   110716593.84407        46.000         -89.484    86272666.97307
        46.000         -69.703    21068665.945  
  22398056.188   117702585.07407        45.000        -197.086    91716307.58205
        33.000        -153.563    22398056.891  
  22587954.414   118700517.67607        45.000        1466.512    92493928.82008
        48.000        1142.738    22587957.281  
  23399771.258   122966689.34007        45.000        3278.742    95818171.18005
        31.000        2554.859    23399776.672  
  19611883.680   104542417.06308        51.000        1928.672    81310743.40208
        51.000        1499.887    19611886.367  
  23321314.352   124622048.85506        39.000        4075.457    96928256.69105
        34.000        3169.750    23321315.063  
  20294335.773   108370540.56306        40.000       -2378.148    84288202.48406
        41.000       -1849.680    20294338.438  
  20047488.578   107202920.04308        51.000       -1997.594    83380004.16808
        49.000       -1553.605    20047487.188  
  23357521.688   124946999.48805        34.000       -3589.566                  
                                                
  20678657.602   110655615.80508        51.000        1275.027    86065512.09808
        49.000         991.738    20678657.594  
 23  7 24 21 11  4.0000000  0 15G24G11G28G25G29G12G20G05G18R14R15R13            
                                R24R23R17                                       
  22661434.648   119086631.43806        37.000       -3197.043    92794812.14507
        44.000       -2491.195    22661446.141  
  22782237.109   119721380.02307        42.000       -3000.203    93289453.41804
        29.000       -2337.797    22782238.859  
  23836787.094   125263138.84407        43.000        2263.273    97607665.62503
        23.000        1763.586    23836789.531  
  21080651.078   110779495.08208        49.000        1972.910    86321786.34006
        40.000        1537.328    21080655.031  
  21954755.016   115373028.40208        48.000         419.574    89901067.02308
        48.000         326.934    21954756.398  
  21068682.594   110716679.07807        46.000         -89.602    86272733.38307
        46.000         -69.824    21068682.172  
  22398092.484   117702777.89807        45.000        -197.168    91716457.83205
        33.000        -153.645    22398093.602  
  22587674.523   118699047.13307        45.000        1466.461    92492782.94108
        48.000        1142.676    22587677.414  
  23399146.414   122963406.11307        45.000        3279.266    95815612.82805
        31.000        2555.277    23399151.953  
  19611521.047   104540484.31608        51.000        1928.453    81309240.14808
        51.000        1499.926    19611523.773  
  23320550.859   124617968.60506        39.000        4076.074    96925083.16405
        33.000        3169.930    23320551.281  
  20294780.094   108372914.47306        41.000       -2378.535    84290048.85206
        41.000       -1849.816    20294782.977  
  20047861.164   107204913.19508        51.000       -1997.297    83381554.39808
        49.000       -1553.418    20047859.906  
  23358192.023   124950585.04305        33.000       -3590.379                  
                                                
  20678418.516   110654336.54308        51.000        1274.980    86064517.11708
        49.000         991.691    20678418.594  
 23  7 24 21 11  5.0000000  0 15G24G11G28G25G29G12G20G05G18R14R15R13            
                                R24R23R17                                       
  22662044.688   119089836.28106        37.000       -3197.563    92797309.41407
        44.000       -2491.613    22662056.063  
  22782809.586   119724388.06607        43.000       -3000.449    93291797.34404
        29.000       -2338.047    22782811.250  
  23836357.797   125260883.63307        43.000        2262.590    97605908.32004
        24.000        1763.059    23836360.406  
  21080277.289   110777530.35208        49.000        1972.313    86320255.38306
        40.000        1536.867    21080281.180  
  21954676.664   115372616.76208        48.000         419.180    89900746.26608
        48.000         326.652    21954678.070  
  21068701.219   110716776.71107        46.000         -90.180    86272809.46507
        46.000         -70.258    21068700.742  
  22398131.148   117702983.33207        45.000        -198.102    91716617.91005
        33.000        -154.375    22398132.672  
  22587396.984   118697589.02007        45.000        1465.559    92491646.75008
        48.000        1141.992    22587399.906  
  23398524.211   122960135.21907        45.000        3278.578    95813064.08605
        31.000        2554.734    23398529.555  
  19611160.766   104538564.43808        51.000        1927.328    81307746.91008
        51.000        1499.180    19611163.563  
  23319789.961   124613900.68006        40.000        4075.785    96921919.23805
        33.000        3170.000    23319789.688  
  20295227.234   108375301.29306        40.000       -2379.406    84291905.26206
        41.000       -1850.402    20295229.766  
  20048236.203   107206919.01608        51.000       -1998.191    83383114.48808
        49.000       -1554.227    20048234.914  
  23358864.586   124954182.70705        33.000       -3589.629                  
                                                
  20678181.898   110653070.14108        51.000        1273.949    86063532.14108
        49.000         990.824    20678182.047  
 23  7 24 21 11  6.0000000  0 15G24G11G28G25G29G12G20G05G18R14R15R13            
                                R24R23R17                                       
  22662653.781   119093039.32806        38.000       -3197.395    92799805.28907
        44.000       -2491.422    22662665.672  
  22783381.766   119727394.43407        43.000       -3001.152    93294139.96904
        29.000       -2338.555    22783383.305  
  23835928.477   125258626.94507        43.000        2261.449    97604149.86304
        24.000        1762.172    23835931.078  
  21079902.953   110775563.90208        49.000        1971.402    86318723.07806
        40.000        1536.156    21079906.984  
  21954598.125   115372203.31308        48.000         418.328    89900424.09408
        48.000         325.969    21954599.422  
  21068719.086   110716872.77707        46.000         -91.113    86272884.32407
        46.000         -70.996    21068719.063  
  22398170.266   117703187.41007        45.000        -199.320    91716776.93805
        33.000        -155.320    22398171.523  
  22587119.227   118696129.33207        46.000        1464.480    92490509.33608
        48.000        1141.148    22587122.109  
  23397901.484   122956862.67207        45.000        3277.430    95810514.05105
        31.000        2553.828    23397906.836  
  19610800.438   104536643.25408        51.000        1925.922    81306252.65608
        51.000        1497.922    19610803.141  
  23319028.133   124609830.81606        40.000        4075.516    96918753.78905
        33.000        3169.641    23319027.891  
  20295674.523   108377686.81306        41.000       -2380.754    84293760.68406
        41.000       -1851.781    20295676.664  
  20048611.133   107208923.23008        51.000       -1999.254    83384673.32008
        49.000       -1555.035    20048609.742  
  23359536.875   124957778.30505        33.000       -3588.992                  
                                                
  20677945.305   110651802.34008        51.000        1272.605    86062546.07408
        49.000         989.805    20677945.156  
 23  7 24 21 11  7.0000000  0 15G24G11G28G25G29G12G20G05G18R14R15R13            
                                R24R23R17                                       
  22663261.227   119096228.71906        38.000       -3197.309    92802290.51607
        44.000       -2491.324    22663272.672  
  22783951.086   119730387.21507        43.000       -3000.512    93296472.00404
        29.000       -2338.063    22783952.781  
  23835496.555   125256356.84807        43.000        2262.008    97602380.95704
        24.000        1762.617    23835499.102  
  21079526.109   110773583.82008        49.000        1972.340    86317180.16006
        40.000        1536.883    21079530.195  
  21954516.828   115371776.12908        48.000         419.516    89900091.22308
        48.000         326.906    21954518.164  
  21068735.094   110716955.36307        46.000         -90.293    86272948.67607
        46.000         -70.355    21068734.828  
  22398206.898   117703378.21507        45.000        -198.996    91716925.61305
        33.000        -155.055    22398207.813  
  22586838.883   118694656.16807        45.000        1465.125    92489361.41808
        48.000        1141.656    22586841.766  
  23397276.273   122953576.54707        45.000        3278.285    95807953.43405
        31.000        2554.523    23397281.547  
  19610437.492   104534708.69108        51.000        1926.555    81304748.00408
        51.000        1498.449    19610440.180  
  23318264.172   124605746.93006        40.000        4075.879    96915577.44105
        33.000        3170.262    23318264.289  
  20296118.898   108380058.94106        41.000       -2380.301    84295605.65606
        41.000       -1851.445    20296120.844  
  20048983.352   107210913.68008        51.000       -1998.371    83386221.44108
        49.000       -1554.336    20048981.906  
  23360206.664   124961359.72705        32.000       -3589.879                  
                                                
  20677705.938   110650521.02008        51.000        1273.273    86061549.49208
        49.000         990.434    20677705.656  
 23  7 24 21 11  8.0000000  0 15G24G11G28G25G29G12G20G05G18R14R15R13            
                                R24R23R17                                       
  22663868.125   119099419.48006        38.000       -3197.672    92804776.81307
        44.000       -2491.641    22663879.898  
  22784521.016   119733381.50807        43.000       -3001.551    93298805.23004
        29.000       -2338.871    22784522.555  
  23835064.586   125254088.44507        43.000        2261.383    97600613.37904
        24.000        1762.113    23835067.422  
  21079149.445   110771605.20308        49.000        1971.688    86315638.38306
        40.000        1536.375    21079153.703  
  21954435.859   115371350.32408        48.000         418.980    89899759.43008
        48.000         326.473    21954437.133  
  21068751.141   110717039.56307        46.000         -91.230    86273014.28507
        46.000         -71.102    21068750.852  
  22398243.250   117703570.82807        45.000        -199.609    91717075.69905
        33.000        -155.543    22398244.469  
  22586558.867   118693184.64507        45.000        1464.430    92488214.78108
        48.000        1141.113    22586561.695  
  23396651.109   122950291.93407        45.000        3277.641    95805393.99605
        31.000        2554.008    23396656.508  
  19610074.914   104532776.04308        51.000        1925.520    81303244.83208
        51.000        1497.492    19610077.578  
  23317500.430   124601664.35206        40.000        4075.574    96912402.10505
        33.000        3169.863    23317500.063  
  20296563.367   108382432.98006        41.000       -2381.195    84297452.12906
        41.000       -1851.750    20296565.313  
  20049355.664   107212905.77708        51.000       -1999.160    83387770.85508
        49.000       -1554.980    20049354.492  
  23360876.719   124964942.16805        33.000       -3589.699                  
                                                
  20677466.680   110649241.54308        51.000        1272.348    86060554.35908
        49.000         989.605    20677466.484  
 23  7 24 21 11  9.0000000  0 15G24G11G28G25G29G12G20G05G18R14R15R13            
                                R24R23R17                                       
  22664478.734   119102624.07806        38.000       -3198.180    92807273.90207
        45.000       -2492.125    22664489.734  
  22785093.430   119736389.70707        43.000       -3002.113    93301149.27704
        29.000       -2339.297    22785094.914  
  23834635.734   125251834.15207        43.000        2260.461    97598856.78903
        23.000        1761.383    23834638.445  
  21078775.727   110769640.44908        49.000        1971.266    86314107.40606
        40.000        1536.055    21078779.828  
  21954357.219   115370938.30108        48.000         418.516    89899438.38308
        48.000         326.113    21954358.727  
  21068770.016   110717137.77007        46.000         -91.891    86273090.80907
        46.000         -71.605    21068769.539  
  22398282.617   117703777.66007        45.000        -200.574    91717236.87505
        33.000        -156.305    22398283.844  
  22586281.164   118691727.13307        45.000        1463.793    92487079.06308
        48.000        1140.613    22586284.273  
  23396028.734   122947021.25407        45.000        3277.098    95802845.43005
        32.000        2553.574    23396034.180  
  19609715.102   104530857.85908        51.000        1924.574    81301752.90608
        51.000        1496.844    19609717.711  
  23316739.055   124597595.70706        40.000        4074.879    96909237.59805
        33.000        3169.738    23316738.992  
  20297010.617   108384821.57406        41.000       -2382.250    84299309.92606
        41.000       -1852.773    20297012.758  
  20049730.734   107214912.17208        51.000       -1999.898    83389331.38708
        49.000       -1555.602    20049729.641  
  23361549.406   124968538.35505        32.000       -3587.934                  
                                                
  20677230.148   110647976.53508        51.000        1271.375    86059570.46508
        49.000         988.715    20677230.078  
 23  7 24 21 11 10.0000000  0 15G24G11G28G25G29G12G20G05G18R14R15R13            
                                R24R23R17                                       
  22665088.266   119105827.12106        38.000       -3197.973    92809769.76607
        45.000       -2491.910    22665099.313  
  22785665.680   119739396.44907        43.000       -3001.410    93303492.19504
        29.000       -2338.758    22785667.039  
  23834206.484   125249578.60207        43.000        2260.430    97597099.21903
        23.000        1761.367    23834209.266  
  21078401.617   110767674.21908        49.000        1971.441    86312575.27706
        40.000        1536.203    21078405.695  
  21954278.836   115370524.70308        48.000         419.004    89899116.10208
        48.000         326.484    21954280.070  
  21068788.305   110717234.64807        46.000         -91.652    86273166.30507
        46.000         -71.426    21068787.992  
  22398321.750   117703983.39507        45.000        -200.770    91717397.18805
        33.000        -156.441    22398323.000  
  22586003.828   118690268.30507        45.000        1464.012    92485942.32008
        48.000        1140.773    22586006.656  
  23395406.219   122943749.15607        45.000        3277.457    95800295.74205
        32.000        2553.871    23395411.555  
  19609355.063   104528938.58208        51.000        1924.469    81300260.14108
        51.000        1496.758    19609357.609  
  23315977.039   124593525.36306        40.000        4075.559    96906071.77705
        33.000        3169.984    23315977.258  
  20297457.648   108387209.10206        41.000       -2382.770    84301166.89806
        41.000       -1853.094    20297459.953  
  20050105.695   107216917.21908        51.000       -1999.762    83390890.86308
        49.000       -1555.336    20050104.680  
  23362221.359   124972132.80105        32.000       -3589.570                  
                                                
  20676993.938   110646710.39508        51.000        1271.270    86058585.69108
        49.000         988.746    20676993.414  
 23  7 24 21 11 11.0000000  0 15G24G11G28G25G29G12G20G05G18R14R15R13            
                                R24R23R17                                       
  22665695.461   119109018.09406        38.000       -3198.172    92812256.24207
        45.000       -2492.082    22665706.563  
  22786235.258   119742391.24607        43.000       -3001.977    93305825.80504
        29.000       -2339.199    22786236.844  
  23833775.031   125247311.27007        43.000        2259.770    97595332.47303
        23.000        1760.836    23833777.648  
  21078025.117   110765695.96908        49.000        1971.016    86311033.78106
        40.000        1535.859    21078029.266  
  21954197.734   115370099.01208        48.000         418.449    89898784.39508
        48.000         326.063    21954199.102  
  21068804.258   110717319.66807        46.000         -92.266    86273232.54707
        46.000         -71.879    21068804.211  
  22398358.656   117704177.45307        44.000        -201.422    91717548.40605
        33.000        -156.957    22398359.945  
  22585723.797   118688797.59007        45.000        1463.590    92484796.31308
        48.000        1140.441    22585726.766  
  23394781.250   122940465.10507        45.000        3276.719    95797736.74205
        32.000        2553.281    23394786.617  
  19608992.805   104527007.52708        51.000        1923.469    81298758.20308
        51.000        1496.145    19608995.336  
  23315213.469   124589442.63306        40.000        4075.477    96902896.32005
        33.000        3169.762    23315213.086  
  20297902.453   108389584.84806        41.000       -2382.898    84303014.70306
        41.000       -1853.430    20297904.938  
  20050478.344   107218910.17208        51.000       -2000.281    83392440.93408
        49.000       -1555.598    20050477.484  
  23362891.438   124975714.60505        33.000       -3589.188                  
                                                
  20676755.055   110645432.35508        51.000        1270.516    86057591.66408
        49.000         988.168    20676754.539  
 23  7 24 21 11 12.0000000  0 15G24G11G28G25G29G12G20G05G18R14R15R13            
                                R24R23R17                                       
  22666304.234   119112216.73806        39.000       -3198.613    92814748.68407
        45.000       -2492.441    22666315.273  
  22786806.805   119745393.79707        43.000       -3002.438    93308165.46104
        29.000       -2339.586    22786808.188  
  23833345.180   125245051.91407        43.000        2259.270    97593571.94103
        23.000        1760.469    23833347.695  
  21077650.117   110763725.45708        48.000        1970.469    86309498.32406
        40.000        1535.434    21077654.305  
  21954118.125   115369680.96108        48.000         418.219    89898458.64508
        48.000         325.875    21954119.555  
  21068821.656   110717412.56607        46.000         -92.691    86273304.93807
        46.000         -72.215    21068821.883  
  22398396.828   117704379.60907        44.000        -202.191    91717705.93405
        33.000        -157.555    22398398.414  
  22585445.406   118687334.76207        45.000        1462.848    92483656.45308
        48.000        1139.855    22585448.344  
  23394157.672   122937188.84407        44.000        3276.480    95795183.81605
        32.000        2553.090    23394163.203  
  19608632.172   104525084.77308        51.000        1922.641    81297262.73408
        51.000        1495.520    19608634.594  
  23314450.930   124585367.60206        40.000        4075.832    96899726.86705
        32.000        3169.391    23314450.141  
  20298348.813   108391968.91006        41.000       -2384.457    84304868.96906
        41.000       -1854.496    20298351.203  
  20050852.266   107220911.12908        51.000       -2000.980    83393997.23408
        49.000       -1556.211    20050851.563  
  23363563.016   124979303.87505        33.000       -3588.996                  
                                                
  20676517.594   110644162.57408        51.000        1269.723    86056604.06308
        49.000         987.617    20676517.227  
 23  7 24 21 11 13.0000000  0 15G24G11G28G25G29G12G20G05G18R14R15R13            
                                R24R23R17                                       
  22666914.898   119115423.77006        39.000       -3198.426    92817247.65207
        45.000       -2492.281    22666925.602  
  22787379.898   119748404.87507        43.000       -3003.168    93310511.75404
        29.000       -2340.105    22787381.102  
  23832916.734   125242801.24607        43.000        2258.766    97591818.17203
        23.000        1760.109    23832919.430  
  21077276.695   110761763.41008        48.000        1970.125    86307969.45706
        40.000        1535.168    21077280.945  
  21954040.289   115369271.28508        48.000         417.832    89898139.42208
        48.000         325.582    21954041.625  
  21068841.172   110717514.09407        46.000         -93.488    86273384.04707
        46.000         -72.840    21068841.227  
  22398437.141   117704590.59007        44.000        -203.133    91717870.33605
        33.000        -158.285    22398438.563  
  22585168.883   118685880.56607        45.000        1462.402    92482523.31608
        48.000        1139.531    22585171.563  
  23393535.773   122933921.11307        44.000        3275.809    95792637.53905
        32.000        2552.563    23393541.430  
  19608273.227   104523171.07408        51.000        1921.668    81295774.29708
        51.000        1494.660    19608275.563  
  23313689.500   124581301.02006        40.000        4075.063    96896563.96905
        32.000        3169.957    23313689.086  
  20298797.227   108394361.99206        41.000       -2385.164    84306730.26206
        41.000       -1855.285    20298799.391  
  20051228.133   107222920.87908        51.000       -2001.738    83395560.37908
        49.000       -1556.883    20051227.383  
  23364236.367   124982901.48805        33.000       -3588.098                  
                                                
  20676282.070   110642901.77708        51.000        1268.945    86055623.44508
        49.000         986.973    20676281.680  
 23  7 24 21 11 14.0000000  0 15G24G11G28G25G29G12G20G05G18R14R15R13            
                                R24R23R17                                       
  22667522.883   119118620.09006        39.000       -3199.242    92819738.28907
        45.000       -2492.887    22667533.875  
  22787950.938   119751405.27707        43.000       -3002.969    93312849.73004
        29.000       -2339.980    22787952.031  
  23832486.688   125240540.12507        43.000        2258.359    97590056.25803
        23.000        1759.758    23832489.180  
  21076901.352   110759790.65208        48.000        1970.469    86306432.24206
        40.000        1535.445    21076905.523  
  21953960.313   115368850.82008        48.000         417.914    89897811.78508
        48.000         325.652    21953961.672  
  21068858.547   110717605.05907        46.000         -93.613    86273454.92607
        46.000         -72.930    21068858.578  
  22398475.617   117704791.21907        44.000        -203.117    91718026.67205
        33.000        -158.258    22398476.750  
  22584890.031   118684415.85207        46.000        1462.281    92481381.98007
        47.000        1139.430    22584892.844  
  23392911.781   122930642.74607        44.000        3275.816    95790082.96905
        32.000        2552.578    23392917.609  
  19607912.305   104521246.94908        51.000        1921.242    81294277.75808
        51.000        1494.434    19607914.625  
  23312925.953   124577223.34406        40.000        4075.367    96893392.45305
        32.000        3169.422    23312926.453  
  20299243.203   108396744.60906        41.000       -2384.738    84308583.43406
        41.000       -1855.371    20299245.828  
  20051602.148   107224919.89808        51.000       -2001.617    83397115.17208
        49.000       -1557.000    20051601.172  
  23364907.359   124986487.90205        33.000       -3588.832                  
                                                
  20676044.617   110641630.41808        51.000        1268.645    86054634.61308
        49.000         986.629    20676044.086  
 23  7 24 21 11 15.0000000  0 15G24G11G28G25G29G12G20G05G18R14R15R13            
                                R24R23R17                                       
  22668129.453   119121807.32006        40.000       -3198.680    92822221.85507
        45.000       -2492.500    22668140.438  
  22788520.336   119754396.77307        43.000       -3002.918    93315180.77304
        29.000       -2339.918    22788521.258  
  23832054.766   125238270.27007        43.000        2258.266    97588287.54303
        23.000        1759.691    23832057.250  
  21076524.203   110757808.97308        48.000        1969.992    86304888.07406
        40.000        1535.059    21076528.422  
  21953878.484   115368421.32408        48.000         417.879    89897477.10908
        48.000         325.617    21953879.945  
  21068874.023   110717687.22707        46.000         -93.930    86273518.95707
        47.000         -73.184    21068874.242  
  22398512.102   117704983.26207        44.000        -203.766    91718176.31305
        33.000        -158.777    22398513.273  
  22584609.656   118682942.36307        46.000        1461.785    92480233.81607
        47.000        1139.023    22584612.406  
  23392286.219   122927355.47707        44.000        3275.504    95787521.46905
        32.000        2552.328    23392292.070  
  19607549.656   104519314.14508        51.000        1920.762    81292774.46508
        51.000        1493.934    19607551.977  
  23312161.320   124573136.39806        40.000        4075.039    96890213.71905
        33.000        3169.508    23312161.492  
  20299687.703   108399118.66806        41.000       -2386.309    84310429.89506
        41.000       -1856.004    20299690.609  
  20051974.219   107226909.95308        51.000       -2002.039    83398662.98808
        49.000       -1557.090    20051973.469  
  23365576.703   124990064.80105        33.000       -3589.160                  
                                                
  20675805.234   110640350.30908        51.000        1268.262    86053638.97308
        49.000         986.332    20675804.789  
 23  7 24 21 11 16.0000000  0 15G24G11G28G25G29G12G20G05G18R14R15R13            
                                R24R23R17                                       
  22668737.766   119125005.21106        41.000       -3199.102    92824713.71107
        45.000       -2492.805    22668749.008  
  22789091.695   119757398.98007        43.000       -3003.152    93317520.15204
        29.000       -2340.148    22789092.602  
  23831624.617   125236011.32407        43.000        2257.555    97586527.33203
        23.000        1759.121    23831627.336  
  21076148.977   110755837.94108        49.000        1969.793    86303352.21106
        40.000        1534.887    21076153.367  
  21953798.852   115368002.39108        48.000         417.582    89897150.67608
        48.000         325.387    21953800.219  
  21068891.867   110717780.21107        46.000         -94.383    86273591.41007
        47.000         -73.527    21068891.953  
  22398550.438   117705186.33607        44.000        -204.566    91718334.56305
        33.000        -159.410    22398551.938  
  22584331.328   118681479.69107        46.000        1461.117    92479094.07807
        47.000        1138.523    22584334.023  
  23391662.719   122924078.93007        44.000        3275.727    95784968.32805
        32.000        2552.500    23391668.617  
  19607189.125   104517392.55108        51.000        1920.098    81291279.90608
        51.000        1493.336    19607191.484  
  23311398.813   124569060.11306        40.000        4075.430    96887043.28105
        34.000        3169.906    23311399.523  
  20300134.328   108401503.96906        41.000       -2386.625    84312285.12906
        41.000       -1856.453    20300137.242  
  20052348.344   107228910.99608        51.000       -2002.336    83400219.35908
        49.000       -1557.457    20052347.688  
  23366247.641   124993652.22305        33.000       -3588.953                  
                                                
  20675567.930   110639081.41808        51.000        1267.367    86052652.06308
        49.000         985.813    20675567.508  
 23  7 24 21 11 17.0000000  0 15G24G11G28G25G29G12G20G05G18R14R15R13            
                                R24R23R17                                       
  22669348.109   119128212.56306        40.000       -3199.762    92827212.94107
        46.000       -2493.313    22669359.398  
  22789664.766   119760410.75007        43.000       -3003.762    93319866.99204
        29.000       -2340.609    22789665.742  
  23831196.500   125233762.12507        43.000        2257.023    97584774.70303
        23.000        1758.734    23831199.313  
  21075775.602   110753876.41408        48.000        1969.828    86301823.75006
        40.000        1534.945    21075780.086  
  21953720.945   115367592.88708        48.000         417.547    89896831.58208
        48.000         325.371    21953722.289  
  21068911.141   110717882.84407        46.000         -94.641    86273671.38707
        47.000         -73.730    21068911.516  
  22398591.305   117705399.26607        44.000        -204.918    91718500.48405
        33.000        -159.688    22398592.469  
  22584054.945   118680026.65607        46.000        1461.027    92477961.84407
        47.000        1138.449    22584057.492  
  23391040.977   122920811.96907        44.000        3275.063    95782422.64105
        32.000        2552.023    23391046.930  
  19606830.648   104515481.07008        51.000        1919.309    81289793.18408
        51.000        1492.996    19606832.859  
  23310637.664   124564993.32006        40.000        4075.426    96883880.21105
        33.000        3169.832    23310638.344  
  20300583.172   108403899.39506        41.000       -2387.223    84314148.25806
        41.000       -1857.102    20300585.773  
  20052724.383   107230921.85508        51.000       -2002.645    83401783.36308
        49.000       -1557.734    20052723.695  
  23366920.430   124997248.98005        34.000       -3588.465                  
                                                
  20675332.641   110637822.57008        51.000        1266.820    86051672.96908
        49.000         985.250    20675332.281  
 23  7 24 21 11 18.0000000  0 15G24G11G28G25G29G12G20G05G18R14R15R13            
                                R24R23R17                                       
  22669956.641   119131409.93806        41.000       -3199.277    92829704.39107
        46.000       -2492.910    22669967.898  
  22790236.102   119763412.67207        44.000       -3004.301    93322206.15204
        29.000       -2341.004    22790236.977  
  23830767.211   125231503.26607        44.000        2256.484    97583014.54703
        23.000        1758.297    23830769.492  
  21075400.555   110751905.02708        48.000        1969.340    86300287.60206
        40.000        1534.555    21075404.906  
  21953641.094   115367173.41008        48.000         417.242    89896504.71508
        48.000         325.121    21953642.484  
  21068928.961   110717975.74607        46.000         -95.094    86273743.77707
        47.000         -74.102    21068929.266  
  22398629.750   117705602.67607        44.000        -205.668    91718658.98805
        33.000        -160.242    22398631.188  
  22583776.648   118678563.92207        46.000        1460.594    92476822.05108
        48.000        1138.133    22583779.133  
  23390417.477   122917535.16407        44.000        3274.785    95779869.29305
        32.000        2551.773    23390423.391  
  19606470.367   104513559.99208        51.000        1918.629    81288299.01608
        51.000        1492.316    19606472.375  
  23309874.359   124560916.32806        39.000        4075.145    96880709.23805
        32.000        3168.824    23309874.867  
  20301030.164   108406285.25006        41.000       -2388.492    84316003.90206
        41.000       -1857.523    20301032.773  
  20053098.703   107232922.83208        51.000       -2003.352    83403339.66808
        49.000       -1558.113    20053097.969  
  23367590.930   125000835.28905        34.000       -3588.344                  
                                                
  20675095.727   110636554.01208        51.000        1266.352    86050686.31308
        49.000         984.855    20675095.234  
 23  7 24 21 11 19.0000000  0 15G24G11G28G25G29G12G20G05G18R14R15R13            
                                R24R23R17                                       
  22670564.898   119134604.31306        41.000       -3199.352    92832193.52007
        46.000       -2493.023    22670575.789  
  22790807.148   119766411.66407        44.000       -3004.172    93324543.03504
        29.000       -2340.906    22790807.641  
  23830336.523   125229241.68807        43.000        2256.277    97581252.27703
        23.000        1758.145    23830339.102  
  21075025.000   110749930.68008        48.000        1969.141    86298749.14806
        40.000        1534.379    21075029.203  
  21953560.633   115366750.87108        48.000         417.520    89896175.46908
        48.000         325.336    21953562.070  
  21068946.078   110718065.84407        46.000         -95.344    86273813.98807
        47.000         -74.297    21068946.438  
  22398668.063   117705803.48807        44.000        -206.141    91718815.47305
        33.000        -160.625    22398669.438  
  22583497.938   118677098.37907        46.000        1460.398    92475680.07408
        48.000        1137.957    22583500.211  
  23389793.563   122914255.48007        44.000        3274.527    95777313.70305
        32.000        2551.566    23389799.320  
  19606109.547   104511636.34008        51.000        1918.273    81286802.85208
        51.000        1491.926    19606111.453  
  23309110.813   124556836.16406        39.000        4074.977    96877535.77005
        32.000        3168.941    23309111.453  
  20301476.234   108408668.50406        41.000       -2388.254    84317857.56606
        41.000       -1857.844    20301478.977  
  20053472.227   107234920.91808        51.000       -2003.320    83404893.75008
        49.000       -1558.270    20053471.633  
  23368261.602   125004418.25405        34.000       -3588.359                  
                                                
  20674857.820   110635282.80508        50.000        1265.820    86049697.59808
        49.000         984.563    20674857.547  
 23  7 24 21 11 20.0000000  0 15G24G11G28G25G29G12G20G05G18R14R15R13            
                                R24R23R17                                       
  22671174.953   119137811.06306        41.000       -3199.113    92834692.28107
        46.000       -2492.781    22671186.055  
  22791379.859   119769423.16007        43.000       -3004.418    93326889.66004
        29.000       -2341.117    22791380.672  
  23829908.453   125226992.77707        43.000        2255.863    97579499.88303
        23.000        1757.855    23829911.133  
  21074651.516   110747968.75808        48.000        1969.148    86297220.38306
        40.000        1534.398    21074655.883  
  21953482.672   115366340.69508        48.000         417.422    89895855.85508
        48.000         325.266    21953484.000  
  21068965.555   110718168.53107        46.000         -95.621    86273894.00807
        47.000         -74.520    21068966.008  
  22398708.563   117706017.08207        44.000        -206.656    91718981.91805
        33.000        -161.043    22398710.109  
  22583221.656   118675645.43007        46.000        1460.258    92474547.90608
        48.000        1137.867    22583223.672  
  23389171.469   122910988.29707        44.000        3274.359    95774767.84805
        32.000        2551.434    23389177.672  
  19605751.133   104509725.74608        51.000        1917.836    81285316.83608
        51.000        1491.414    19605753.055  
  23308349.883   124552768.42606        39.000        4075.219    96874372.00005
        32.000        3169.512    23308349.641  
  20301924.977   108411064.87506        41.000       -2388.852    84319721.39106
        41.000       -1858.203    20301927.672  
  20053848.328   107236931.82808        51.000       -2003.672    83406457.78108
        49.000       -1558.469    20053847.797  
  23368933.820   125008013.55905        34.000       -3588.273                  
                                                
  20674622.492   110634024.63308        50.000        1265.344    86048719.02008
        49.000         984.027    20674622.391  
 23  7 24 21 11 21.0000000  0 15G24G11G28G25G29G12G20G05G18R14R15R13            
                                R24R23R17                                       
  22671784.953   119141016.02306        41.000       -3199.676    92837189.64107
        47.000       -2493.246    22671796.000  
  22791952.891   119772432.94907        44.000       -3004.750    93329234.94504
        29.000       -2341.359    22791953.313  
  23829480.484   125224742.36307        43.000        2255.508    97577746.32003
        23.000        1757.531    23829482.875  
  21074277.898   110746005.11708        48.000        1968.633    86295690.27306
        40.000        1533.984    21074282.195  
  21953404.375   115365928.69508        48.000         416.945    89895534.82008
        48.000         324.891    21953405.617  
  21068984.953   110718269.63307        46.000         -96.191    86273972.78907
        47.000         -74.941    21068985.305  
  22398748.922   117706229.31307        44.000        -207.750    91719147.28905
        33.000        -161.895    22398750.477  
  22582944.680   118674190.89107        46.000        1459.352    92473414.50808
        48.000        1137.145    22582946.844  
  23388549.492   122907719.44107        44.000        3273.672    95772220.69505
        32.000        2550.902    23388555.664  
  19605392.586   104507813.82808        51.000        1916.668    81283829.78908
        51.000        1490.664    19605394.383  
  23307588.250   124548698.80906        39.000        4074.730    96871206.74205
        32.000        3168.828    23307588.398  
  20302373.750   108413459.91406        41.000       -2390.047    84321584.19906
        41.000       -1859.039    20302376.023  
  20054224.266   107238941.14108        51.000       -2004.395    83408020.58208
        49.000       -1559.035    20054223.641  
  23369606.367   125011606.70305        33.000       -3587.867                  
                                                
  20674387.102   110632765.06308        50.000        1264.129    86047739.34808
        49.000         983.520    20674387.078  
 23  7 24 21 11 22.0000000  0 15G24G11G28G25G29G12G20G05G18R14R15R13            
                                R24R23R17                                       
  22672392.313   119144209.10906        41.000       -3200.176    92839677.75407
        47.000       -2493.625    22672403.664  
  22792523.102   119775430.94907        44.000       -3004.859    93331571.04704
        29.000       -2341.461    22792523.805  
  23829050.055   125222480.36707        43.000        2254.984    97575983.73003
        23.000        1757.121    23829052.477  
  21073901.977   110744029.63308        48.000        1968.570    86294150.93406
        40.000        1533.949    21073906.266  
  21953323.664   115365504.76208        48.000         416.973    89895204.48408
        48.000         324.914    21953324.961  
  21069002.156   110718359.03907        46.000         -96.293    86274042.45707
        47.000         -75.031    21069002.383  
  22398787.109   117706430.05907        44.000        -207.910    91719303.71505
        33.000        -162.043    22398788.656  
  22582665.469   118672724.67207        46.000        1459.258    92472272.00008
        48.000        1137.074    22582667.797  
  23387925.172   122904438.78907        44.000        3273.984    95769664.34805
        32.000        2551.148    23387931.430  
  19605031.813   104505890.31308        51.000        1916.203    81282333.71508
        51.000        1490.430    19605033.500  
  23306824.453   124544616.95706        39.000        4074.652    96868031.95305
        32.000        3170.113    23306824.805  
  20302820.289   108415843.35506        41.000       -2391.023    84323437.97306
        41.000       -1859.250    20302822.344  
  20054597.781   107240938.56608        51.000       -2004.578    83409574.13708
        49.000       -1559.176    20054597.234  
  23370275.852   125015187.44505        34.000       -3587.969                  
                                                
  20674149.375   110631493.78108        50.000        1264.047    86046750.58608
        49.000         983.371    20674149.344  
 23  7 24 21 11 23.0000000  0 15G24G11G28G25G29G12G20G05G18R14R15R13            
                                R24R23R17                                       
  22673001.336   119147409.48006        41.000       -3200.488    92842171.54707
        47.000       -2493.883    22673012.695  
  22793094.914   119778436.32807        44.000       -3005.211    93333912.90604
        29.000       -2341.734    22793095.664  
  23828620.984   125220225.94907        43.000        2254.383    97574227.04303
        23.000        1756.672    23828623.391  
  21073527.414   110742061.51208        48.000        1968.246    86292617.33606
        40.000        1533.695    21073531.766  
  21953244.359   115365088.10508        48.000         416.863    89894879.82008
        48.000         324.828    21953245.672  
  21069020.484   110718455.97707        46.000         -96.816    86274117.99207
        47.000         -75.457    21069020.852  
  22398826.852   117706638.51607        44.000        -208.539    91719466.15205
        33.000        -162.512    22398828.383  
  22582388.063   118671265.97307        46.000        1458.801    92471135.35508
        48.000        1136.723    22582390.172  
  23387302.344   122901165.59007        44.000        3272.988    95767113.81605
        32.000        2550.371    23387308.594  
  19604672.461   104503974.66808        51.000        1915.480    81280843.76208
        51.000        1490.047    19604674.023  
  23306061.766   124540542.40206        39.000        4074.742    96864862.88305
        33.000        3168.855    23306062.164  
  20303267.836   108418234.71106        41.000       -2391.582    84325297.92206
        41.000       -1859.875    20303269.961  
  20054972.586   107242943.65208        51.000       -2005.148    83411133.64108
        49.000       -1559.547    20054972.188  
  23370946.023   125018775.34405        35.000       -3587.070                  
                                                
  20673912.797   110630230.36708        50.000        1263.152    86045767.92608
        49.000         982.703    20673913.078  
 23  7 24 21 11 24.0000000  0 15G24G11G28G25G29G12G20G05G18R14R15R13            
                                R24R23R17                                       
  22673611.016   119150612.02307        42.000       -3200.660    92844667.03507
        47.000       -2494.035    22673622.164  
  22793667.055   119781444.02007        44.000       -3005.344    93336256.56604
        29.000       -2341.836    22793667.961  
  23828192.539   125217974.00807        43.000        2253.758    97572472.28903
        23.000        1756.180    23828194.867  
  21073153.273   110740095.62908        48.000        1968.090    86291085.48006
        40.000        1533.578    21073157.656  
  21953165.352   115364673.60508        48.000         416.668    89894556.83608
        49.000         324.688    21953166.820  
  21069039.195   110718555.29307        46.000         -97.109    86274195.38307
        47.000         -75.668    21069039.820  
  22398866.891   117706849.58607        44.000        -209.266    91719630.61305
        33.000        -163.063    22398868.602  
  22582110.867   118669809.65207        46.000        1458.492    92470000.56608
        48.000        1136.504    22582113.023  
  23386680.078   122897894.66007        44.000        3273.156    95764565.04305
        32.000        2550.496    23386686.195  
  19604313.664   104502061.73008        51.000        1914.902    81279355.93408
        51.000        1489.355    19604315.125  
  23305299.984   124536469.93806        39.000        4074.570    96861695.39105
        33.000        3169.418    23305300.445  
  20303716.234   108420628.80506        41.000       -2392.250    84327160.00406
        41.000       -1860.648    20303718.656  
  20055348.109   107244951.14108        51.000       -2005.348    83412695.03108
        49.000       -1559.848    20055347.672  
  23371617.289   125022365.16805        35.000       -3587.457                  
                                                
  20673677.039   110628969.59008        50.000        1262.742    86044787.33208
        49.000         982.176    20673677.516  
 23  7 24 21 11 25.0000000  0 15G24G11G28G25G29G12G20G05G18R14R15R13            
                                R24R23R17                                       
  22674218.828   119153804.45307        42.000       -3200.754    92847154.64108
        48.000       -2494.098    22674229.734  
  22794238.109   119784441.68007        44.000       -3005.863    93338592.40604
        29.000       -2342.242    22794238.336  
  23827762.234   125215712.24607        43.000        2253.383    97570709.88303
        22.000        1755.859    23827764.461  
  21072777.336   110738119.71108        48.000        1967.492    86289545.80506
        40.000        1533.105    21072781.625  
  21953084.523   115364248.94908        48.000         416.715    89894225.93408
        49.000         324.719    21953086.031  
  21069056.195   110718644.70307        46.000         -97.453    86274265.04707
        47.000         -75.934    21069056.898  
  22398905.273   117707050.94507        44.000        -209.836    91719787.52705
        33.000        -163.523    22398906.961  
  22581832.086   118668343.45307        46.000        1457.887    92468858.07408
        48.000        1136.016    22581833.977  
  23386055.813   122894613.75007        44.000        3272.797    95762008.49605
        32.000        2550.230    23386061.898  
  19603952.992   104500139.05908        51.000        1914.277    81277860.52308
        51.000        1488.801    19603954.391  
  23304536.266   124532387.04706        39.000        4074.949    96858519.80905
        32.000        3169.422    23304536.234  
  20304162.922   108423013.13706        41.000       -2392.891    84329014.49606
        41.000       -1861.281    20304164.938  
  20055721.641   107246948.53508        51.000       -2005.758    83414248.53908
        50.000       -1559.742    20055721.273  
  23372286.648   125025944.43005        35.000       -3587.348                  
                                                
  20673439.469   110627698.94108        50.000        1262.082    86043799.04708
        49.000         981.801    20673439.961  
 23  7 24 21 11 26.0000000  0 15G24G11G28G25G29G12G20G05G18R14R15R13            
                                R24R23R17                                       
  22674828.016   119157005.23807        42.000       -3200.367    92849648.75408
        48.000       -2493.781    22674838.836  
  22794809.992   119787447.80107        44.000       -3005.840    93340934.84804
        29.000       -2342.223    22794810.375  
  23827333.391   125213459.12907        43.000        2253.176    97568954.20703
        22.000        1755.711    23827335.867  
  21072403.094   110736152.19908        48.000        1967.520    86288012.68006
        40.000        1533.129    21072407.195  
  21953005.289   115363832.62508        48.000         416.527    89893901.52708
        49.000         324.559    21953006.789  
  21069074.813   110718742.69107        46.000         -98.031    86274341.40607
        47.000         -76.383    21069075.578  
  22398944.969   117707261.07807        44.000        -210.105    91719951.27005
        33.000        -163.723    22398947.008  
  22581554.813   118666885.82807        46.000        1457.383    92467722.27007
        47.000        1135.621    22581556.547  
  23385433.141   122891341.33607        44.000        3272.195    95759458.57405
        32.000        2549.773    23385439.219  
  19603593.898   104498225.36708        51.000        1913.543    81276372.09408
        51.000        1488.305    19603595.352  
  23303774.188   124528312.59006        39.000        4074.203    96855350.82005
        33.000        3169.234    23303773.672  
  20304610.961   108425406.48006        41.000       -2393.590    84330875.97306
        41.000       -1861.527    20304612.938  
  20056096.758   107248954.63708        51.000       -2006.145    83415808.86708
        50.000       -1560.426    20056096.297  
  23372956.461   125029531.90605        34.000       -3587.141                  
                                                
  20673203.328   110626437.21508        49.000        1261.516    86042817.71508
        49.000         980.879    20673204.070  
 23  7 24 21 11 27.0000000  0 15G24G11G28G25G29G12G20G05G18R14R15R13            
                                R24R23R17                                       
  22675439.227   119160214.86707        42.000       -3201.234    92852149.75808
        48.000       -2494.457    22675449.664  
  22795383.938   119790462.84007        44.000       -3006.082    93343284.23004
        29.000       -2342.406    22795384.078  
  23826906.234   125211215.14807        43.000        2252.633    97567205.66403
        22.000        1755.285    23826908.961  
  21072030.102   110734193.56608        48.000        1967.230    86286486.47706
        40.000        1532.902    21072034.461  
  21952927.875   115363425.09408        48.000         416.270    89893583.97708
        49.000         324.359    21952929.227  
  21069095.500   110718849.70707        46.000         -98.516    86274424.79307
        47.000         -76.762    21069096.000  
  22398987.047   117707480.45307        44.000        -210.555    91720122.21505
        33.000        -164.082    22398988.813  
  22581279.211   118665437.23407        46.000        1456.988    92466593.50007
        47.000        1135.301    22581280.875  
  23384812.180   122888077.83607        44.000        3272.191    95756915.59005
        32.000        2549.723    23384818.234  
  19603236.766   104496321.10208        51.000        1912.938    81274891.00408
        50.000        1487.680    19603238.102  
  23303013.156   124524246.99606        39.000        4074.375    96852188.66405
        33.000        3169.078    23303013.406  
  20305061.164   108427809.27006        41.000       -2393.730    84332744.82406
        41.000       -1862.164    20305063.055  
  20056473.641   107250969.96908        51.000       -2006.582    83417376.34008
        50.000       -1560.586    20056473.352  
  23373628.875   125033128.12905        35.000       -3587.152                  
                                                
  20672969.281   110625184.86708        49.000        1261.090    86041843.67208
        49.000         980.754    20672970.180  
 23  7 24 21 11 28.0000000  0 15G24G11G28G25G29G12G20G05G18R14R15R13            
                                R24R23R17                                       
  22676047.656   119163413.95707        42.000       -3201.055    92854642.54708
        48.000       -2494.281    22676058.484  
  22795955.609   119793467.50007        44.000       -3007.012    93345625.52004
        29.000       -2343.117    22795955.766  
  23826477.109   125208960.91807        43.000        2252.004    97565449.11703
        22.000        1754.813    23826479.992  
  21071655.398   110732224.48408        48.000        1967.277    86284952.12106
        40.000        1532.945    21071659.703  
  21952848.367   115363007.02708        48.000         416.078    89893258.20708
        49.000         324.215    21952849.695  
  21069113.539   110718946.41007        46.000         -98.828    86274500.14107
        47.000         -77.004    21069114.469  
  22399026.805   117707689.75807        44.000        -211.680    91720285.31305
        33.000        -164.949    22399028.680  
  22581001.469   118663978.35907        46.000        1456.613    92465456.71107
        47.000        1135.027    22581003.242  
  23384188.891   122884803.95707        44.000        3272.020    95754364.51605
        32.000        2549.648    23384195.227  
  19602877.703   104494406.62908        51.000        1912.359    81273401.97308
        50.000        1487.281    19602878.883  
  23302249.711   124520170.58206        39.000        4074.867    96849018.14505
        33.000        3168.859    23302250.859  
  20305509.367   108430201.91006        41.000       -2394.891    84334605.74606
        41.000       -1862.512    20305511.211  
  20056848.727   107252974.77708        51.000       -2006.824    83418935.63708
        50.000       -1560.941    20056848.391  
  23374299.008   125036713.30105        34.000       -3586.578                  
                                                
  20672733.484   110623922.24608        50.000        1260.387    86040861.62908
        48.000         980.348    20672734.188  
 23  7 24 21 11 29.0000000  0 15G24G11G28G25G29G12G20G05G18R14R15R13            
                                R24R23R17                                       
  22676654.383   119166603.63307        42.000       -3201.078    92857128.00408
        48.000       -2494.332    22676665.492  
  22796525.898   119796462.79707        44.000       -3007.172    93347959.52004
        29.000       -2343.270    22796525.719  
  23826046.602   125206697.59407        43.000        2251.484    97563685.48003
        22.000        1754.418    23826049.375  
  21071278.930   110730246.04308        48.000        1966.922    86283410.47706
        40.000        1532.664    21071283.203  
  21952767.008   115362579.50008        48.000         415.883    89892925.07808
        49.000         324.055    21952768.367  
  21069130.047   110719033.90607        46.000         -99.273    86274568.31607
        47.000         -77.371    21069131.172  
  22399064.953   117707890.02307        44.000        -211.875    91720441.36305
        33.000        -165.102    22399066.836  
  22580722.219   118662510.29707        46.000        1456.570    92464312.77007
        47.000        1134.980    22580723.813  
  23383564.180   122881520.78507        44.000        3271.359    95751806.20305
        32.000        2549.105    23383570.484  
  19602516.898   104492483.07808        51.000        1911.664    81271905.87108
        50.000        1486.832    19602517.953  
  23301485.133   124516084.46506        39.000        4074.469    96845840.02705
        33.000        3169.086    23301485.445  
  20305955.766   108432585.47306        41.000       -2395.383    84336459.63706
        41.000       -1863.387    20305957.406  
  20057221.719   107254970.19508        51.000       -2007.254    83420487.62508
        50.000       -1561.102    20057221.609  
  23374967.414   125040288.59405        35.000       -3586.703                  
                                                
  20672495.523   110622650.47308        49.000        1259.633    86039872.47308
        48.000         979.777    20672496.305  
 23  7 24 21 11 30.0000000  0 15G24G11G28G25G29G12G20G05G18R14R15R13            
                                R24R23R17                                       
  22677263.367   119169803.79307        43.000       -3201.246    92859621.63308
        48.000       -2494.477    22677274.461  
  22797097.656   119799468.69107        44.000       -3007.371    93350301.77704
        29.000       -2343.406    22797097.766  
  23825618.172   125204445.02707        43.000        2251.160    97561930.23803
        22.000        1754.152    23825620.609  
  21070904.492   110728278.16408        48.000        1966.473    86281877.07006
        40.000        1532.316    21070908.711  
  21952687.648   115362162.43808        48.000         415.668    89892600.09808
        49.000         323.895    21952689.008  
  21069148.586   110719132.10907        46.000         -99.902    86274644.83607
        47.000         -77.863    21069149.891  
  22399104.570   117708101.21107        44.000        -212.977    91720605.93005
        33.000        -165.926    22399107.047  
  22580444.695   118661052.93407        46.000        1455.777    92463177.16807
        47.000        1134.383    22580446.422  
  23382941.164   122878248.21107        44.000        3271.063    95749256.15605
        32.000        2548.848    23382947.789  
  19602158.227   104490570.65208        51.000        1910.793    81270418.43408
        50.000        1486.172    19602159.180  
  23300722.484   124512008.87106        39.000        4074.473    96842670.11305
        33.000        3168.961    23300722.258  
  20306404.313   108434980.20707        42.000       -2396.086    84338322.20706
        41.000       -1863.965    20306405.602  
  20057596.719   107256976.51208        51.000       -2007.781    83422048.09808
        50.000       -1561.719    20057596.836  
  23375637.797   125043874.28505        35.000       -3586.453                  
                                                
  20672259.609   110621389.80108        49.000        1259.262    86038891.94908
        49.000         979.484    20672260.633  
 23  7 24 21 11 31.0000000  0 15G24G11G28G25G29G12G20G05G18R14R15R13            
                                R24R23R17                                       
  22677875.180   119173018.94907        43.000       -3201.750    92862126.94108
        48.000       -2494.836    22677886.281  
  22797672.281   119802489.68007        44.000       -3007.129    93352655.79704
        29.000       -2343.234    22797672.625  
  23825192.383   125202207.75007        43.000        2250.805    97560186.90203
        22.000        1753.887    23825194.813  
  21070532.805   110726325.32408        48.000        1966.547    86280355.37906
        40.000        1532.371    21070537.094  
  21952611.219   115361760.33208        48.000         415.969    89892286.76608
        49.000         324.129    21952612.492  
  21069170.602   110719245.48407        45.000         -99.848    86274733.18407
        47.000         -77.820    21069171.492  
  22399147.984   117708327.79707        44.000        -212.969    91720782.49605
        33.000        -165.953    22399150.203  
  22580170.305   118659610.75407        46.000        1455.832    92462053.39507
        47.000        1134.406    22580171.930  
  23382321.484   122874990.74207        44.000        3271.023    95746717.87505
        32.000        2548.844    23382327.953  
  19601802.422   104488673.92208        51.000        1910.375    81268943.19508
        50.000        1485.859    19601803.320  
  23299962.828   124507948.38706        39.000        4074.508    96839511.98005
        32.000        3168.820    23299962.969  
  20306855.586   108437390.66806        41.000       -2396.941    84340197.00406
        41.000       -1864.238    20306857.047  
  20057974.781   107258998.28908        51.000       -2007.906    83423620.58608
        50.000       -1561.695    20057974.953  
  23376310.180   125047474.94905        34.000       -3586.691                  
                                                
  20672026.875   110620144.78108        49.000        1258.813    86037923.61308
        49.000         979.070    20672027.984  
 23  7 24 21 11 32.0000000  0 15G24G11G28G25G29G12G20G05G18R14R15R13            
                                R24R23R17                                       
  22678485.961   119176227.64807        43.000       -3201.566    92864627.22308
        48.000       -2494.719    22678496.906  
  22798245.711   119805504.31307        44.000       -3007.352    93355004.86304
        29.000       -2343.395    22798246.273  
  23824765.273   125199964.31607        43.000        2250.246    97558438.77703
        22.000        1753.438    23824767.883  
  21070159.953   110724366.09808        48.000        1966.188    86278828.70706
        40.000        1532.070    21070164.227  
  21952533.531   115361351.73808        48.000         415.660    89891968.37908
        49.000         323.891    21952534.781  
  21069191.164   110719352.62507        45.000         -99.926    86274816.66407
        47.000         -77.863    21069191.914  
  22399190.203   117708548.36707        44.000        -213.887    91720954.37105
        33.000        -166.660    22399192.211  
  22579894.789   118658162.34407        46.000        1455.316    92460924.76607
        47.000        1134.004    22579896.273  
  23381700.461   122871726.95307        44.000        3270.906    95744174.66405
        32.000        2548.758    23381706.891  
  19601445.516   104486771.15608        51.000        1909.809    81267463.27008
        50.000        1485.504    19601446.273  
  23299201.266   124503881.26206        39.000        4074.914    96836348.69905
        32.000        3167.840    23299202.359  
  20307305.820   108439795.06607        42.000       -2397.000    84342067.08606
        41.000       -1864.535    20307307.445  
  20058351.945   107261013.72708        51.000       -2008.184    83425188.15608
        50.000       -1562.020    20058351.891  
  23376981.977   125051068.77005        34.000       -3586.660                  
                                                
  20671793.125   110618893.60508        49.000        1258.281    86036950.46508
        49.000         978.719    20671794.125  
 23  7 24 21 11 33.0000000  0 15G24G11G28G25G29G12G20G05G18R14R15R13            
                                R24R23R17                                       
  22679093.156   119179420.38307        43.000       -3202.094    92867115.06308
        48.000       -2495.148    22679104.500  
  22798816.711   119808503.10507        44.000       -3007.789    93357341.58204
        29.000       -2343.734    22798816.953  
  23824335.133   125197705.21907        43.000        2250.137    97556678.44103
        23.000        1753.344    23824338.039  
  21069784.195   110722390.96908        48.000        1966.027    86277289.64106
        40.000        1531.969    21069788.344  
  21952452.781   115360927.16408        48.000         415.582    89891637.53908
        49.000         323.832    21952454.016  
  21069208.422   110719444.03107        45.000        -100.410    86274887.89107
        47.000         -78.234    21069209.352  
  22399229.047   117708753.36307        44.000        -214.266    91721114.11305
        33.000        -166.957    22399231.289  
  22579616.328   118656698.19907        46.000        1454.836    92459783.87507
        47.000        1133.633    22579617.633  
  23381076.336   122868447.32807        44.000        3270.422    95741619.10505
        32.000        2548.375    23381082.789  
  19601085.688   104484852.69508        51.000        1909.234    81265971.13308
        50.000        1484.891    19601086.313  
  23298437.180   124499797.82006        39.000        4074.934    96833172.64505
        32.000        3168.668    23298437.430  
  20307753.023   108442183.75806        41.000       -2398.094    84343924.94906
        41.000       -1864.973    20307754.844  
  20058725.836   107263013.12908        51.000       -2008.695    83426743.24608
        50.000       -1562.270    20058725.844  
  23377650.414   125054645.98405        34.000       -3586.816                  
                                                
  20671556.250   110617626.60208        49.000        1257.684    86035965.02308
        48.000         978.141    20671557.367  
 23  7 24 21 11 34.0000000  0 15G24G11G28G25G29G12G20G05G18R14R15R13            
                                R24R23R17                                       
  22679701.016   119182614.03507        43.000       -3201.574    92869603.61708
        48.000       -2494.727    22679712.211  
  22799387.602   119811502.89107        44.000       -3007.785    93359679.07804
        29.000       -2343.723    22799387.820  
  23823905.750   125195447.32807        43.000        2249.668    97554919.05103
        23.000        1752.980    23823908.328  
  21069408.641   110720416.82408        48.000        1966.020    86275751.34806
        40.000        1531.965    21069412.680  
  21952372.242   115360503.47308        48.000         415.543    89891307.39508
        49.000         323.797    21952373.375  
  21069226.063   110719536.57007        45.000        -100.699    86274960.00407
        47.000         -78.465    21069226.984  
  22399268.313   117708959.71907        44.000        -214.570    91721274.91405
        33.000        -167.207    22399270.563  
  22579337.797   118655235.18407        46.000        1454.766    92458643.86707
        47.000        1133.578    22579339.180  
  23380452.320   122865168.75007        44.000        3270.563    95739064.37905
        32.000        2548.445    23380458.891  
  19600726.055   104482935.64808        51.000        1908.719    81264480.09808
        50.000        1484.559    19600726.602  
  23297673.461   124495715.21506        39.000        4074.520    96829997.27305
        32.000        3168.977    23297673.688  
  20308200.523   108444573.87906        41.000       -2398.637    84345783.94906
        41.000       -1865.531    20308202.227  
  20059099.680   107265013.67208        51.000       -2008.824    83428299.22308
        50.000       -1562.445    20059099.992  
  23378318.539   125058223.87505        33.000       -3587.113                  
                                                
  20671319.383   110616360.95708        48.000        1257.266    86034980.63308
        48.000         977.789    20671320.672  
 23  7 24 21 11 35.0000000  0 15G24G11G28G25G29G12G20G05G18R14R15R13            
                                R24R23R17                                       
  22680311.453   119185821.37107        43.000       -3202.441    92872102.83608
        48.000       -2495.391    22680322.516  
  22799961.141   119814516.46107        43.000       -3008.754    93362027.32004
        29.000       -2344.473    22799961.344  
  23823478.711   125193203.40607        43.000        2248.867    97553170.53903
        23.000        1752.395    23823481.352  
  21069035.563   110718456.41808        48.000        1965.535    86274223.77006
        40.000        1531.559    21069039.617  
  21952294.133   115360093.42608        48.000         415.020    89890987.87908
        49.000         323.387    21952295.336  
  21069246.469   110719642.98007        45.000        -101.379    86275042.92607
        47.000         -78.992    21069247.266  
  22399310.531   117709180.14807        44.000        -215.500    91721446.68405
        33.000        -167.902    22399312.539  
  22579062.109   118653786.03507        46.000        1454.152    92457514.66407
        47.000        1133.105    22579063.367  
  23379831.414   122861903.94107        44.000        3269.570    95736520.38305
        32.000        2547.738    23379837.648  
  19600369.039   104481032.95308        51.000        1907.754    81263000.22308
        50.000        1483.875    19600369.680  
  23296912.109   124491646.36306        39.000        4074.121    96826832.66005
        34.000        3168.426    23296913.070  
  20308650.742   108446978.41806        41.000       -2399.699    84347654.14106
        40.000       -1866.391    20308652.352  
  20059476.555   107267028.33208        51.000       -2009.598    83429866.18408
        50.000       -1563.063    20059476.727  
  23378989.648   125061815.35905        33.000       -3585.484                  
                                                
  20671085.266   110615109.64108        48.000        1256.395    86034007.38708
        48.000         977.195    20671086.836  
 23  7 24 21 11 36.0000000  0 15G24G11G28G25G29G12G20G05G18R14R15R13            
                                R24R23R17                                       
  22680921.930   119189027.57807        43.000       -3202.551    92874601.17608
        48.000       -2495.488    22680932.617  
  22800534.234   119817529.00007        44.000       -3008.320    93364374.75404
        29.000       -2344.145    22800534.586  
  23823051.391   125190958.66807        43.000        2248.613    97551421.39103
        23.000        1752.148    23823054.234  
  21068662.281   110716494.96108        48.000        1965.367    86272695.35906
        40.000        1531.457    21068666.320  
  21952215.914   115359682.24208        48.000         415.000    89890667.47308
        49.000         323.402    21952217.125  
  21069266.352   110719748.49607        45.000        -101.684    86275125.13707
        47.000         -79.223    21069267.391  
  22399352.641   117709399.89507        44.000        -216.043    91721617.92205
        33.000        -168.336    22399354.383  
  22578786.203   118652336.01607        46.000        1453.953    92456384.78107
        47.000        1132.945    22578787.414  
  23379209.688   122858638.16807        44.000        3269.547    95733975.63305
        32.000        2547.734    23379216.219  
  19600011.984   104479129.64108        51.000        1906.945    81261519.86708
        50.000        1483.332    19600012.703  
  23296150.141   124487576.27706        39.000        4073.922    96823667.00405
        33.000        3168.922    23296151.375  
  20309100.945   108449382.34006        41.000       -2400.086    84349523.85906
        40.000       -1866.813    20309102.641  
  20059853.234   107269042.06608        51.000       -2010.004    83431432.41808
        50.000       -1563.242    20059853.375  
  23379661.297   125065405.44905        33.000       -3585.703                  
                                                
  20670851.547   110613857.62908        48.000        1255.730    86033033.60208
        48.000         976.563    20670852.945  
 23  7 24 21 11 37.0000000  0 15G24G11G28G25G29G12G20G05G18R14R15R13            
                                R24R23R17                                       
  22681529.797   119192222.17607        44.000       -3202.684    92877090.46908
        48.000       -2495.594    22681540.516  
  22801105.281   119820530.04307        44.000       -3009.094    93366713.23404
        29.000       -2344.746    22801105.625  
  23822622.406   125188702.60907        43.000        2247.984    97549663.43003
        23.000        1751.676    23822624.883  
  21068286.938   110714521.95708        48.000        1965.039    86271157.95306
        40.000        1531.176    21068290.859  
  21952135.195   115359259.39808        48.000         414.844    89890337.99208
        49.000         323.258    21952136.688  
  21069284.195   110719842.59007        45.000        -101.898    86275198.46107
        47.000         -79.406    21069285.328  
  22399392.313   117709608.42607        44.000        -216.461    91721780.41405
        33.000        -168.684    22399394.102  
  22578507.891   118650874.59007        46.000        1453.551    92455246.00407
        47.000        1132.637    22578509.281  
  23378586.008   122855360.88707        44.000        3269.480    95731421.91005
        32.000        2547.605    23378592.578  
  19599652.805   104477215.05108        51.000        1906.465    81260030.75008
        50.000        1482.645    19599653.539  
  23295385.820   124483494.24206        39.000        4074.328    96820492.08605
        32.000        3168.887    23295387.242  
  20309549.039   108451774.95306        41.000       -2400.770    84351384.77306
        41.000       -1867.348    20309550.672  
  20060227.500   107271044.18008        51.000       -2010.250    83432989.62108
        50.000       -1563.488    20060227.906  
  23380329.734   125068983.43805        33.000       -3586.004                  
                                                
  20670615.445   110612594.19508        48.000        1255.125    86032050.93808
        48.000         976.305    20670616.750  
 23  7 24 21 11 38.0000000  0 15G24G11G28G25G29G12G20G05G18R14R15R13            
                                R24R23R17                                       
  22682139.125   119195424.55907        44.000       -3202.816    92879585.83608
        48.000       -2495.707    22682149.875  
  22801677.758   119823538.98807        44.000       -3009.254    93369057.86304
        29.000       -2344.887    22801678.242  
  23822194.523   125186454.64507        43.000        2247.367    97547911.77703
        23.000        1751.191    23822197.188  
  21067912.719   110712556.80908        48.000        1964.641    86269626.67206
        40.000        1530.895    21067916.891  
  21952056.391   115358844.33208        48.000         414.641    89890014.56608
        49.000         323.094    21952057.711  
  21069303.609   110719944.71907        45.000        -102.750    86275278.04307
        47.000         -80.070    21069304.789  
  22399433.328   117709825.19507        44.000        -217.438    91721949.33205
        33.000        -169.414    22399435.398  
  22578231.422   118649421.17207        46.000        1452.758    92454113.47707
        47.000        1132.012    22578232.664  
  23377963.836   122852091.53107        44.000        3268.809    95728874.36705
        32.000        2547.125    23377970.469  
  19599295.289   104475308.88308        51.000        1905.418    81258548.17208
        50.000        1481.887    19599295.844  
  23294624.273   124479420.04706        39.000        4074.336    96817323.28505
        33.000        3168.500    23294624.047  
  20309998.594   108454176.01606        41.000       -2401.945    84353252.26206
        41.000       -1868.004    20310000.219  
  20060603.195   107273054.43808        51.000       -2010.922    83434553.16008
        50.000       -1564.066    20060603.859  
  23380999.711   125072569.09005        33.000       -3586.121                  
                                                
  20670380.664   110611339.14508        48.000        1254.480    86031074.78508
        48.000         975.684    20670382.055  
 23  7 24 21 11 39.0000000  0 15G24G11G28G25G29G12G20G05G18R14R15R13            
                                R24R23R17                                       
  22682750.164   119198635.35207        44.000       -3202.465    92882087.74608
        48.000       -2495.387    22682760.844  
  22802251.711   119826556.43807        43.000       -3008.961    93371409.12504
        29.000       -2344.652    22802252.445  
  23821768.461   125184215.40607        43.000        2247.570    97546166.92203
        23.000        1751.344    23821771.094  
  21067540.586   110710600.14808        48.000        1964.984    86268102.00006
        40.000        1531.164    21067544.547  
  21951979.094   115358437.66408        48.000         415.086    89889697.68008
        49.000         323.457    21951980.336  
  21069324.570   110720055.46907        45.000        -102.723    86275364.34407
        47.000         -80.051    21069325.883  
  22399476.344   117710050.79707        45.000        -217.480    91722125.12905
        33.000        -169.492    22399478.336  
  22577956.508   118647976.39107        47.000        1453.188    92452987.68407
        47.000        1132.336    22577957.703  
  23377343.438   122848830.72707        44.000        3268.820    95726333.48005
        32.000        2547.129    23377350.031  
  19598939.367   104473411.72708        51.000        1905.305    81257072.60508
        50.000        1482.027    19598940.000  
  23293863.227   124475354.34806        39.000        4073.906    96814161.07005
        32.000        3168.543    23293863.227  
  20310449.914   108456586.10906        41.000       -2402.063    84355126.78106
        40.000       -1868.180    20310451.703  
  20060980.727   107275073.46908        51.000       -2010.730    83436123.51608
        50.000       -1563.816    20060981.430  
  23381671.922   125076163.02705        33.000       -3586.250                  
                                                
  20670147.719   110610093.09408        48.000        1254.090    86030105.63708
        48.000         975.477    20670149.188  
 23  7 24 21 11 40.0000000  0 15G24G11G28G25G29G12G20G05G18R14R15R13            
                                R24R23R17                                       
  22683359.289   119201835.77307        44.000       -3202.461    92884581.57808
        48.000       -2495.422    22683369.836  
  22802823.922   119829563.61307        43.000       -3009.473    93373752.37904
        29.000       -2345.051    22802824.711  
  23821340.477   125181966.06307        43.000        2246.824    97544414.19103
        23.000        1750.746    23821343.031  
  21067166.406   110708633.16408        48.000        1964.660    86266569.28506
        40.000        1530.910    21067170.219  
  21951899.891   115358020.58208        48.000         414.836    89889372.68008
        49.000         323.242    21951901.008  
  21069343.609   110720156.03107        45.000        -102.887    86275442.71107
        47.000         -80.168    21069345.063  
  22399517.492   117710266.43007        45.000        -218.137    91722293.15605
        34.000        -169.984    22399519.414  
  22577679.672   118646521.44907        46.000        1452.410    92451853.96107
        47.000        1131.746    22577680.805  
  23376721.055   122845559.64807        44.000        3268.652    95723784.59805
        32.000        2547.000    23376727.617  
  19598581.609   104471504.52008        51.000        1904.590    81255589.23008
        50.000        1481.414    19598582.109  
  23293099.992   124471277.94506        39.000        4073.848    96810990.55505
        32.000        3168.148    23293100.680  
  20310899.594   108458986.16406        41.000       -2402.660    84356993.48406
        40.000       -1868.645    20310901.023  
  20061356.367   107277082.13708        51.000       -2011.176    83437685.80908
        50.000       -1564.246    20061357.070  
  23382341.586   125079746.05505        32.000       -3585.777                  
                                                
  20669912.961   110608836.87508        48.000        1253.637    86029128.58208
        48.000         974.938    20669914.391  
 23  7 24 21 11 41.0000000  0 15G24G11G28G25G29G12G20G05G18R14R15R13            
                                R24R23R17                                       
  22683967.492   119205033.19907        45.000       -3203.465    92887073.07808
        49.000       -2496.234    22683978.242  
  22803395.305   119832567.88307        43.000       -3010.211    93376093.37504
        29.000       -2345.617    22803396.430  
  23820911.969   125179714.02707        43.000        2245.719    97542659.35503
        22.000        1749.895    23820914.469  
  21066791.289   110706663.25008        48.000        1963.582    86265034.29306
        40.000        1530.059    21066795.344  
  21951819.820   115357600.46108        48.000         414.086    89889045.32008
        49.000         322.660    21951821.063  
  21069362.031   110720253.82407        45.000        -104.191    86275518.91807
        47.000         -81.176    21069363.680  
  22399557.969   117710479.48407        45.000        -219.254    91722459.18005
        34.000        -170.832    22399560.008  
  22577402.297   118645063.68807        46.000        1451.449    92450718.05107
        47.000        1130.992    22577403.352  
  23376098.094   122842285.69107        44.000        3267.758    95721233.46905
        32.000        2546.301    23376104.648  
  19598223.328   104469594.74208        51.000        1903.285    81254103.84408
        50.000        1480.379    19598223.828  
  23292337.039   124467198.37906        39.000        4073.785    96807817.54305
        32.000        3168.633    23292337.000  
  20311348.289   108461383.65606        41.000       -2404.016    84358858.20706
        40.000       -1869.762    20311349.820  
  20061731.094   107279087.98008        51.000       -2012.191    83439245.91408
        50.000       -1565.105    20061732.141  
  23383010.625   125083325.70305        32.000       -3585.090                  
                                                
  20669677.523   110607578.01208        48.000        1252.551    86028149.46108
        48.000         974.281    20669679.016  
 23  7 24 21 11 42.0000000  0 15G24G11G28G25G29G12G20G05G18R14R15R13            
                                R24R23R17                                       
  22684578.391   119208242.84807        45.000       -3203.508    92889574.10508
        49.000       -2496.242    22684588.969  
  22803969.516   119835584.49607        43.000       -3010.336    93378443.98404
        29.000       -2345.695    22803970.453  
  23820485.570   125177474.52007        43.000        2245.406    97540914.29703
        22.000        1749.680    23820488.430  
  21066418.844   110704705.62108        48.000        1963.750    86263508.87906
        40.000        1530.188    21066422.820  
  21951742.172   115357192.55908        48.000         414.168    89888727.48008
        49.000         322.719    21951743.438  
  21069382.875   110720364.04707        45.000        -104.250    86275604.80507
        47.000         -81.234    21069384.664  
  22399600.305   117710705.19107        45.000        -219.504    91722635.05505
        34.000        -171.055    22399603.008  
  22577127.172   118643618.41007        46.000        1451.383    92449591.86707
        47.000        1130.945    22577128.297  
  23375477.266   122839024.09407        44.000        3267.832    95718691.96505
        32.000        2546.359    23375483.984  
  19597867.531   104467697.88308        51.000        1903.141    81252628.50808
        50.000        1480.047    19597868.078  
  23291575.875   124463131.15206        39.000        4073.484    96804654.10205
        32.000        3169.289    23291576.086  
  20311799.563   108463794.10206        41.000       -2404.602    84360732.99606
        40.000       -1870.215    20311801.078  
  20062108.492   107281106.52308        51.000       -2012.609    83440815.88708
        50.000       -1565.273    20062109.523  
  23383681.773   125086917.60205        32.000       -3584.637                  
                                                
  20669444.578   110606332.03108        48.000        1251.973    86027180.36708
        48.000         973.594    20669446.219  
 23  7 24 21 11 43.0000000  0 15G24G11G28G25G29G12G20G05G18R14R15R13            
                                R24R23R17                                       
  22685189.266   119211450.88707        45.000       -3203.332    92892073.87508
        49.000       -2496.090    22685199.406  
  22804543.125   119838599.57807        43.000       -3010.250    93380793.40204
        29.000       -2345.664    22804544.164  
  23820059.133   125175233.68007        43.000        2245.301    97539168.18403
        22.000        1749.605    23820061.992  
  21066045.898   110702746.44908        48.000        1963.824    86261982.24606
        40.000        1530.258    21066049.961  
  21951664.313   115356782.99608        48.000         414.273    89888408.34408
        49.000         322.832    21951665.563  
  21069403.648   110720472.87107        46.000        -104.086    86275689.60208
        48.000         -81.102    21069405.398  
  22399643.711   117710929.69907        45.000        -219.953    91722810.00005
        34.000        -171.402    22399645.750  
  22576851.688   118642171.74607        46.000        1451.223    92448464.60207
        47.000        1130.816    22576852.992  
  23374855.977   122835761.02007        43.000        3267.258    95716149.30905
        32.000        2545.895    23374863.109  
  19597511.383   104465799.89508        51.000        1902.441    81251152.29708
        50.000        1479.648    19597512.016  
  23290814.477   124459062.12906        39.000        4073.809    96801489.34405
        32.000        3169.078    23290815.352  
  20312250.805   108466203.40606        41.000       -2405.047    84362606.89106
        40.000       -1870.355    20312252.242  
  20062485.922   107283123.57008        51.000       -2012.344    83442384.70708
        50.000       -1565.211    20062486.852  
  23384352.859   125090507.57805        33.000       -3585.277                  
                                                
  20669211.516   110605084.78108        48.000        1252.016    86026210.28508
        48.000         973.594    20669213.141  
 23  7 24 21 11 44.0000000  0 15G24G11G28G25G29G12G20G05G18R14R15R13            
                                R24R23R17                                       
  22685797.758   119214647.00807        45.000       -3203.395    92894564.34808
        49.000       -2496.133    22685807.586  
  22805114.867   119841602.86307        43.000       -3010.887    93383133.61704
        29.000       -2346.145    22805115.672  
  23819630.680   125172981.25007        43.000        2244.688    97537413.04303
        22.000        1749.109    23819633.359  
  21065670.984   110700775.42608        48.000        1963.555    86260446.38706
        40.000        1530.031    21065674.875  
  21951584.102   115356361.48808        48.000         414.250    89888079.89108
        49.000         322.801    21951585.398  
  21069422.344   110720569.98807        46.000        -104.605    86275765.27708
        48.000         -81.500    21069423.914  
  22399684.016   117711142.71907        45.000        -220.508    91722975.98805
        34.000        -171.828    22399686.313  
  22576574.164   118640713.35507        46.000        1450.840    92447328.19507
        47.000        1130.520    22576575.461  
  23374233.109   122832486.14107        44.000        3267.137    95713597.45705
        32.000        2545.816    23374239.945  
  19597153.156   104463890.32408        51.000        1901.941    81249667.08208
        50.000        1479.082    19597153.750  
  23290049.898   124454980.87906        39.000        4074.098    96798315.02005
        33.000        3169.020    23290050.813  
  20312700.008   108468601.10506        41.000       -2405.254    84364471.77706
        40.000       -1871.035    20312701.336  
  20062860.844   107285128.69108        51.000       -2012.637    83443944.25408
        50.000       -1565.621    20062861.930  
  23385020.773   125094085.08605        32.000       -3585.414                  
                                                
  20668976.172   110603825.82808        48.000        1251.418    86025231.10508
        48.000         973.203    20668977.922  
 23  7 24 21 11 45.0000000  0 15G24G11G28G25G29G12G20G05G18R14R15R13            
                                R24R23R17                                       
  22686407.406   119217850.48007        45.000       -3203.566    92897060.55508
        49.000       -2496.258    22686417.141  
  22805688.000   119844613.57807        43.000       -3010.887    93385479.62504
        29.000       -2346.141    22805688.609  
  23819203.227   125170736.43007        43.000        2244.527    97535663.83203
        22.000        1748.996    23819206.047  
  21065297.367   110698811.81308        48.000        1963.465    86258916.29706
        40.000        1529.973    21065301.219  
  21951505.172   115355947.30908        48.000         414.145    89887757.15208
        49.000         322.707    21951506.594  
  21069442.430   110720674.66407        46.000        -104.746    86275846.84408
        48.000         -81.625    21069443.836  
  22399726.031   117711363.49207        45.000        -221.199    91723148.02005
        34.000        -172.355    22399728.391  
  22576298.148   118639262.52707        46.000        1450.633    92446197.67607
        47.000        1130.344    22576299.352  
  23373611.414   122829218.72707        44.000        3267.254    95711051.42605
        32.000        2545.906    23373618.219  
  19596796.313   104461988.70708        51.000        1901.305    81248188.03908
        50.000        1478.715    19596797.008  
  23289287.391   124450907.01606        39.000        4074.016    96795146.50005
        32.000        3168.352    23289288.195  
  20313150.484   108471006.78906        41.000       -2406.113    84366342.85906
        40.000       -1871.258    20313151.797  
  20063237.031   107287141.51208        51.000       -2013.016    83445509.78108
        50.000       -1565.785    20063238.398  
  23385690.633   125097669.77705        32.000       -3585.063                  
                                                
  20668742.063   110602574.80508        48.000        1250.777    86024258.08208
        48.000         972.738    20668744.102  
 23  7 24 21 11 46.0000000  0 15G24G11G28G25G29G12G20G05G18R14R15R13            
                                R24R23R17                                       
  22687018.414   119221062.27007        45.000       -3203.645    92899563.24208
        49.000       -2496.336    22687028.305  
  22806262.063   119847632.73407        43.000       -3011.078    93387832.21104
        28.000       -2346.313    22806263.188  
  23818777.680   125168500.24607        43.000        2244.277    97533921.34403
        22.000        1748.785    23818780.602  
  21064925.328   110696856.59008        48.000        1963.152    86257392.74606
        40.000        1529.742    21064929.141  
  21951427.984   115355541.42208        48.000         413.844    89887440.87508
        49.000         322.480    21951429.383  
  21069463.789   110720787.89107        46.000        -105.293    86275935.07408
        48.000         -82.035    21069465.398  
  22399769.875   117711593.01207        45.000        -221.758    91723326.86705
        34.000        -172.801    22399772.055  
  22576023.680   118637820.24207        46.000        1450.313    92445073.82007
        47.000        1130.109    22576024.867  
  23372991.289   122825959.76207        44.000        3266.941    95708511.97705
        32.000        2545.688    23372998.086  
  19596441.250   104460096.00808        51.000        1900.559    81246715.94108
        50.000        1478.148    19596441.969  
  23288526.781   124446841.54706        39.000        4073.945    96791984.46105
        32.000        3168.617    23288527.898  
  20313602.781   108473421.40206        41.000       -2406.645    84368220.89806
        40.000       -1871.754    20313603.859  
  20063615.172   107289163.05108        51.000       -2013.590    83447082.08208
        50.000       -1566.035    20063616.508  
  23386361.844   125101262.68005        32.000       -3585.609                  
                                                
  20668510.063   110601332.66808        48.000        1250.129    86023291.97708
        48.000         972.297    20668512.047  
 23  7 24 21 11 47.0000000  0 15G24G11G28G25G29G12G20G05G18R14R15R13            
                                R24R23R17                                       
  22687627.875   119224263.62907        45.000       -3204.016    92902057.80508
        49.000       -2496.609    22687637.477  
  22806834.656   119850641.55907        43.000       -3011.430    93390176.74204
        28.000       -2346.574    22806835.734  
  23818350.609   125166253.93807        43.000        2243.672    97532170.97703
        22.000        1748.328    23818353.195  
  21064551.289   110694891.00008        48.000        1962.984    86255861.11706
        40.000        1529.602    21064555.086  
  21951348.938   115355125.06308        48.000         413.949    89887116.43408
        49.000         322.563    21951350.180  
  21069483.391   110720890.89107        46.000        -105.457    86276015.33208
        48.000         -82.176    21069485.023  
  22399811.969   117711812.52307        45.000        -222.117    91723497.91805
        34.000        -173.086    22399813.875  
  22575747.227   118636367.76207        46.000        1449.754    92443942.02007
        47.000        1129.676    22575748.461  
  23372369.211   122822690.49607        44.000        3266.566    95705964.49605
        32.000        2545.414    23372376.023  
  19596084.227   104458193.19108        51.000        1900.051    81245235.97708
        50.000        1477.715    19596084.945  
  23287764.141   124442765.34006        39.000        4073.887    96788814.09805
        32.000        3168.277    23287765.453  
  20314053.109   108475825.93806        41.000       -2407.270    84370091.09806
        40.000       -1872.480    20314054.359  
  20063991.453   107291174.16808        51.000       -2013.645    83448646.28508
        50.000       -1566.102    20063992.609  
  23387031.891   125104844.66405        32.000       -3584.992                  
                                                
  20668276.242   110600080.30908        48.000        1249.637    86022317.91408
        48.000         971.930    20668278.109  
 23  7 24 21 11 48.0000000  0 15G24G11G28G25G29G12G20G05G18R14R15R13            
                                R24R23R17                                       
  22688236.602   119227461.93807        45.000       -3204.227    92904549.98808
        49.000       -2496.797    22688246.063  
  22807406.664   119853647.42207        43.000       -3011.734    93392518.98004
        28.000       -2346.801    22807407.727  
  23817922.031   125164004.88707        43.000        2242.773    97530418.47703
        22.000        1747.609    23817925.305  
  21064176.703   110692922.44508        48.000        1962.168    86254327.17606
        40.000        1528.980    21064180.492  
  21951269.086   115354705.64808        48.000         413.523    89886789.61708
        50.000         322.219    21951270.367  
  21069502.258   110720991.07407        46.000        -106.215    86276093.39808
        48.000         -82.738    21069504.094  
  22399853.203   117712029.42607        45.000        -223.199    91723666.94105
        34.000        -173.945    22399855.164  
  22575470.289   118634912.47307        46.000        1448.883    92442808.03107
        47.000        1128.996    22575471.500  
  23371746.625   122819418.31607        44.000        3266.141    95703414.75005
        32.000        2545.039    23371753.383  
  19595726.734   104456287.78108        51.000        1899.066    81243753.98808
        50.000        1476.965    19595727.594  
  23287000.891   124438685.90206        39.000        4073.605    96785641.19505
        32.000        3168.020    23287001.719  
  20314502.945   108478227.89106        41.000       -2408.379    84371959.27306
        40.000       -1873.090    20314504.250  
  20064366.883   107293182.37108        51.000       -2014.352    83450208.23008
        50.000       -1566.949    20064368.109  
  23387700.867   125108423.21905        32.000       -3584.199                  
                                                
  20668041.664   110598825.26208        48.000        1248.793    86021341.77308
        48.000         971.223    20668043.578  
 23  7 24 21 11 49.0000000  0 15G24G11G28G25G29G12G20G05G18R14R15R13            
                                R24R23R17                                       
  22688847.289   119230672.16407        45.000       -3204.289    92907051.46108
        49.000       -2496.844    22688856.922  
  22807980.758   119856665.32007        43.000       -3012.262    93394870.59404
        28.000       -2347.207    22807982.016  
  23817496.508   125161768.01207        43.000        2242.902    97528675.44903
        22.000        1747.703    23817499.617  
  21063804.281   110690965.84408        48.000        1962.441    86252802.55906
        40.000        1529.176    21063808.156  
  21951191.383   115354298.10208        48.000         413.383    89886472.05508
        50.000         322.113    21951192.813  
  21069523.750   110721103.37107        46.000        -106.762    86276180.89808
        48.000         -83.180    21069525.445  
  22399896.523   117712258.63307        45.000        -223.703    91723845.54705
        34.000        -174.313    22399898.820  
  22575195.836   118633469.28907        46.000        1449.000    92441683.48007
        47.000        1129.086    22575196.852  
  23371126.305   122816158.17607        44.000        3265.672    95700874.38305
        32.000        2544.684    23371132.969  
  19595371.695   104454394.97708        51.000        1898.355    81242281.80108
        50.000        1476.664    19595372.523  
  23286239.820   124434618.46906        39.000        4073.371    96782477.61705
        33.000        3168.316    23286240.195  
  20314954.945   108480642.46106        41.000       -2408.477    84373837.27306
        40.000       -1873.742    20314956.234  
  20064744.727   107295202.89108        51.000       -2014.648    83451779.74208
        51.000       -1567.012    20064746.039  
  23388371.672   125112013.60905        32.000       -3584.512                  
                                                
  20667809.539   110597582.81308        48.000        1248.152    86020375.41008
        48.000         970.938    20667811.539  
 23  7 24 21 11 50.0000000  0 15G24G11G28G25G29G12G20G05G18R14R15R13            
                                R24R23R17                                       
  22689458.227   119233880.50007        46.000       -3204.941    92909551.46108
        49.000       -2497.340    22689467.422  
  22808554.883   119859681.38307        43.000       -3012.422    93397220.77304
        28.000       -2347.348    22808555.891  
  23817070.461   125159529.57407        43.000        2241.852    97526931.21503
        22.000        1746.898    23817073.656  
  21063431.609   110689007.41808        48.000        1961.836    86251276.51206
        40.000        1528.703    21063435.484  
  21951113.633   115353888.62908        49.000         412.836    89886152.98408
        50.000         321.688    21951114.906  
  21069544.805   110721213.97707        46.000        -107.297    86276267.09408
        48.000         -83.609    21069546.492  
  22399939.617   117712486.35907        45.000        -224.434    91724023.00005
        34.000        -174.906    22399942.164  
  22574920.984   118632024.45307        46.000        1448.125    92440557.63307
        47.000        1128.414    22574921.898  
  23370505.555   122812896.25007        44.000        3265.266    95698332.62505
        32.000        2544.359    23370512.242  
  19595016.281   104452500.76608        51.000        1897.492    81240808.52708
        50.000        1475.863    19595017.203  
  23285478.273   124430548.98006        39.000        4073.367    96779312.48405
        33.000        3167.832    23285479.359  
  20315406.992   108483055.60207        42.000       -2409.668    84375714.16806
        40.000       -1874.242    20315408.102  
  20065122.508   107297221.71108        51.000       -2015.418    83453349.93408
        50.000       -1567.516    20065123.680  
  23389043.133   125115601.81305        32.000       -3583.504                  
                                                
  20667577.281   110596338.84808        48.000        1247.383    86019407.89508
        49.000         970.066    20667579.016  
 23  7 24 21 11 51.0000000  0 15G24G11G28G25G29G12G20G05G18R14R15R13            
                                R24R23R17                                       
  22690066.453   119237077.08607        46.000       -3204.859    92912042.30508
        49.000       -2497.289    22690075.688  
  22809126.656   119862685.84807        43.000       -3012.684    93399561.91004
        28.000       -2347.547    22809127.609  
  23816642.313   125157279.68807        43.000        2241.527    97525178.05903
        22.000        1746.645    23816645.523  
  21063056.750   110687037.34008        48.000        1961.555    86249741.37906
        40.000        1528.480    21063060.602  
  21951033.414   115353467.39808        48.000         412.926    89885824.75808
        50.000         321.758    21951034.766  
  21069563.758   110721313.07407        46.000        -107.598    86276344.30908
        48.000         -83.836    21069565.352  
  22399981.086   117712702.80107        45.000        -225.020    91724191.66005
        34.000        -175.328    22399983.336  
  22574643.805   118630568.08207        45.000        1447.957    92439422.79307
        47.000        1128.273    22574644.734  
  23369882.398   122809622.72307        44.000        3265.063    95695781.82805
        32.000        2544.211    23369889.367  
  19594658.703   104450595.15608        51.000        1896.852    81239326.39108
        50.000        1475.344    19594659.750  
  23284714.016   124426467.51206        39.000        4072.984    96776137.98005
        32.000        3168.004    23284715.859  
  20315856.641   108485457.35507        42.000       -2410.559    84377582.18006
        40.000       -1874.766    20315858.000  
  20065497.867   107299228.79308        51.000       -2015.684    83454911.00008
        51.000       -1567.703    20065498.992  
  23389710.898   125119177.77305        32.000       -3583.789                  
                                                
  20667342.867   110595083.35508        48.000        1246.645    86018431.39108
        48.000         969.703    20667344.234  
 23  7 24 21 11 52.0000000  0 15G24G11G28G25G29G12G20G05G18R14R15R13            
                                R24R23R17                                       
  22690675.992   119240281.58207        46.000       -3205.082    92914539.30508
        49.000       -2497.465    22690685.461  
  22809699.727   119865698.30507        43.000       -3012.902    93401909.27304
        28.000       -2347.723    22809700.883  
  23816215.609   125155037.98007        43.000        2241.273    97523431.28503
        22.000        1746.434    23816219.055  
  21062683.359   110685075.20708        48.000        1961.586    86248212.45306
        40.000        1528.504    21062687.219  
  21950954.656   115353054.03508        48.000         412.816    89885502.65208
        50.000         321.668    21950956.102  
  21069584.391   110721420.28107        46.000        -107.867    86276427.85508
        48.000         -84.066    21069585.734  
  22400023.914   117712927.53907        45.000        -225.461    91724366.78105
        33.000        -175.695    22400026.109  
  22574367.992   118629119.84807        45.000        1447.504    92438294.30907
        47.000        1127.891    22574369.117  
  23369260.898   122806357.20707        44.000        3265.184    95693237.27705
        32.000        2544.262    23369267.953  
  19594302.766   104448698.03108        51.000        1896.332    81237850.84808
        50.000        1474.824    19594303.891  
  23283952.023   124422393.92206        39.000        4072.840    96772969.68405
        32.000        3167.289    23283953.172  
  20316307.938   108487867.62506        41.000       -2411.191    84379456.83206
        40.000       -1875.410    20316309.164  
  20065874.656   107301244.11708        51.000       -2015.984    83456478.47708
        51.000       -1568.020    20065875.789  
  23390379.914   125122761.48005        32.000       -3583.813                  
                                                
  20667109.797   110593836.31308        48.000        1246.215    86017461.47708
        49.000         969.301    20667111.148  
 23  7 24 21 11 53.0000000  0 15G24G11G28G25G29G12G20G05G18R14R15R13            
                                R24R23R17                                       
  22691287.602   119243494.49207        46.000       -3205.125    92917042.87108
        49.000       -2497.512    22691296.828  
  22810274.781   119868719.29307        43.000       -3013.434    93404263.29704
        28.000       -2348.105    22810275.727  
  23815790.523   125152805.03107        43.000        2240.559    97521691.32403
        22.000        1745.906    23815794.156  
  21062311.672   110683121.59008        48.000        1961.281    86246690.14806
        40.000        1528.273    21062315.469  
  21950877.609   115352649.06608        48.000         412.797    89885187.09808
        50.000         321.656    21950879.055  
  21069606.203   110721536.12107        46.000        -108.203    86276518.12108
        48.000         -84.309    21069607.766  
  22400068.273   117713161.12507        45.000        -225.965    91724548.80105
        33.000        -176.078    22400070.555  
  22574094.227   118627680.26607        45.000        1447.387    92437172.55507
        47.000        1127.832    22574095.164  
  23368641.227   122803100.25807        44.000        3264.777    95690699.40205
        32.000        2543.977    23368648.211  
  19593948.570   104446809.91408        51.000        1895.719    81236382.31308
        50.000        1474.559    19593949.719  
  23283191.203   124418328.80506        40.000        4073.648    96769807.89105
        33.000        3168.551    23283192.750  
  20316760.898   108490286.93007        42.000       -2411.121    84381338.53106
        40.000       -1875.902    20316762.383  
  20066253.250   107303268.24208        51.000       -2016.289    83458052.78908
        51.000       -1568.105    20066254.281  
  23391051.344   125126353.52305        32.000       -3583.512                  
                                                
  20666878.563   110592598.27708        49.000        1245.676    86016498.55508
        49.000         968.867    20666879.922  
 23  7 24 21 11 54.0000000  0 15G24G11G28G25G29G12G20G05G18R14R15R13            
                                R24R23R17                                       
  22691897.109   119246697.34807        46.000       -3205.145    92919538.60208
        49.000       -2497.504    22691906.273  
  22810847.672   119871730.31607        43.000       -3013.547    93406609.54304
        28.000       -2348.219    22810848.711  
  23815363.719   125150562.29707        43.000        2240.316    97519943.74203
        22.000        1745.676    23815367.461  
  21061938.219   110681157.97308        48.000        1961.145    86245160.05506
        40.000        1528.168    21061941.789  
  21950798.703   115352234.01208        48.000         412.715    89884863.68008
        50.000         321.598    21950800.117  
  21069626.359   110721642.12907        46.000        -108.469    86276600.72708
        48.000         -84.504    21069627.961  
  22400110.930   117713385.08607        45.000        -226.543    91724723.31305
        33.000        -176.543    22400113.164  
  22573818.117   118626230.84407        45.000        1446.910    92436043.13707
        47.000        1127.453    22573819.336  
  23368019.617   122799833.38307        44.000        3264.281    95688153.79305
        32.000        2543.570    23368026.586  
  19593592.508   104444912.06308        51.000        1895.328    81234906.21108
        50.000        1474.035    19593593.719  
  23282428.586   124414253.37506        40.000        4073.070    96766638.13305
        32.000        3167.480    23282430.109  
  20317212.188   108492696.55107        42.000       -2412.125    84383212.66006
        41.000       -1876.199    20317213.820  
  20066630.102   107305282.35208        51.000       -2016.566    83459619.32808
        51.000       -1568.516    20066630.992  
  23391721.273   125129934.96105        32.000       -3583.203                  
                                                
  20666645.727   110591350.41808        49.000        1245.305    86015528.00808
        49.000         968.516    20666646.836  
 23  7 24 21 11 55.0000000  0 15G24G11G28G25G29G12G20G05G18R14R15R13            
                                R24R23R17                                       
  22692504.922   119249891.11307        46.000       -3205.309    92922027.24608
        49.000       -2497.652    22692513.984  
  22811418.805   119874732.32007        42.000       -3013.004    93408948.76604
        28.000       -2347.797    22811419.977  
  23814935.500   125148310.76607        42.000        2239.723    97518189.30503
        22.000        1745.188    23814938.992  
  21061562.750   110679185.30908        48.000        1961.254    86243622.91806
        40.000        1528.242    21061566.414  
  21950717.969   115351809.82008        48.000         412.773    89884533.14108
        50.000         321.641    21950719.406  
  21069644.750   110721739.24207        46.000        -108.609    86276676.39808
        48.000         -84.641    21069646.453  
  22400151.977   117713600.35907        45.000        -226.906    91724891.06305
        33.000        -176.820    22400154.133  
  22573540.672   118624772.54307        45.000        1446.715    92434906.80507
        47.000        1127.309    22573541.805  
  23367396.109   122796557.51607        44.000        3264.344    95685601.16805
        32.000        2543.609    23367403.203  
  19593234.789   104443005.46908        51.000        1894.750    81233423.30108
        50.000        1473.652    19593236.094  
  23281664.367   124410168.56606        40.000        4073.313    96763461.07405
        33.000        3167.785    23281666.555  
  20317661.750   108495097.44907        42.000       -2413.004    84385080.02306
        41.000       -1876.473    20317663.430  
  20067005.133   107307287.43408        51.000       -2016.727    83461178.82808
        51.000       -1568.629    20067005.820  
  23392388.570   125133506.88305        32.000       -3584.227                  
                                                
  20666410.961   110590093.69508        49.000        1244.977    86014550.55908
        48.000         968.266    20666412.008  
 23  7 24 21 11 56.0000000  0 15G24G11G28G25G29G12G20G05G18R14R15R13            
                                R24R23R17                                       
  22693114.641   119253095.27307        46.000       -3205.238    92924523.99208
        49.000       -2497.586    22693123.672  
  22811992.109   119877744.86307        43.000       -3013.813    93411296.20304
        28.000       -2348.402    22811993.164  
  23814509.000   125146069.95707        43.000        2239.379    97516443.21503
        22.000        1744.945    23814512.539  
  21061189.164   110677223.14108        48.000        1961.012    86242093.95306
        41.000        1528.066    21061193.063  
  21950639.211   115351396.02708        48.000         412.477    89884210.70708
        50.000         321.391    21950640.664  
  21069665.453   110721846.98407        46.000        -109.063    86276760.35908
        48.000         -84.965    21069666.930  
  22400194.898   117713826.48807        45.000        -227.621    91725067.27305
        33.000        -177.391    22400197.141  
  22573265.195   118623324.89807        45.000        1446.273    92433778.77307
        47.000        1126.977    22573266.313  
  23366775.039   122793292.20307        44.000        3263.855    95683056.77705
        32.000        2543.234    23366781.867  
  19592879.141   104441109.96508        51.000        1894.023    81231949.02008
        50.000        1473.133    19592880.531  
  23280901.523   124406094.23006        40.000        4073.109    96760292.13705
        32.000        3167.605    23280903.188  
  20318113.328   108497509.43407        42.000       -2414.023    84386956.00806
        41.000       -1877.340    20318115.008  
  20067382.023   107309303.29708        51.000       -2017.137    83462746.73008
        51.000       -1568.855    20067382.789  
  23393057.320   125137089.11705        31.000       -3584.148                  
                                                
  20666177.906   110588847.99208        49.000        1244.160    86013581.68008
        48.000         967.773    20666179.258  
 23  7 24 21 11 57.0000000  0 15G24G11G28G25G29G12G20G05G18R14R15R13            
                                R24R23R17                                       
  22693727.422   119256314.92207        46.000       -3205.516    92927032.80508
        49.000       -2497.773    22693736.305  
  22812568.586   119880772.98407        43.000       -3013.918    93413655.77004
        28.000       -2348.508    22812569.422  
  23814085.313   125143844.93007        43.000        2238.973    97514709.43403
        21.000        1744.621    23814089.164  
  21060818.891   110675276.51608        48.000        1960.781    86240577.10206
        41.000        1527.887    21060822.648  
  21950563.383   115350997.67208        48.000         412.418    89883900.30508
        50.000         321.363    21950564.867  
  21069688.992   110721970.41807        46.000        -109.305    86276856.54708
        48.000         -85.184    21069690.406  
  22400240.711   117714068.50407        45.000        -228.203    91725255.86305
        33.000        -177.832    22400243.188  
  22572992.609   118621892.94107        45.000        1446.055    92432662.96907
        47.000        1126.793    22572993.805  
  23366156.586   122790042.49607        44.000        3263.668    95680524.54305
        32.000        2543.113    23366163.492  
  19592526.539   104439230.69908        51.000        1893.461    81230487.35908
        50.000        1472.719    19592528.039  
  23280142.031   124402035.51206        40.000        4073.145    96757135.35205
        32.000        3168.539    23280143.766  
  20318568.242   108499937.62107        42.000       -2414.234    84388844.59806
        41.000       -1877.293    20318569.680  
  20067762.055   107311335.09808        51.000       -2017.371    83464327.02008
        51.000       -1569.039    20067762.719  
  23393729.656   125140686.80505        31.000       -3584.086                  
                                                
  20665948.141   110587618.48408        49.000        1243.816    86012625.39508
        48.000         967.457    20665949.469  
 23  7 24 21 11 58.0000000  0 15G24G11G28G25G29G12G20G05G18R14R15R13            
                                R24R23R17                                       
  22694338.836   119259528.10207        46.000       -3205.719    92929536.57408
        49.000       -2497.953    22694347.719  
  22813143.633   119883794.74207        43.000       -3014.500    93416010.38304
        28.000       -2348.953    22813144.430  
  23813660.969   125141613.73407        43.000        2238.492    97512970.84003
        21.000        1744.289    23813664.648  
  21060447.289   110673323.48808        48.000        1960.477    86239055.26206
        41.000        1527.645    21060451.016  
  21950486.516   115350592.82008        49.000         412.242    89883584.83608
        50.000         321.215    21950487.883  
  21069711.117   110722087.61307        46.000        -109.949    86276947.86708
        48.000         -85.664    21069712.734  
  22400285.859   117714304.46907        45.000        -228.676    91725439.73405
        33.000        -178.207    22400288.063  
  22572718.766   118620454.74607        45.000        1445.637    92431542.29707
        47.000        1126.465    22572720.109  
  23365537.219   122786786.43407        44.000        3263.461    95677987.35205
        32.000        2542.969    23365543.945  
  19592172.891   104437345.38708        51.000        1892.727    81229021.02008
        50.000        1471.988    19592174.391  
  23279381.563   124397970.11706        40.000        4072.887    96753973.38705
        32.000        3168.121    23279383.148  
  20319021.797   108502359.74607        42.000       -2414.781    84390728.46506
        41.000       -1877.973    20319023.367  
  20068141.117   107313360.54308        51.000       -2017.813    83465902.36308
        50.000       -1569.430    20068141.547  
  23394400.539   125144277.66005        30.000       -3583.375                  
                                                
  20665717.625   110586382.83208        49.000        1243.105    86011664.33608
        48.000         966.758    20665718.742  
