     2.10           OBSERVATION DATA    M (MIXED)           RINEX VERSION / TYPE
ComNav                                                      PGM / RUN BY / DATE 
comnav12                                                    MARKER NAME         
                                                            OBSERVER / AGENCY   
N31L04806           ComNav              55.0                REC # / TYPE / VERS 
                    Unknown                                 ANT # / TYPE        
  3752778.2051 -4538402.1884 -2442731.4069                  APPROX POSITION XYZ 
        1.8000        0.0000        0.0000                  ANTENNA: DELTA H/E/N
     1     1                                                WAVELENGTH FACT L1/2
     8    C1    L1    S1    D1    L2    S2    D2    P2      # / TYPES OF OBSERV 
     1.000                                                  INTERVAL
  2023     7    24    21    22   53.000000      GPS         TIME OF FIRST OBS   
                                                            END OF HEADER       
 23  7 24 21 22 53.0000000  0 14G24G11G28G25G29G12G20G05G18R14R15R13            
                                R24R17                                          
  23099420.383   121388243.15207        42.000       -3286.230    94588273.05906
        41.000       -2560.707    23099428.914  
  23198637.391   121909570.75807        43.000       -3163.879    94994516.19504
        25.000       -2465.336    23198640.016  
  23553983.461   123777054.12507        44.000        1923.180    96449636.52703
        21.000        1498.602    23553986.539  
  20826184.734   109442269.84008        51.000        1792.168    85279771.64106
        37.000        1396.480    20826188.375  
  21904101.359   115106845.03108        49.000         334.406    89693652.09007
        43.000         260.598    21904100.727  
  21099220.719   110877159.61708        49.000        -366.828    86397783.43407
        46.000        -285.852    21099220.922  
  22452735.586   117989933.38306        41.000        -613.301    91940174.82803
        23.000        -477.910    22452736.883  
  22409015.695   117760192.39107        45.000        1175.406    91761209.19906
        38.000         915.887    22409017.633  
  22971153.852   120714304.41807        47.000        3058.941    94063070.07405
        30.000        2383.598    22971158.039  
  19387239.859   103344938.77708        51.000        1434.434    80379372.00008
        49.000        1115.645    19387241.219  
  22783528.219   121748400.66408        49.000        4007.809    94693153.00807
        47.000        3117.223    22783527.711  
  20641482.453   110224280.03506        38.000       -2836.805    85729999.08206
        41.000       -2206.098    20641484.813  
  20329110.367   108708878.05908        49.000       -2233.793    84551270.31606
        39.000       -1737.828    20329108.664  
  20536684.414   109895895.78508        51.000         867.578    85474619.94907
        47.000         674.652    20536682.391  
 23  7 24 21 22 54.0000000  0 14G24G11G28G25G29G12G20G05G18R14R15R13            
                                R24R17                                          
  23100047.133   121391536.56607        42.000       -3286.375    94590839.36306
        41.000       -2560.820    23100055.656  
  23199240.711   121912741.75007        43.000       -3163.852    94996987.09404
        25.000       -2465.336    23199243.438  
  23553618.516   123775138.44507        43.000        1922.867    96448143.78503
        21.000        1498.352    23553622.031  
  20825845.117   109440485.08208        50.000        1791.727    85278380.92206
        37.000        1396.148    20825848.750  
  21904039.094   115106517.84808        50.000         334.234    89693397.13707
        43.000         260.434    21904038.430  
  21099292.000   110877533.93408        49.000        -367.395    86398075.11307
        46.000        -286.293    21099292.164  
  22452853.820   117990554.17606        41.000        -613.824    91940658.57004
        25.000        -478.309    22452855.016  
  22408793.516   117759024.40207        45.000        1174.789    91760299.08606
        41.000         915.410    22408795.289  
  22970573.328   120711252.81607        47.000        3058.609    94060692.20305
        30.000        2383.348    22970577.273  
  19386972.297   103343512.08208        51.000        1433.621    80378262.35208
        49.000        1115.105    19386973.555  
  22782779.969   121744400.33608        49.000        4007.535    94690041.66007
        46.000        3116.801    22782779.164  
  20642015.352   110227124.48806        38.000       -2837.113    85732211.45306
        41.000       -2207.098    20642017.555  
  20329529.609   108711119.52008        49.000       -2234.148    84553013.67206
        39.000       -1738.117    20329527.813  
  20536523.742   109895035.99608        51.000         866.805    85473951.22307
        47.000         674.234    20536521.914  
 23  7 24 21 22 55.0000000  0 14G24G11G28G25G29G12G20G05G18R14R15R13            
                                R24R17                                          
  23100671.477   121394817.89807        42.000       -3286.316    94593396.25006
        41.000       -2560.762    23100680.117  
  23199842.047   121915900.78907        43.000       -3164.148    94999448.68804
        25.000       -2465.570    23199844.617  
  23553251.797   123773211.10507        43.000        1922.043    96446641.96104
        27.000        1497.738    23553255.336  
  20825503.383   109438688.44908        50.000        1791.340    85276980.94906
        41.000        1395.840    20825506.852  
  21903974.531   115106178.61708        49.000         334.047    89693132.80107
        43.000         260.301    21903973.844  
  21099360.945   110877896.49608        49.000        -367.910    86398357.62908
        51.000        -286.672    21099361.164  
  22452969.727   117991163.39806        41.000        -614.754    91941133.29704
        25.000        -479.070    22452971.055  
  22408568.953   117757844.69507        44.000        1174.164    91759379.84006
        41.000         914.969    22408570.695  
  22969990.328   120708189.39507        46.000        3058.043    94058305.12105
        30.000        2382.879    22969994.297  
  19386702.469   103342073.77308        51.000        1432.781    80377143.66408
        49.000        1114.434    19386703.750  
  22782029.102   121740387.78108        49.000        4007.313    94686920.78107
        46.000        3116.566    22782028.258  
  20642545.375   110229957.21906        38.000       -2838.223    85734414.68406
        41.000       -2207.414    20642547.977  
  20329946.563   108713348.87908        49.000       -2234.547    84554747.60506
        38.000       -1737.684    20329945.133  
  20536360.734   109894164.38308        51.000         866.273    85473273.30107
        47.000         673.840    20536359.047  
 23  7 24 21 22 56.0000000  0 14G24G11G28G25G29G12G20G05G18R14R15R13            
                                R24R17                                          
  23101296.156   121398101.37907        42.000       -3286.680    94595954.80906
        41.000       -2561.031    23101304.977  
  23200443.398   121919062.07007        43.000       -3164.594    95001912.02304
        28.000       -2465.887    23200446.156  
  23552885.383   123771286.31607        43.000        1921.313    96445142.12504
        27.000        1497.133    23552889.047  
  20825161.930   109436894.14508        50.000        1790.973    85275582.79306
        41.000        1395.555    20825165.422  
  21903910.531   115105841.53908        49.000         333.742    89692870.14108
        48.000         260.070    21903909.695  
  21099430.375   110878261.50408        49.000        -368.469    86398642.05908
        51.000        -287.125    21099430.633  
  22453086.016   117991775.24606        41.000        -615.129    91941610.07404
        25.000        -479.332    22453087.547  
  22408345.008   117756667.44107        44.000        1173.813    91758462.51206
        41.000         914.648    22408346.555  
  22969407.656   120705128.34807        46.000        3057.703    94055919.89105
        30.000        2382.629    22969411.719  
  19386433.148   103340638.28108        51.000        1431.988    80376027.16808
        49.000        1113.840    19386434.375  
  22781278.414   121736377.46108        49.000        4007.109    94683801.63307
        46.000        3116.684    22781277.586  
  20643076.211   110232792.66806        38.000       -2838.637    85736620.03906
        41.000       -2208.348    20643078.938  
  20330363.805   108715580.62108        49.000       -2235.156    84556483.40606
        38.000       -1738.168    20330362.227  
  20536197.992   109893295.39508        51.000         865.625    85472597.40607
        47.000         673.336    20536196.602  
 23  7 24 21 22 57.0000000  0 14G24G11G28G25G29G12G20G05G18R14R15R13            
                                R24R17                                          
  23101923.203   121401396.97706        41.000       -3286.949    94598522.81607
        46.000       -2561.254    23101932.148  
  23201047.492   121922235.56607        43.000       -3164.723    95004384.88704
        28.000       -2466.023    23201050.055  
  23552521.398   123769374.04707        43.000        1921.105    96443652.04704
        27.000        1496.957    23552525.164  
  20824822.906   109435112.16408        50.000        1790.695    85274194.24206
        41.000        1395.340    20824826.320  
  21903848.555   115105516.58608        49.000         333.816    89692616.93008
        48.000         260.113    21903847.875  
  21099502.188   110878638.96908        49.000        -368.949    86398936.18808
        51.000        -287.488    21099502.461  
  22453204.563   117992399.72306        41.000        -615.754    91942096.68404
        25.000        -479.816    22453206.422  
  22408123.305   117755502.67207        44.000        1173.465    91757554.89806
        41.000         914.375    22408124.820  
  22968827.781   120702079.68007        46.000        3057.211    94053544.30905
        35.000        2382.230    22968831.539  
  19386166.344   103339215.76608        51.000        1431.141    80374920.77308
        49.000        1113.180    19386167.461  
  22780530.234   121732379.53508        49.000        4006.965    94680692.14807
        46.000        3116.434    22780529.523  
  20643609.719   110235640.96506        38.000       -2839.645    85738835.37106
        41.000       -2208.520    20643612.297  
  20330783.422   108717824.91408        49.000       -2235.387    84558228.95306
        39.000       -1738.348    20330782.016  
  20536038.039   109892439.19508        51.000         864.902    85471931.48407
        47.000         672.695    20536036.648  
 23  7 24 21 22 58.0000000  0 14G24G11G28G25G29G12G20G05G18R14R15R13            
                                R24R17                                          
  23102549.352   121404684.93807        42.000       -3286.629    94601084.85907
        46.000       -2561.023    23102557.875  
  23201650.133   121925401.56607        43.000       -3164.605    95006851.89804
        28.000       -2465.914    23201652.484  
  23552156.125   123767454.57007        43.000        1920.504    96442156.34804
        27.000        1496.523    23552159.977  
  20824482.320   109433322.75008        50.000        1790.555    85272799.89506
        41.000        1395.238    20824485.773  
  21903785.344   115105184.03508        49.000         333.883    89692357.80108
        48.000         260.168    21903784.594  
  21099572.766   110879009.11708        49.000        -368.887    86399224.61308
        51.000        -287.445    21099572.898  
  22453322.625   117993017.10506        41.000        -616.488    91942577.76604
        27.000        -480.363    22453323.938  
  22407900.375   117754330.64107        44.000        1173.129    91756641.62907
        42.000         914.125    22407901.703  
  22968246.195   120699023.63307        46.000        3057.301    94051162.97305
        35.000        2382.309    22968249.961  
  19385898.109   103337786.15208        51.000        1430.711    80373808.85508
        49.000        1112.648    19385899.133  
  22779780.750   121728373.93008        49.000        4006.988    94677576.67207
        46.000        3116.473    22779779.844  
  20644142.234   110238482.03906        38.000       -2839.809    85741045.09806
        41.000       -2208.965    20644144.570  
  20331201.813   108720061.62908        49.000       -2235.352    84559968.64106
        39.000       -1738.840    20331200.695  
  20535876.805   109891575.71508        51.000         864.641    85471259.88707
        47.000         672.426    20535875.461  
 23  7 24 21 22 59.0000000  0 14G24G11G28G25G29G12G20G05G18R14R15R13            
                                R24R17                                          
  23103172.117   121407958.76206        41.000       -3286.797    94603635.88707
        46.000       -2561.133    23103180.930  
  23202250.195   121928553.53107        43.000       -3165.230    95009307.97704
        28.000       -2466.422    23202252.219  
  23551788.641   123765521.37107        42.000        1920.031    96440649.96104
        28.000        1496.109    23551792.180  
  20824138.969   109431519.39808        50.000        1790.336    85271394.68806
        41.000        1395.063    20824142.594  
  21903719.469   115104837.36308        49.000         333.750    89692087.66808
        48.000         260.070    21903718.633  
  21099640.477   110879365.45308        49.000        -369.309    86399502.27708
        51.000        -287.773    21099640.703  
  22453437.719   117993620.82406        41.000        -616.906    91943048.19904
        27.000        -480.730    22453438.766  
  22407674.555   117753144.79307        44.000        1172.859    91755717.59807
        42.000         913.902    22407675.961  
  22967662.172   120695953.69507        46.000        3057.055    94048770.81305
        35.000        2382.109    22967665.750  
  19385627.289   103336342.81608        51.000        1429.980    80372686.26208
        49.000        1112.188    19385628.461  
  22779028.516   121724354.01608        49.000        4006.621    94674450.05507
        46.000        3116.527    22779027.477  
  20644671.453   110241309.29706        38.000       -2841.129    85743244.03906
        41.000       -2209.070    20644674.008  
  20331617.563   108722284.14508        48.000       -2235.559    84561697.25806
        39.000       -1738.844    20331616.344  
  20535712.625   109890698.34408        51.000         864.000    85470577.48807
        47.000         672.203    20535711.664  
 23  7 24 21 23  0.0000000  0 14G24G11G28G25G29G12G20G05G18R14R15R13            
                                R24R17                                          
  23103796.656   121411239.61306        41.000       -3286.887    94606192.38307
        46.000       -2561.203    23103805.289  
  23202851.383   121931712.61707        43.000       -3165.094    95011769.60904
        28.000       -2466.324    23202853.406  
  23551421.820   123763595.63307        43.000        1919.277    96439149.39504
        28.000        1495.551    23551425.766  
  20823797.289   109429723.27008        50.000        1790.047    85269995.10906
        41.000        1394.832    20823800.789  
  21903654.750   115104497.73808        49.000         333.652    89691823.02708
        48.000         259.984    21903654.008  
  21099709.625   110879729.14508        49.000        -369.793    86399785.67608
        51.000        -288.145    21099709.914  
  22453554.133   117994232.09006        41.000        -617.457    91943524.52004
        27.000        -481.148    22453555.141  
  22407450.320   117751966.33607        44.000        1172.344    91754799.32407
        42.000         913.508    22407451.617  
  22967079.344   120692891.03907        46.000        3056.523    94046384.33605
        35.000        2381.695    22967082.891  
  19385357.930   103334907.25808        51.000        1429.219    80371569.72308
        49.000        1111.367    19385359.156  
  22778277.469   121720341.28908        49.000        4006.641    94671329.07407
        46.000        3116.145    22778276.633  
  20645202.203   110244144.16006        38.000       -2840.969    85745448.96906
        41.000       -2210.047    20645204.750  
  20332034.281   108724514.00408        49.000       -2236.188    84563431.59406
        39.000       -1739.250    20332033.703  
  20535549.719   109889828.59008        51.000         863.223    85469901.01607
        47.000         671.484    20535549.055  
 23  7 24 21 23  1.0000000  0 14G24G11G28G25G29G12G20G05G18R14R15R13            
                                R24R17                                          
  23104423.789   121414536.64106        41.000       -3287.113    94608761.49207
        46.000       -2561.395    23104432.727  
  23203455.164   121934888.02307        43.000       -3165.520    95014243.94904
        28.000       -2466.602    23203457.695  
  23551058.703   123761686.48807        43.000        1919.051    96437661.75004
        28.000        1495.379    23551062.539  
  20823458.367   109427943.54308        50.000        1789.543    85268608.31306
        41.000        1394.453    20823462.109  
  21903593.070   115104174.32008        49.000         333.387    89691571.01608
        48.000         259.777    21903592.461  
  21099781.992   110880109.34808        49.000        -370.230    86400081.94508
        51.000        -288.492    21099782.258  
  22453673.852   117994860.05106        41.000        -618.055    91944013.83204
        27.000        -481.637    22453674.656  
  22407229.016   117750804.41407        44.000        1171.598    91753893.94107
        42.000         912.922    22407230.422  
  22966499.547   120689844.81607        46.000        3056.223    94044010.66405
        35.000        2381.461    22966503.211  
  19385091.844   103333488.78108        51.000        1428.281    80370466.44908
        49.000        1111.070    19385093.148  
  22777529.422   121716345.09008        49.000        4006.371    94668220.91807
        46.000        3115.875    22777528.781  
  20645736.617   110246996.06606        38.000       -2842.051    85747667.09806
        41.000       -2210.406    20645738.945  
  20332454.398   108726760.57008        48.000       -2236.438    84565178.93806
        39.000       -1739.645    20332453.930  
  20535390.203   109888975.76608        51.000         862.766    85469237.71907
        47.000         671.008    20535389.609  
 23  7 24 21 23  2.0000000  0 14G24G11G28G25G29G12G20G05G18R14R15R13            
                                R24R17                                          
  23105051.000   121417833.48806        41.000       -3286.727    94611330.45707
        46.000       -2561.109    23105060.141  
  23204059.492   121938063.32807        43.000       -3165.539    95016718.21504
        28.000       -2466.637    23204061.953  
  23550695.422   123759777.55507        43.000        1918.473    96436174.27704
        28.000        1494.938    23550699.273  
  20823119.828   109426163.81608        50.000        1789.379    85267221.51206
        41.000        1394.324    20823123.406  
  21903531.438   115103850.72708        49.000         333.301    89691318.86708
        48.000         259.715    21903530.883  
  21099854.438   110880489.68408        49.000        -370.914    86400378.30908
        51.000        -289.023    21099854.648  
  22453793.203   117995488.30906        41.000        -618.758    91944503.38704
        27.000        -482.156    22453794.180  
  22407007.945   117749642.67207        44.000        1171.242    91752988.68407
        42.000         912.656    22407009.281  
  22965919.672   120686798.66007        46.000        3055.695    94041637.03905
        35.000        2381.059    22965923.516  
  19384825.898   103332070.79308        51.000        1427.574    80369363.57808
        49.000        1110.242    19384827.211  
  22776781.797   121712348.74608        49.000        4006.148    94665112.63707
        47.000        3115.898    22776781.078  
  20646271.242   110249848.27706        38.000       -2842.645    85749885.47306
        41.000       -2210.680    20646273.203  
  20332874.648   108729007.15208        49.000       -2236.980    84566926.27706
        40.000       -1739.770    20332874.523  
  20535231.008   109888123.21908        51.000         862.063    85468574.62907
        47.000         670.457    20535230.445  
 23  7 24 21 23  3.0000000  0 14G24G11G28G25G29G12G20G05G18R14R15R13            
                                R24R17                                          
  23105676.141   121421116.78506        41.000       -3287.141    94613888.85907
        46.000       -2561.406    23105684.977  
  23204661.141   121941225.21107        42.000       -3165.891    95019182.02004
        28.000       -2466.918    23204663.602  
  23550329.695   123757855.48807        43.000        1918.340    96434676.57004
        28.000        1494.797    23550333.555  
  20822778.586   109424370.72708        50.000        1789.363    85265824.29706
        41.000        1394.316    20822782.141  
  21903467.430   115103513.59808        49.000         333.422    89691056.17208
        48.000         259.813    21903466.711  
  21099924.063   110880856.77308        49.000        -370.941    86400664.35208
        51.000        -289.055    21099924.508  
  22453910.148   117996103.51606        41.000        -618.715    91944982.76604
        27.000        -482.133    22453911.281  
  22406784.336   117748467.72707        43.000        1171.063    91752073.14507
        42.000         912.520    22406785.641  
  22965337.609   120683739.19507        46.000        3055.574    94039253.04705
        35.000        2380.973    22965341.320  
  19384557.430   103330639.72308        51.000        1427.043    80368250.51608
        49.000        1109.930    19384558.766  
  22776031.391   121708338.64808        49.000        4006.129    94661993.69107
        47.000        3115.953    22776030.688  
  20646802.656   110252687.19906        38.000       -2842.656    85752093.56306
        41.000       -2211.512    20646804.945  
  20333292.195   108731240.11708        49.000       -2236.680    84568663.03106
        40.000       -1739.953    20333292.266  
  20535069.266   109887257.34808        51.000         861.680    85467901.18007
        47.000         670.180    20535068.742  
 23  7 24 21 23  4.0000000  0 14G24G11G28G25G29G12G20G05G18R14R15R13            
                                R24R17                                          
  23106300.195   121424395.66806        41.000       -3287.141    94616443.83207
        46.000       -2561.406    23106308.969  
  23205261.805   121944382.75807        42.000       -3166.090    95021642.45704
        28.000       -2467.105    23205264.438  
  23549963.078   123755929.43007        43.000        1917.648    96433175.73804
        28.000        1494.273    23549967.102  
  20822436.539   109422573.45308        50.000        1788.824    85264423.82406
        41.000        1393.898    20822440.117  
  21903402.375   115103172.09408        49.000         333.156    89690790.06608
        48.000         259.594    21903401.711  
  21099993.141   110881219.78508        49.000        -371.473    86400947.22308
        51.000        -289.465    21099993.594  
  22454026.336   117996714.83206        41.000        -619.730    91945459.12504
        27.000        -482.906    22454027.648  
  22406559.852   117747288.73007        43.000        1170.695    91751154.44507
        42.000         912.227    22406561.211  
  22964754.563   120680675.57007        46.000        3055.313    94036865.80905
        35.000        2380.742    22964758.297  
  19384288.125   103329204.84008        51.000        1426.148    80367134.49608
        49.000        1109.262    19384289.617  
  22775280.070   121704324.16008        49.000        4006.043    94658871.29707
        46.000        3115.855    22775279.477  
  20647333.227   110255522.20706        38.000       -2843.145    85754298.55506
        41.000       -2211.879    20647335.844  
  20333708.883   108733468.79308        48.000       -2237.270    84570396.43406
        40.000       -1739.961    20333709.211  
  20534906.555   109886387.47708        51.000         861.121    85467224.59808
        48.000         670.035    20534906.039  
 23  7 24 21 23  5.0000000  0 14G24G11G28G25G29G12G20G05G18R14R15R13            
                                R24R17                                          
  23106926.398   121427686.60207        42.000       -3287.098    94619008.19107
        45.000       -2561.375    23106935.250  
  23205865.250   121947552.50007        42.000       -3166.277    95024112.38304
        28.000       -2467.207    23205867.609  
  23549599.289   123754015.86707        42.000        1916.859    96431684.65604
        28.000        1493.652    23549602.938  
  20822097.000   109420788.42608        50.000        1788.453    85263032.89506
        41.000        1393.598    20822100.430  
  21903339.703   115102842.64808        48.000         332.898    89690533.35508
        48.000         259.398    21903339.016  
  21100064.461   110881595.18408        49.000        -372.098    86401239.74208
        51.000        -289.941    21100065.039  
  22454145.484   117997338.71906        41.000        -620.500    91945945.27004
        27.000        -483.504    22454146.430  
  22406338.156   117746122.16807        43.000        1169.703    91750245.44507
        42.000         911.449    22406339.133  
  22964174.047   120677624.27007        46.000        3054.656    94034488.17605
        35.000        2380.250    22964177.609  
  19384021.281   103327782.82808        51.000        1425.199    80366028.49208
        49.000        1108.492    19384022.781  
  22774531.016   121700321.98408        49.000        4005.738    94655758.51207
        46.000        3115.402    22774530.617  
  20647866.320   110258370.00406        38.000       -2844.219    85756513.49206
        41.000       -2212.387    20647868.859  
  20334127.742   108735709.94508        48.000       -2237.613    84572139.53906
        40.000       -1740.180    20334128.492  
  20534746.102   109885530.34808        51.000         860.414    85466557.95308
        48.000         669.152    20534745.781  
 23  7 24 21 23  6.0000000  0 14G24G11G28G25G29G12G20G05G18R14R15R13            
                                R24R17                                          
  23107553.430   121430981.20307        42.000       -3287.410    94621575.41407
        45.000       -2561.578    23107562.227  
  23206469.063   121950726.00807        42.000       -3166.449    95026585.25004
        28.000       -2467.379    23206471.563  
  23549235.820   123752106.35907        43.000        1916.348    96430196.72704
        28.000        1493.258    23549239.594  
  20821758.109   109419007.25008        50.000        1788.211    85261644.96906
        41.000        1393.414    20821761.461  
  21903277.586   115102516.89108        48.000         333.031    89690279.51608
        48.000         259.500    21903277.016  
  21100136.813   110881974.55908        49.000        -372.313    86401535.35908
        51.000        -290.105    21100137.242  
  22454265.297   117997966.77006        41.000        -621.512    91946434.65604
        27.000        -484.266    22454266.023  
  22406116.766   117744959.60907        43.000        1169.582    91749339.55507
        42.000         911.352    22406117.867  
  22963594.203   120674576.85507        46.000        3054.570    94032113.57405
        35.000        2380.172    22963597.711  
  19383755.352   103326365.15608        51.000        1424.656    80364925.85908
        49.000        1108.000    19383756.766  
  22773782.875   121696323.56308        49.000        4005.617    94652648.61707
        47.000        3115.684    22773782.477  
  20648400.547   110261222.05106        38.000       -2845.664    85758731.73806
        41.000       -2212.758    20648403.289  
  20334547.891   108737955.02008        48.000       -2237.996    84573885.72706
        40.000       -1740.754    20334548.719  
  20534586.984   109884677.39508        51.000         860.117    85465894.54308
        48.000         668.969    20534586.633  
 23  7 24 21 23  7.0000000  0 14G24G11G28G25G29G12G20G05G18R14R15R13            
                                R24R17                                          
  23108178.039   121434263.39507        42.000       -3287.371    94624132.95707
        45.000       -2561.566    23108186.844  
  23207070.727   121953887.21107        42.000       -3166.527    95029048.52004
        28.000       -2467.434    23207073.070  
  23548870.242   123750184.87907        43.000        1915.934    96428699.48004
        28.000        1492.930    23548873.953  
  20821416.992   109417213.89108        50.000        1787.898    85260247.54306
        41.000        1393.164    20821420.156  
  21903213.148   115102178.75808        48.000         332.719    89690016.04308
        48.000         259.258    21903212.656  
  21100206.789   110882341.86308        49.000        -372.793    86401821.57008
        51.000        -290.488    21100207.141  
  22454382.727   117998582.91006        41.000        -621.836    91946914.76204
        27.000        -484.547    22454383.352  
  22405893.391   117743785.01607        43.000        1169.258    91748424.28907
        42.000         911.105    22405894.336  
  22963011.953   120671517.31307        46.000        3054.207    94029729.52705
        35.000        2379.871    22963015.484  
  19383487.164   103324935.56308        51.000        1423.824    80363813.94908
        49.000        1107.422    19383488.641  
  22773032.164   121692312.62508        48.000        4005.441    94649529.00807
        47.000        3115.270    22773031.922  
  20648932.703   110264062.03506        38.000       -2845.789    85760940.62507
        42.000       -2213.418    20648935.242  
  20334965.563   108740187.68808        48.000       -2238.453    84575622.21106
        40.000       -1740.797    20334966.344  
  20534425.477   109883812.29308        51.000         859.348    85465221.69108
        48.000         668.508    20534425.078  
 23  7 24 21 23  8.0000000  0 14G24G11G28G25G29G12G20G05G18R14R15R13            
                                R24R17                                          
  23108802.016   121437541.83607        42.000       -3287.621    94626687.59007
        45.000       -2561.777    23108810.734  
  23207671.500   121957044.76207        42.000       -3166.555    95031508.94504
        28.000       -2467.449    23207674.031  
  23548503.805   123748260.05507        43.000        1915.578    96427199.61304
        28.000        1492.656    23548507.719  
  20821074.898   109415416.95308        50.000        1787.793    85258847.33606
        41.000        1393.074    20821078.219  
  21903148.023   115101836.86708        48.000         332.898    89689749.64108
        48.000         259.398    21903147.578  
  21100275.977   110882705.71908        49.000        -372.938    86402105.09808
        51.000        -290.602    21100276.391  
  22454499.039   117999195.79306        41.000        -621.945    91947392.33204
        27.000        -484.652    22454500.023  
  22405669.203   117742607.00807        43.000        1168.738    91747506.35907
        42.000         910.723    22405670.133  
  22962429.352   120668454.25807        46.000        3053.914    94027342.73805
        35.000        2379.664    22962432.578  
  19383218.359   103323502.82008        51.000        1423.254    80362699.59008
        50.000        1106.891    19383219.914  
  22772280.836   121688297.91808        49.000        4005.488    94646406.45707
        47.000        3115.352    22772280.742  
  20649463.602   110266898.69106        38.000       -2846.426    85763146.92206
        41.000       -2213.707    20649466.250  
  20335382.203   108742416.69108        48.000       -2238.344    84577355.91006
        40.000       -1740.883    20335383.422  
  20534263.039   109882943.85508        51.000         858.953    85464546.23808
        48.000         667.965    20534262.547  
 23  7 24 21 23  9.0000000  0 14G24G11G28G25G29G12G20G05G18R14R15R13            
                                R24R17                                          
  23109428.063   121440832.72307        42.000       -3287.727    94629251.91007
        46.000       -2561.859    23109437.016  
  23208274.664   121960214.86707        42.000       -3167.055    95033979.16404
        28.000       -2467.848    23208277.281  
  23548139.906   123746348.06307        43.000        1915.215    96425709.75404
        28.000        1492.371    23548143.930  
  20820735.188   109413632.66808        50.000        1787.414    85257456.98806
        41.000        1392.789    20820738.680  
  21903085.320   115101507.44108        48.000         332.469    89689492.94508
        48.000         259.063    21903084.875  
  21100347.773   110883082.34008        49.000        -373.734    86402398.57008
        51.000        -291.219    21100348.070  
  22454618.273   117999821.61706        41.000        -623.035    91947879.98804
        27.000        -485.457    22454619.164  
  22405447.547   117741441.80107        43.000        1168.121    91746598.41407
        42.000         910.219    22405448.336  
  22961848.781   120665403.88707        46.000        3053.430    94024965.83605
        35.000        2379.297    22961852.156  
  19382952.008   103322083.34808        51.000        1422.441    80361595.56308
        49.000        1106.281    19382953.680  
  22771531.805   121684295.90608        49.000        4005.184    94643293.79707
        47.000        3114.840    22771531.750  
  20649996.969   110269748.53506        38.000       -2847.078    85765363.44507
        42.000       -2214.199    20649999.883  
  20335801.125   108744658.53508        48.000       -2238.781    84579099.54706
        40.000       -1741.215    20335802.828  
  20534103.023   109882088.57408        51.000         858.172    85463881.02308
        48.000         667.348    20534102.773  
 23  7 24 21 23 10.0000000  0 14G24G11G28G25G29G12G20G05G18R14R15R13            
                                R24R17                                          
  23110054.859   121444127.22307        42.000       -3287.852    94631819.05107
        46.000       -2561.953    23110063.984  
  23208878.766   121963388.69507        42.000       -3166.969    95036452.28104
        28.000       -2467.773    23208881.266  
  23547776.781   123744440.14507        43.000        1914.516    96424223.06604
        28.000        1491.828    23547780.813  
  20820396.359   109411852.20708        50.000        1787.371    85256069.61706
        41.000        1392.758    20820399.859  
  21903023.297   115101181.66008        48.000         332.699    89689239.09408
        48.000         259.238    21903022.867  
  21100420.047   110883462.90608        49.000        -373.785    86402695.10908
        51.000        -291.254    21100420.477  
  22454738.000   118000451.57006        41.000        -623.145    91948370.86304
        28.000        -485.563    22454739.109  
  22405226.180   117740280.55107        43.000        1168.023    91745693.55106
        41.000         910.137    22405227.328  
  22961269.008   120662357.39107        46.000        3053.375    94022591.94905
        35.000        2379.250    22961272.414  
  19382686.539   103320668.18808        51.000        1421.863    80360494.87908
        49.000        1105.871    19382688.219  
  22770783.727   121680297.63308        49.000        4005.137    94640184.02007
        47.000        3115.102    22770783.422  
  20650531.680   110272602.54306        38.000       -2847.527    85767583.25006
        41.000       -2214.691    20650534.508  
  20336221.344   108746904.27008        48.000       -2238.859    84580846.22706
        40.000       -1741.230    20336222.820  
  20533944.313   109881237.44508        51.000         857.969    85463219.04708
        48.000         667.148    20533943.828  
 23  7 24 21 23 11.0000000  0 14G24G11G28G25G29G12G20G05G18R14R15R13            
                                R24R17                                          
  23110679.680   121447409.74607        42.000       -3287.586    94634376.85507
        46.000       -2561.750    23110688.672  
  23209480.328   121966550.68007        42.000       -3167.105    95038916.16004
        28.000       -2467.902    23209483.008  
  23547411.445   123742520.65607        42.000        1914.145    96422727.35904
        28.000        1491.543    23547415.539  
  20820055.422   109410059.99608        50.000        1786.930    85254673.08606
        41.000        1392.406    20820058.797  
  21902959.063   115100843.93408        48.000         332.672    89688975.93008
        48.000         259.215    21902958.609  
  21100490.102   110883831.84808        49.000        -374.277    86402982.59408
        51.000        -291.645    21100490.680  
  22454855.648   118001070.06606        41.000        -623.516    91948852.80904
        28.000        -485.867    22454856.859  
  22405003.266   117739107.72707        43.000        1167.500    91744779.66006
        41.000         909.738    22405004.133  
  22960686.984   120659299.19507        46.000        3052.957    94020208.94105
        35.000        2378.926    22960690.445  
  19382419.016   103319241.52708        51.000        1421.082    80359385.25008
        49.000        1105.379    19382420.688  
  22770033.367   121676287.26208        49.000        4005.000    94637064.83207
        47.000        3115.063    22770033.047  
  20651064.070   110275444.94106        38.000       -2848.621    85769793.98406
        41.000       -2215.293    20651066.781  
  20336639.164   108749138.06608        48.000       -2239.262    84582583.63706
        41.000       -1741.496    20336640.539  
  20533783.180   109880374.57808        51.000         857.418    85462547.92208
        48.000         666.801    20533782.617  
 23  7 24 21 23 12.0000000  0 14G24G11G28G25G29G12G20G05G18R14R15R13            
                                R24R17                                          
  23111304.836   121450694.23007        42.000       -3287.746    94636936.19107
        46.000       -2561.855    23111313.734  
  23210082.156   121969714.71107        42.000       -3167.402    95041381.64104
        27.000       -2468.129    23210085.125  
  23547046.727   123740603.54307        43.000        1913.242    96421233.51604
        28.000        1490.824    23547050.750  
  20819714.648   109408269.93008        50.000        1786.555    85253278.23006
        41.000        1392.133    20819718.148  
  21902895.164   115100508.17608        48.000         332.402    89688714.30508
        48.000         259.012    21902894.703  
  21100560.914   110884203.06308        49.000        -374.777    86403271.85508
        51.000        -292.039    21100561.328  
  22454974.227   118001691.03906        41.000        -624.824    91949336.68004
        28.000        -486.852    22454975.023  
  22404780.367   117737937.16807        43.000        1167.133    91743867.53906
        41.000         909.449    22404781.352  
  22960105.211   120656243.20307        46.000        3052.465    94017827.65205
        35.000        2378.531    22960108.914  
  19382151.828   103317817.48808        51.000        1420.230    80358277.66808
        49.000        1104.734    19382153.508  
  22769283.141   121672278.91408        49.000        4004.805    94633947.23407
        47.000        3114.887    22769282.992  
  20651596.422   110278289.82806        38.000       -2848.555    85772006.68007
        42.000       -2215.504    20651599.383  
  20337057.172   108751374.05908        48.000       -2239.641    84584322.73406
        40.000       -1741.742    20337058.563  
  20533622.250   109879514.14808        51.000         856.656    85461878.69108
        48.000         666.355    20533621.695  
 23  7 24 21 23 13.0000000  0 14G24G11G28G25G29G12G20G05G18R14R15R13            
                                R24R17                                          
  23111931.883   121453990.87507        42.000       -3287.934    94639505.00007
        46.000       -2562.020    23111941.102  
  23210686.727   121972891.02307        42.000       -3167.520    95043856.69504
        27.000       -2468.184    23210689.516  
  23546684.625   123738699.01207        42.000        1913.125    96419749.46904
        28.000        1490.770    23546688.352  
  20819376.391   109406492.24608        50.000        1786.117    85251893.02006
        41.000        1391.785    20819379.867  
  21902833.602   115100184.61308        48.000         332.035    89688462.18008
        48.000         258.723    21902833.117  
  21100633.898   110884586.77008        49.000        -375.363    86403570.85208
        51.000        -292.488    21100634.344  
  22455095.156   118002324.68806        41.000        -625.680    91949830.43804
        28.000        -487.551    22455095.656  
  22404560.172   117736779.14807        43.000        1166.207    91742965.19106
        41.000         908.734    22404560.953  
  22959526.078   120653199.61707        46.000        3052.074    94015456.03905
        35.000        2378.234    22959529.742  
  19381887.148   103316406.44508        51.000        1419.316    80357180.19108
        49.000        1103.859    19381888.828  
  22768535.406   121668283.03508        49.000        4004.453    94630839.33607
        47.000        3114.563    22768535.344  
  20652132.188   110281147.65606        38.000       -2849.695    85774229.41807
        42.000       -2216.199    20652134.570  
  20337477.789   108753622.63308        48.000       -2240.039    84586071.60506
        41.000       -1741.914    20337478.859  
  20533463.984   109878666.59808        51.000         855.922    85461219.48808
        48.000         665.602    20533463.258  
 23  7 24 21 23 14.0000000  0 14G24G11G28G25G29G12G20G05G18R14R15R13            
                                R24R17                                          
  23112557.914   121457280.02307        42.000       -3287.723    94642067.96507
        46.000       -2561.836    23112567.055  
  23211289.727   121976059.97307        42.000       -3167.973    95046326.00004
        27.000       -2468.555    23211292.492  
  23546320.945   123736787.42207        43.000        1912.492    96418259.91004
        28.000        1490.266    23546324.508  
  20819036.734   109404707.25808        50.000        1786.219    85250502.12106
        41.000        1391.848    20819040.172  
  21902770.719   115099853.56608        48.000         332.242    89688204.22708
        48.000         258.891    21902770.141  
  21100705.422   110884963.29708        49.000        -375.465    86403864.25008
        51.000        -292.563    21100705.977  
  22455214.258   118002951.33207        42.000        -625.934    91950318.72704
        28.000        -487.750    22455214.969  
  22404338.008   117735614.00007        43.000        1166.285    91742057.28106
        41.000         908.797    22404339.242  
  22958945.797   120650148.81307        46.000        3051.891    94013078.78905
        35.000        2378.082    22958949.188  
  19381621.242   103314988.45708        51.000        1418.953    80356077.31608
        49.000        1103.441    19381622.836  
  22767786.375   121664279.61708        49.000        4004.520    94627725.56607
        47.000        3114.680    22767786.211  
  20652666.008   110283998.34806        38.000       -2849.633    85776446.62107
        42.000       -2216.203    20652668.594  
  20337897.242   108755863.77708        48.000       -2240.039    84587814.75006
        41.000       -1742.340    20337898.125  
  20533304.563   109877811.93808        51.000         855.625    85460554.74608
        48.000         665.594    20533303.656  
 23  7 24 21 23 15.0000000  0 14G24G11G28G25G29G12G20G05G18R14R15R13            
                                R24R17                                          
  23113181.492   121460555.08207        42.000       -3288.371    94644619.94507
        46.000       -2562.336    23113190.313  
  23211890.555   121979214.89507        42.000       -3168.070    95048784.38304
        27.000       -2468.629    23211892.828  
  23545954.148   123734862.11707        42.000        1911.586    96416759.67204
        27.000        1489.539    23545958.102  
  20818694.547   109402908.36708        50.000        1785.422    85249100.38706
        41.000        1391.242    20818697.844  
  21902704.891   115099508.43408        48.000         331.895    89687935.28908
        48.000         258.590    21902704.461  
  21100774.391   110885326.05908        49.000        -376.227    86404146.92208
        51.000        -293.160    21100775.008  
  22455330.711   118003564.35907        42.000        -626.215    91950796.41404
        28.000        -487.957    22455331.656  
  22404113.539   117734435.09807        43.000        1165.441    91741138.65206
        41.000         908.129    22404114.891  
  22958362.781   120647084.13307        46.000        3051.027    94010690.73405
        35.000        2377.422    22958365.977  
  19381352.711   103313556.85208        51.000        1417.820    80354963.84008
        49.000        1102.707    19381354.281  
  22767034.453   121660261.89808        49.000        4004.199    94624600.67607
        47.000        3114.293    22767034.328  
  20653197.430   110286835.25406        38.000       -2850.586    85778653.12907
        42.000       -2217.391    20653199.727  
  20338313.844   108758090.75008        48.000       -2240.387    84589546.82406
        40.000       -1742.441    20338314.594  
  20533142.297   109876943.39108        51.000         854.789    85459879.22308
        48.000         664.801    20533141.305  
 23  7 24 21 23 16.0000000  0 14G24G11G28G25G29G12G20G05G18R14R15R13            
                                R24R17                                          
  23113806.125   121463837.19107        42.000       -3288.566    94647177.43807
        46.000       -2562.539    23113814.906  
  23212492.102   121982376.99607        42.000       -3168.172    95051248.35904
        27.000       -2468.707    23212494.484  
  23545588.906   123732944.29707        43.000        1911.434    96415265.28104
        27.000        1489.355    23545593.125  
  20818353.516   109401116.73008        50.000        1785.316    85247704.30906
        41.000        1391.145    20818356.914  
  21902640.484   115099170.37908        48.000         331.727    89687671.87908
        48.000         258.492    21902640.109  
  21100844.742   110885696.19508        49.000        -376.445    86404435.34008
        51.000        -293.324    21100845.445  
  22455448.648   118004184.97307        42.000        -626.898    91951280.01204
        28.000        -488.461    22455449.844  
  22403890.852   117733263.60207        43.000        1164.773    91740225.80106
        41.000         907.609    22403891.891  
  22957780.766   120644026.76607        47.000        3051.168    94008308.37905
        35.000        2377.516    22957784.219  
  19381085.500   103312133.07808        51.000        1417.250    80353856.47308
        49.000        1102.137    19381087.102  
  22766283.828   121656251.39108        49.000        4004.176    94621481.39807
        47.000        3114.258    22766283.797  
  20653729.750   110289679.85906        38.000       -2850.910    85780865.59407
        42.000       -2217.477    20653732.281  
  20338731.508   108760325.09808        48.000       -2240.746    84591284.64506
        40.000       -1742.426    20338732.195  
  20532981.289   109876082.47708        51.000         854.348    85459209.62108
        48.000         664.527    20532980.266  
 23  7 24 21 23 17.0000000  0 14G24G11G28G25G29G12G20G05G18R14R15R13            
                                R24R17                                          
  23114433.414   121467135.65206        41.000       -3288.309    94649747.68007
        46.000       -2562.313    23114442.617  
  23213096.875   121985555.57407        42.000       -3168.324    95053725.18804
        27.000       -2468.824    23213099.359  
  23545226.922   123731043.26607        43.000        1911.316    96413783.96504
        27.000        1489.313    23545231.359  
  20818015.609   109399341.67208        50.000        1785.316    85246321.15206
        41.000        1391.152    20818019.125  
  21902579.234   115098848.71908        48.000         331.922    89687421.23808
        48.000         258.621    21902578.875  
  21100918.422   110886083.02708        49.000        -376.539    86404736.77308
        51.000        -293.406    21100919.055  
  22455570.117   118004822.46906        41.000        -627.418    91951776.76204
        28.000        -488.906    22455571.203  
  22403670.977   117732108.82807        42.000        1165.094    91739325.98806
        41.000         907.875    22403672.086  
  22957202.250   120640986.03507        46.000        3050.910    94005938.98805
        35.000        2377.324    22957205.594  
  19380821.664   103310726.57008        51.000        1416.738    80352762.51208
        49.000        1102.012    19380823.250  
  22765536.484   121652257.57808        49.000        4004.375    94618375.10207
        47.000        3114.328    22765536.383  
  20654265.625   110292541.64106        38.000       -2851.316    85783091.42206
        41.000       -2218.027    20654268.234  
  20339152.398   108762576.27708        48.000       -2240.621    84593035.58606
        40.000       -1743.141    20339152.875  
  20532823.750   109875238.68408        51.000         854.094    85458553.34408
        48.000         664.203    20532822.570  
 23  7 24 21 23 18.0000000  0 14G24G11G28G25G29G12G20G05G18R14R15R13            
                                R24R17                                          
  23115061.078   121470433.63307        42.000       -3288.695    94652317.52007
        46.000       -2562.645    23115070.227  
  23213701.555   121988733.75407        42.000       -3168.645    95056201.68804
        27.000       -2469.070    23213704.063  
  23544865.742   123729142.16407        43.000        1910.199    96412302.58604
        27.000        1488.441    23544869.516  
  20817678.008   109397566.31608        50.000        1784.625    85244937.76206
        41.000        1390.617    20817681.281  
  21902517.875   115098526.57008        48.000         331.527    89687170.21508
        48.000         258.336    21902517.586  
  21100991.992   110886469.69108        49.000        -377.469    86405038.06608
        51.000        -294.129    21100992.617  
  22455691.469   118005459.96507        42.000        -628.148    91952273.52004
        28.000        -489.473    22455692.516  
  22403451.289   117730953.94107        42.000        1164.555    91738426.07806
        41.000         907.445    22403452.320  
  22956623.617   120637945.04307        47.000        3050.352    94003569.39105
        35.000        2376.883    22956626.891  
  19380557.938   103309320.16808        51.000        1415.695    80351668.65208
        49.000        1101.063    19380559.328  
  22764789.156   121648263.32808        49.000        4003.957    94615268.47307
        47.000        3114.059    22764788.961  
  20654801.766   110295403.44106        38.000       -2852.508    85785317.27007
        42.000       -2218.719    20654804.234  
  20339573.516   108764827.17608        48.000       -2241.434    84594786.26206
        40.000       -1743.234    20339573.961  
  20532666.523   109874394.85208        51.000         853.313    85457897.03508
        48.000         663.512    20532665.109  
 23  7 24 21 23 19.0000000  0 14G24G11G28G25G29G12G20G05G18R14R15R13            
                                R24R17                                          
  23115686.133   121473717.85907        42.000       -3288.363    94654876.65607
        46.000       -2562.328    23115695.203  
  23214303.852   121991898.31607        42.000       -3168.758    95058667.58604
        27.000       -2469.184    23214306.242  
  23544501.586   123727227.73407        42.000        1909.941    96410810.81604
        27.000        1488.234    23544505.133  
  20817337.484   109395777.44108        50.000        1784.371    85243543.83607
        42.000        1390.418    20817340.844  
  21902454.055   115098190.69908        48.000         331.684    89686908.49208
        48.000         258.465    21902453.680  
  21101063.031   110886842.94108        49.000        -377.621    86405328.90608
        51.000        -294.254    21101063.633  
  22455810.547   118006084.22707        42.000        -628.926    91952759.95704
        28.000        -490.074    22455811.203  
  22403228.664   117729785.66407        42.000        1163.922    91737515.73006
        41.000         906.949    22403229.992  
  22956042.039   120634890.59007        46.000        3049.930    94001189.29705
        35.000        2376.566    22956045.633  
  19380291.625   103307900.48808        51.000        1415.047    80350564.44908
        49.000        1100.727    19380293.047  
  22764039.195   121644255.20308        49.000        4003.773    94612151.03507
        47.000        3114.102    22764039.016  
  20655334.719   110298251.82406        38.000       -2852.852    85787532.67206
        41.000       -2218.918    20655337.531  
  20339991.969   108767064.33208        48.000       -2241.449    84596526.27306
        39.000       -1743.336    20339992.141  
  20532506.578   109873537.52708        51.000         852.773    85457230.22308
        48.000         663.383    20532505.008  
 23  7 24 21 23 20.0000000  0 14G24G11G28G25G29G12G20G05G18R14R15R13            
                                R24R17                                          
  23116310.172   121476997.52707        42.000       -3288.648    94657432.24207
        46.000       -2562.582    23116319.320  
  23214905.313   121995058.41807        42.000       -3169.219    95061130.00004
        27.000       -2469.512    23214907.586  
  23544136.148   123725309.16807        42.000        1909.156    96409315.82804
        27.000        1487.660    23544140.008  
  20816996.078   109393984.17208        50.000        1784.113    85242146.48807
        42.000        1390.211    20816999.602  
  21902389.219   115097850.29708        48.000         331.191    89686643.25008
        48.000         258.082    21902388.883  
  21101132.977   110887211.94108        49.000        -378.117    86405616.43808
        51.000        -294.641    21101133.852  
  22455928.891   118006704.43407        42.000        -629.824    91953243.23004
        28.000        -490.785    22455929.188  
  22403005.516   117728613.17607        42.000        1163.129    91736602.11306
        41.000         906.324    22403006.836  
  22955460.195   120631831.80507        46.000        3049.695    93998805.83205
        35.000        2376.387    22955463.578  
  19380024.461   103306476.81308        51.000        1414.281    80349457.14808
        49.000        1099.988    19380026.000  
  22763288.258   121640242.48008        49.000        4003.480    94609030.03907
        47.000        3113.762    22763288.047  
  20655867.820   110301096.10206        38.000       -2853.656    85789744.88707
        42.000       -2219.730    20655870.227  
  20340409.258   108769297.00808        48.000       -2241.938    84598262.80906
        39.000       -1743.863    20340409.586  
  20532345.469   109872676.02008        51.000         852.195    85456560.16408
        48.000         662.824    20532344.047  
 23  7 24 21 23 21.0000000  0 14G24G11G28G25G29G12G20G05G18R14R15R13            
                                R24R17                                          
  23116936.422   121480288.85907        42.000       -3288.707    94659996.91807
        46.000       -2562.633    23116945.656  
  23215508.781   121998230.30107        42.000       -3169.215    95063601.60904
        27.000       -2469.551    23215511.242  
  23543773.500   123723402.68807        42.000        1908.730    96407830.27704
        27.000        1487.293    23543777.148  
  20816657.125   109392202.79308        49.000        1784.125    85240758.40207
        42.000        1390.227    20816660.617  
  21902326.531   115097521.56307        47.000         331.570    89686387.10208
        48.000         258.363    21902326.305  
  21101205.547   110887592.93808        49.000        -378.336    86405913.32008
        51.000        -294.797    21101206.344  
  22456048.914   118007336.79707        42.000        -629.523    91953735.98804
        28.000        -490.539    22456049.578  
  22402785.133   117727452.74207        42.000        1162.734    91735697.88306
        41.000         906.016    22402786.008  
  22954880.258   120628784.95307        46.000        3049.297    93996431.67205
        35.000        2376.070    22954883.797  
  19379759.625   103305065.62508        51.000        1413.777    80348359.56308
        49.000        1099.508    19379761.258  
  22762539.469   121636241.69908        49.000        4003.625    94605918.31607
        47.000        3114.020    22762539.430  
  20656402.477   110303952.76206        38.000       -2854.379    85791966.72307
        42.000       -2219.816    20656405.227  
  20340828.727   108771541.72308        48.000       -2241.855    84600008.69506
        39.000       -1743.766    20340829.367  
  20532186.648   109871826.86708        51.000         851.840    85455899.70708
        48.000         662.512    20532185.430  
 23  7 24 21 23 22.0000000  0 14G24G11G28G25G29G12G20G05G18R14R15R13            
                                R24R17                                          
  23117563.352   121483583.92607        42.000       -3288.613    94662564.49207
        46.000       -2562.559    23117572.711  
  23216113.297   122001406.01207        42.000       -3169.457    95066076.18004
        27.000       -2469.730    23216115.492  
  23543411.313   123721500.33207        42.000        1908.754    96406347.91804
        27.000        1487.340    23543415.063  
  20816318.914   109390425.34008        50.000        1783.852    85239373.37907
        42.000        1390.020    20816322.383  
  21902264.656   115097196.59407        47.000         331.410    89686133.87908
        48.000         258.254    21902264.492  
  21101278.891   110887977.98008        49.000        -378.648    86406213.35908
        51.000        -295.039    21101279.609  
  22456169.922   118007973.40607        42.000        -630.188    91954232.04704
        28.000        -491.063    22456170.695  
  22402564.859   117726296.36707        42.000        1162.875    91734796.81306
        41.000         906.129    22402565.953  
  22954301.195   120625742.06607        46.000        3049.332    93994060.59005
        35.000        2376.109    22954304.766  
  19379495.789   103303658.89108        51.000        1413.031    80347265.43408
        49.000        1099.016    19379497.477  
  22761791.508   121632244.77308        49.000        4003.559    94602809.60208
        48.000        3113.730    22761791.531  
  20656938.344   110306813.73806        38.000       -2854.867    85794191.92607
        42.000       -2220.395    20656940.898  
  20341249.414   108773790.42208        48.000       -2241.953    84601757.67606
        39.000       -1743.504    20341249.953  
  20532029.070   109870981.96108        51.000         851.254    85455242.55908
        48.000         661.945    20532027.680  
 23  7 24 21 23 23.0000000  0 14G24G11G28G25G29G12G20G05G18R14R15R13            
                                R24R17                                          
  23118188.414   121486867.21907        42.000       -3289.098    94665122.89807
        46.000       -2562.938    23118197.523  
  23216715.500   122004570.07007        42.000       -3169.652    95068541.69104
        27.000       -2469.875    23216717.617  
  23543046.961   123719586.64107        42.000        1907.867    96404856.73004
        27.000        1486.629    23543050.922  
  20815978.367   109388636.34008        49.000        1783.215    85237979.34806
        41.000        1389.520    20815981.945  
  21902200.609   115096859.87907        47.000         331.027    89685871.50008
        48.000         257.938    21902200.438  
  21101350.078   110888351.59408        49.000        -379.438    86406504.48408
        51.000        -295.660    21101350.695  
  22456288.852   118008598.75007        42.000        -631.195    91954719.32404
        28.000        -491.824    22456289.734  
  22402342.656   117725128.59807        42.000        1162.195    91733886.86306
        41.000         905.609    22402343.750  
  22953719.930   120622687.68007        46.000        3048.789    93991680.54705
        35.000        2375.680    22953723.508  
  19379229.805   103302240.88708        51.000        1412.152    80346162.54308
        49.000        1098.336    19379231.438  
  22761041.383   121628235.95708        49.000        4003.188    94599691.63307
        47.000        3113.570    22761041.430  
  20657472.289   110309663.27706        38.000       -2855.359    85796408.24607
        42.000       -2220.848    20657474.633  
  20341667.695   108776027.37908        48.000       -2242.504    84603497.55906
        40.000       -1744.477    20341667.914  
  20531869.273   109870125.55108        51.000         850.711    85454576.47308
        48.000         661.496    20531867.750  
 23  7 24 21 23 24.0000000  0 14G24G11G28G25G29G12G20G05G18R14R15R13            
                                R24R17                                          
  23118813.898   121490152.88707        42.000       -3288.703    94667683.15207
        46.000       -2562.609    23118822.789  
  23217317.430   122007736.59007        42.000       -3169.762    95071009.11304
        27.000       -2469.926    23217320.219  
  23542683.438   123717675.75007        42.000        1907.758    96403367.73004
        27.000        1486.555    23542687.195  
  20815638.281   109386849.91008        50.000        1783.371    85236587.32806
        41.000        1389.637    20815641.992  
  21902136.781   115096525.55107        47.000         331.180    89685610.98808
        48.000         258.063    21902136.797  
  21101421.680   110888727.89508        50.000        -379.488    86406797.70708
        51.000        -295.703    21101422.305  
  22456408.688   118009226.98407        42.000        -631.371    91955208.86704
        28.000        -492.008    22456409.359  
  22402120.898   117723963.53907        42.000        1161.738    91732979.03506
        41.000         905.246    22402122.039  
  22953139.242   120619635.92607        46.000        3048.395    93989302.55905
        35.000        2375.340    22953142.781  
  19378964.195   103300825.94508        51.000        1411.586    80345062.03508
        50.000        1097.859    19378966.000  
  22760291.555   121624229.60208        49.000        4003.234    94596575.58207
        47.000        3113.578    22760291.664  
  20658006.148   110312515.77306        39.000       -2856.098    85798626.84807
        42.000       -2221.430    20658008.727  
  20342086.164   108778266.99208        48.000       -2242.895    84605239.45706
        40.000       -1744.453    20342087.164  
  20531709.422   109869272.05108        51.000         850.285    85453912.62908
        49.000         661.336    20531708.148  
 23  7 24 21 23 25.0000000  0 14G24G11G28G25G29G12G20G05G18R14R15R13            
                                R24R17                                          
  23119441.477   121493450.64807        42.000       -3288.848    94670252.84007
        46.000       -2562.707    23119450.359  
  23217922.422   122010915.33607        42.000       -3169.883    95073486.05104
        27.000       -2470.035    23217925.133  
  23542322.164   123715777.35907        42.000        1906.895    96401888.45704
        27.000        1485.895    23542325.891  
  20815300.852   109385075.77308        50.000        1782.906    85235204.88306
        41.000        1389.281    20815304.383  
  21902075.305   115096203.33607        47.000         331.055    89685359.91808
        48.000         257.969    21902075.469  
  21101495.672   110889116.62508        50.000        -380.188    86407100.61308
        51.000        -296.250    21101496.273  
  22456530.719   118009867.80906        41.000        -632.297    91955708.21904
        28.000        -492.707    22456531.258  
  22401901.531   117722810.92607        42.000        1160.910    91732080.89806
        41.000         904.605    22401902.703  
  22952560.703   120616596.50407        46.000        3048.168    93986934.19105
        35.000        2375.180    22952564.422  
  19378701.211   103299423.91808        51.000        1410.652    80343971.56608
        50.000        1097.039    19378702.977  
  22759544.164   121620235.57808        49.000        4002.746    94593469.12107
        47.000        3113.219    22759544.133  
  20658543.031   110315381.05906        38.000       -2856.469    85800855.41007
        42.000       -2221.953    20658545.453  
  20342507.258   108780519.08208        48.000       -2243.227    84606991.06606
        40.000       -1744.340    20342508.430  
  20531552.289   109868431.34808        51.000         849.453    85453258.75408
        49.000         660.508    20531551.102  
 23  7 24 21 23 26.0000000  0 14G24G11G28G25G29G12G20G05G18R14R15R13            
                                R24R17                                          
  23120067.227   121496740.97307        42.000       -3289.070    94672816.71507
        46.000       -2562.902    23120076.516  
  23218526.031   122014086.75807        42.000       -3170.363    95075957.29304
        27.000       -2470.414    23218528.625  
  23541959.797   123713871.96507        42.000        1906.563    96400403.73804
        27.000        1485.609    23541963.242  
  20814961.930   109383294.42208        50.000        1782.473    85233816.81606
        41.000        1388.934    20814965.398  
  21902012.555   115095873.71507        47.000         330.934    89685103.06608
        48.000         257.879    21902012.766  
  21101568.375   110889498.24208        50.000        -380.559    86407397.97308
        51.000        -296.523    21101568.875  
  22456651.406   118010501.71106        41.000        -633.188    91956202.16004
        28.000        -493.383    22456651.844  
  22401681.148   117721651.26207        42.000        1160.602    91731177.26606
        41.000         904.363    22401682.039  
  22951980.992   120613549.92207        46.000        3047.566    93984560.23405
        35.000        2374.719    22951984.688  
  19378436.969   103298015.00808        51.000        1409.695    80342875.75008
        50.000        1096.387    19378438.703  
  22758795.422   121616234.04308        49.000        4002.797    94590356.82008
        48.000        3113.191    22758795.289  
  20659078.695   110318239.34006        39.000       -2857.750    85803078.50007
        42.000       -2222.309    20659080.703  
  20342926.930   108782763.75808        48.000       -2243.539    84608736.96106
        40.000       -1745.406    20342927.969  
  20531394.102   109867583.53908        51.000         848.727    85452599.34808
        48.000         660.262    20531392.867  
 23  7 24 21 23 27.0000000  0 14G24G11G28G25G29G12G20G05G18R14R15R13            
                                R24R17                                          
  23120690.656   121500017.29707        42.000       -3289.012    94675369.68807
        46.000       -2562.859    23120700.008  
  23219126.898   122017244.26607        42.000       -3170.203    95078417.68804
        27.000       -2470.285    23219129.484  
  23541594.578   123711952.97707        42.000        1906.293    96398908.43004
        27.000        1485.426    23541598.000  
  20814620.242   109381499.25808        50.000        1782.375    85232417.98806
        41.000        1388.863    20814623.805  
  21901947.281   115095530.10907        47.000         330.930    89684835.32408
        48.000         257.863    21901947.383  
  21101638.461   110889866.17608        50.000        -380.621    86407684.67608
        51.000        -296.594    21101638.883  
  22456769.227   118011122.10206        41.000        -633.520    91956685.58604
        28.000        -493.660    22456769.945  
  22401457.469   117720477.96507        42.000        1160.395    91730263.00406
        41.000         904.203    22401458.758  
  22951398.594   120610489.57007        46.000        3047.594    93982175.55105
        35.000        2374.750    22951402.305  
  19378169.992   103296592.53108        51.000        1409.332    80341769.37908
        49.000        1096.125    19378171.891  
  22758044.023   121612218.33608        49.000        4002.871    94587233.48407
        47.000        3113.430    22758043.688  
  20659610.984   110321083.88306        38.000       -2857.770    85805290.93407
        42.000       -2222.676    20659613.352  
  20343343.906   108784994.38308        48.000       -2243.359    84610471.87106
        39.000       -1745.555    20343345.133  
  20531233.000   109866721.92608        51.000         848.563    85451929.20708
        49.000         660.141    20531231.727  
 23  7 24 21 23 28.0000000  0 14G24G11G28G25G29G12G20G05G18R14R15R13            
                                R24R17                                          
  23121315.648   121503300.91007        42.000       -3289.098    94677928.35207
        46.000       -2562.938    23121324.891  
  23219729.055   122020409.21107        42.000       -3170.688    95080883.87904
        27.000       -2470.676    23219731.781  
  23541230.742   123710041.71907        42.000        1905.582    96397419.14504
        27.000        1484.848    23541234.313  
  20814279.930   109379711.61308        50.000        1781.922    85231025.02306
        41.000        1388.508    20814283.648  
  21901883.492   115095193.82808        48.000         330.664    89684573.29307
        47.000         257.645    21901883.367  
  21101709.820   110890241.75408        50.000        -381.313    86407977.34008
        51.000        -297.133    21101710.352  
  22456888.664   118011750.30907        42.000        -634.145    91957175.09804
        28.000        -494.141    22456889.516  
  22401235.805   117719312.31307        42.000        1159.973    91729354.71106
        41.000         903.895    22401236.945  
  22950817.563   120607436.80107        46.000        3046.906    93979796.77005
        35.000        2374.219    22950821.375  
  19377904.539   103295178.12908        51.000        1408.414    80340669.28508
        49.000        1095.559    19377906.469  
  22757293.805   121608210.14508        49.000        4002.430    94584116.02007
        47.000        3112.902    22757293.734  
  20660144.867   110323936.38306        39.000       -2858.078    85807509.53907
        42.000       -2222.934    20660147.430  
  20343762.234   108787232.67208        48.000       -2244.090    84612212.77306
        39.000       -1745.551    20343763.445  
  20531073.039   109865868.22708        51.000         847.699    85451265.22308
        49.000         659.289    20531072.117  
 23  7 24 21 23 29.0000000  0 14G24G11G28G25G29G12G20G05G18R14R15R13            
                                R24R17                                          
  23121943.695   121506600.80506        41.000       -3289.172    94680499.69507
        46.000       -2562.996    23121952.859  
  23220334.953   122023590.51207        42.000       -3171.074    95083362.82004
        27.000       -2470.965    23220337.234  
  23540870.148   123708147.14107        42.000        1905.234    96395942.84804
        27.000        1484.602    23540873.719  
  20813943.234   109377940.43008        49.000        1781.789    85229644.88706
        41.000        1388.402    20813946.602  
  21901822.445   115094873.83607        47.000         330.609    89684323.95307
        47.000         257.617    21901822.469  
  21101784.508   110890633.91408        50.000        -381.750    86408282.92208
        51.000        -297.457    21101784.977  
  22457011.602   118012395.28106        41.000        -634.656    91957677.68404
        28.000        -494.547    22457012.258  
  22401017.188   117718163.27307        42.000        1159.402    91728459.36306
        41.000         903.449    22401018.289  
  22950239.719   120604400.53107        46.000        3046.668    93977430.85205
        35.000        2374.020    22950243.594  
  19377642.383   103293780.87508        51.000        1407.789    80339582.53908
        49.000        1094.938    19377644.266  
  22756546.898   121604218.57008        49.000        4002.414    94581011.46507
        47.000        3112.715    22756546.734  
  20660682.656   110326805.94906        38.000       -2859.316    85809741.41407
        42.000       -2223.656    20660684.813  
  20344183.852   108789487.71508        48.000       -2244.199    84613966.69506
        39.000       -1745.688    20344185.195  
  20530916.531   109865031.53908        51.000         847.293    85450614.46908
        49.000         658.941    20530915.742  
 23  7 24 21 23 30.0000000  0 14G24G11G28G25G29G12G20G05G18R14R15R13            
                                R24R17                                          
  23122571.156   121509900.05107        42.000       -3289.527    94683070.53107
        46.000       -2563.289    23122580.703  
  23220939.883   122026771.27707        42.000       -3171.055    95085841.33604
        27.000       -2470.945    23220942.484  
  23540509.281   123706252.35907        42.000        1904.414    96394466.39104
        27.000        1483.965    23540513.070  
  20813605.961   109376168.82008        50.000        1781.367    85228264.41006
        41.000        1388.082    20813609.477  
  21901761.391   115094553.22707        47.000         330.402    89684074.12507
        47.000         257.469    21901761.500  
  21101859.102   110891025.77008        50.000        -382.227    86408588.26208
        51.000        -297.836    21101859.523  
  22457134.063   118013040.13306        41.000        -634.984    91958180.16804
        28.000        -494.832    22457135.047  
  22400798.148   117717013.96907        43.000        1159.285    91727563.80106
        41.000         903.355    22400799.594  
  22949661.922   120601363.88307        46.000        3046.523    93975064.63305
        35.000        2373.910    22949665.742  
  19377380.258   103292383.66408        51.000        1406.930    80338495.81308
        49.000        1094.383    19377382.109  
  22755799.867   121600226.43408        49.000        4002.148    94577906.45707
        47.000        3112.832    22755799.680  
  20661220.477   110329675.40206        39.000       -2859.855    85811973.22307
        42.000       -2224.383    20661222.203  
  20344605.688   108791742.31307        47.000       -2244.652    84615720.24606
        39.000       -1745.379    20344606.547  
  20530760.344   109864194.72708        51.000         846.609    85449963.61708
        48.000         658.453    20530759.461  
 23  7 24 21 23 31.0000000  0 14G24G11G28G25G29G12G20G05G18R14R15R13            
                                R24R17                                          
  23123196.859   121513185.68407        42.000       -3288.535    94685630.75807
        46.000       -2562.504    23123205.953  
  23221542.391   122029938.55907        42.000       -3171.105    95088309.34404
        27.000       -2470.992    23221545.242  
  23540146.445   123704344.38707        42.000        1904.281    96392979.66404
        27.000        1483.859    23540149.938  
  20813266.203   109374383.80908        50.000        1781.344    85226873.48806
        41.000        1388.074    20813269.797  
  21901697.719   115094219.03107        47.000         330.617    89683813.71507
        47.000         257.629    21901697.938  
  21101931.102   110891404.34408        50.000        -382.230    86408883.25008
        51.000        -297.855    21101931.555  
  22457254.328   118013671.88706        41.000        -635.832    91958672.45304
        28.000        -495.457    22457255.320  
  22400576.977   117715851.42207        43.000        1158.543    91726657.92206
        41.000         902.781    22400578.391  
  22949081.563   120598313.89107        46.000        3046.313    93972688.02005
        35.000        2373.750    22949085.359  
  19377115.695   103290973.31608        51.000        1406.398    80337398.87908
        49.000        1093.922    19377117.406  
  22755050.266   121596220.48808        49.000        4002.246    94574790.73407
        47.000        3112.727    22755049.930  
  20661754.945   110332531.56306        38.000       -2859.922    85814194.67207
        42.000       -2224.469    20661757.219  
  20345024.828   108793983.24607        47.000       -2244.523    84617463.23006
        38.000       -1746.230    20345025.586  
  20530601.586   109863344.53508        51.000         846.438    85449302.35908
        48.000         658.199    20530600.625  
 23  7 24 21 23 32.0000000  0 14G24G11G28G25G29G12G20G05G18R14R15R13            
                                R24R17                                          
  23123821.375   121516466.86306        41.000       -3289.270    94688187.52707
        46.000       -2563.066    23123830.375  
  23222144.359   122033101.48407        42.000       -3171.563    95090773.95304
        27.000       -2471.340    23222147.086  
  23539782.273   123702432.36307        42.000        1903.289    96391489.77704
        27.000        1483.078    23539786.102  
  20812925.805   109372594.54308        49.000        1780.621    85225479.25806
        41.000        1387.504    20812929.336  
  21901633.180   115093880.39107        47.000         330.223    89683549.84008
        48.000         257.313    21901633.508  
  21102002.414   110891778.77708        50.000        -383.078    86409175.01608
        51.000        -298.508    21102002.781  
  22457373.766   118014299.67206        41.000        -636.316    91959161.64104
        28.000        -495.828    22457374.828  
  22400354.883   117714684.77307        42.000        1157.852    91725748.84806
        41.000         902.254    22400356.375  
  22948500.406   120595259.69907        46.000        3045.391    93970308.14105
        35.000        2373.023    22948504.180  
  19376850.258   103289559.09808        51.000        1405.273    80336298.93408
        49.000        1092.844    19376852.109  
  22754299.867   121592210.06308        48.000        4001.922    94571671.51607
        47.000        3112.414    22754299.383  
  20662288.938   110335383.74206        39.000       -2861.402    85816413.01607
        42.000       -2225.008    20662291.156  
  20345443.086   108796219.84407        47.000       -2245.422    84619202.80906
        38.000       -1746.766    20345443.438  
  20530441.773   109862490.27308        51.000         845.414    85448637.93008
        49.000         657.578    20530440.977  
 23  7 24 21 23 33.0000000  0 14G24G11G28G25G29G12G20G05G18R14R15R13            
                                R24R17                                          
  23124447.930   121519760.02707        42.000       -3289.848    94690753.62907
        46.000       -2563.516    23124457.063  
  23222748.297   122036276.47707        42.000       -3171.348    95093247.97704
        27.000       -2471.211    23222751.313  
  23539420.805   123700532.74207        42.000        1902.918    96390009.55904
        27.000        1482.793    23539424.617  
  20812587.625   109370817.44108        50.000        1780.590    85224094.50406
        41.000        1387.477    20812591.195  
  21901571.188   115093553.74607        47.000         330.105    89683295.31608
        48.000         257.234    21901571.344  
  21102075.914   110892165.50808        50.000        -383.207    86409476.36708
        51.000        -298.598    21102076.383  
  22457495.633   118014939.94506        41.000        -636.676    91959660.55104
        28.000        -496.105    22457496.703  
  22400135.125   117713530.42607        42.000        1157.637    91724849.35906
        41.000         902.082    22400136.734  
  22947921.570   120592217.71507        46.000        3045.484    93967937.77005
        35.000        2373.094    22947925.305  
  19376587.188   103288157.65608        51.000        1404.680    80335208.92608
        49.000        1092.438    19376589.117  
  22753551.500   121588211.86308        48.000        4001.727    94568561.79707
        47.000        3112.500    22753551.094  
  20662825.539   110338248.57806        39.000       -2861.438    85818641.24607
        42.000       -2225.637    20662827.758  
  20345863.586   108798468.82807        47.000       -2245.449    84620951.98806
        38.000       -1746.293    20345863.523  
  20530284.227   109861648.64808        51.000         845.129    85447983.33608
        49.000         657.270    20530283.711  
 23  7 24 21 23 34.0000000  0 14G24G11G28G25G29G12G20G05G18R14R15R13            
                                R24R17                                          
  23125075.938   121523056.92206        41.000       -3289.789    94693322.62507
        46.000       -2563.469    23125084.445  
  23223353.023   122039455.34007        42.000       -3171.801    95095725.01204
        27.000       -2471.500    23223356.203  
  23539060.461   123698637.27707        42.000        1902.457    96388532.57004
        27.000        1482.461    23539063.891  
  20812250.063   109369044.29708        50.000        1780.191    85222712.83606
        41.000        1387.156    20812253.797  
  21901509.836   115093230.86307        47.000         330.082    89683043.71508
        48.000         257.211    21901509.938  
  21102150.445   110892556.31308        50.000        -383.793    86409780.88708
        51.000        -299.059    21102150.719  
  22457618.188   118015584.46506        41.000        -637.555    91960162.77704
        27.000        -496.801    22457619.328  
  22399916.250   117712380.20707        42.000        1157.164    91723953.08606
        40.000         901.680    22399917.836  
  22947343.227   120589179.74607        46.000        3044.887    93965570.52705
        35.000        2372.629    22947347.203  
  19376325.125   103286760.66008        51.000        1403.906    80334122.36708
        49.000        1092.000    19376326.977  
  22752804.094   121584217.52308        49.000        4001.566    94565455.09407
        47.000        3112.270    22752803.609  
  20663363.359   110341117.76606        39.000       -2861.977    85820872.83607
        42.000       -2226.141    20663365.141  
  20346285.008   108800721.80907        47.000       -2245.938    84622704.32006
        37.000       -1747.219    20346284.711  
  20530127.969   109860811.29708        51.000         844.340    85447332.06608
        49.000         656.641    20530127.398  
 23  7 24 21 23 35.0000000  0 14G24G11G28G25G29G12G20G05G18R14R15R13            
                                R24R17                                          
  23125700.547   121526341.39507        42.000       -3289.902    94695881.94907
        46.000       -2563.563    23125709.453  
  23223955.813   122042621.89507        42.000       -3171.824    95098192.45304
        27.000       -2471.563    23223958.820  
  23538697.914   123696729.83207        42.000        1902.012    96387046.25004
        27.000        1482.090    23538700.859  
  20811910.297   109367258.95308        50.000        1780.121    85221321.66406
        41.000        1387.113    20811914.047  
  21901445.875   115092895.59807        47.000         330.121    89682782.46508
        48.000         257.230    21901446.156  
  21102222.602   110892935.04308        50.000        -383.984    86410075.99608
        51.000        -299.199    21102222.773  
  22457738.820   118016217.10906        41.000        -638.273    91960655.74604
        27.000        -497.359    22457739.734  
  22399695.000   117711217.94507        42.000        1156.910    91723047.42606
        40.000         901.492    22399696.664  
  22946762.836   120586129.61707        46.000        3044.781    93963193.80505
        35.000        2372.563    22946766.773  
  19376060.813   103285351.74208        51.000        1403.211    80333026.55108
        49.000        1091.332    19376062.641  
  22752054.336   121580210.66808        49.000        4001.578    94562338.64507
        47.000        3112.363    22752053.836  
  20663898.453   110343974.90206        39.000       -2862.996    85823095.03507
        42.000       -2226.496    20663900.039  
  20346704.172   108802962.35207        47.000       -2245.906    84624446.96506
        37.000       -1747.004    20346703.773  
  20529969.336   109859961.81308        51.000         843.652    85446671.35208
        48.000         656.277    20529968.781  
 23  7 24 21 23 36.0000000  0 14G24G11G28G25G29G12G20G05G18R14R15R13            
                                R24R17                                          
  23126324.883   121529621.96106        41.000       -3289.914    94698438.23007
        46.000       -2563.566    23126333.750  
  23224557.945   122045784.62507        42.000       -3171.914    95100656.92604
        27.000       -2471.652    23224560.688  
  23538334.375   123694818.88307        42.000        1901.363    96385557.19904
        27.000        1481.617    23538337.227  
  20811569.898   109365469.90208        49.000        1779.715    85219927.59806
        41.000        1386.793    20811573.609  
  21901381.359   115092556.43007        47.000         329.938    89682518.18007
        47.000         257.090    21901381.609  
  21102294.000   110893310.17208        50.000        -384.395    86410368.30508
        51.000        -299.543    21102294.148  
  22457858.477   118016846.32006        41.000        -638.809    91961146.04304
        27.000        -497.762    22457859.531  
  22399473.367   117710052.12907        42.000        1156.418    91722139.01606
        40.000         901.098    22399474.836  
  22946181.719   120583075.84007        46.000        3044.375    93960814.23405
        35.000        2372.238    22946185.664  
  19375795.805   103283939.52008        51.000        1402.645    80331928.15208
        49.000        1090.957    19375797.625  
  22751303.688   121576199.86708        48.000        4001.563    94559219.13707
        47.000        3112.375    22751303.383  
  20664432.898   110346828.54306        39.000       -2863.250    85825314.55107
        42.000       -2227.008    20664434.406  
  20347122.398   108805199.10907        47.000       -2246.180    84626186.66006
        37.000       -1746.766    20347121.797  
  20529809.734   109859108.82808        51.000         843.449    85446007.92208
        49.000         656.059    20529809.320  
 23  7 24 21 23 37.0000000  0 14G24G11G28G25G29G12G20G05G18R14R15R13            
                                R24R17                                          
  23126951.047   121532914.98006        41.000       -3290.238    94701004.22307
        46.000       -2563.805    23126960.398  
  23225162.055   122048959.93807        42.000       -3172.285    95103131.20304
        27.000       -2471.918    23225164.953  
  23537972.672   123692920.80107        42.000        1901.430    96384078.18004
        27.000        1481.629    23537976.078  
  20811231.898   109363693.50008        50.000        1779.406    85218543.39106
        41.000        1386.559    20811235.602  
  21901318.992   115092229.73007        47.000         330.004    89682263.61307
        47.000         257.145    21901319.406  
  21102367.648   110893698.08608        50.000        -384.902    86410670.57808
        51.000        -299.910    21102367.961  
  22457980.797   118017488.48806        41.000        -639.137    91961646.44104
        27.000        -498.035    22457981.781  
  22399254.039   117708899.13707        42.000        1156.070    91721240.59006
        40.000         900.836    22399255.445  
  22945602.922   120580034.75007        46.000        3044.262    93958444.55905
        35.000        2372.145    22945606.977  
  19375533.258   103282540.59808        51.000        1401.867    80330840.10508
        49.000        1090.273    19375535.227  
  22750555.281   121572201.81608        48.000        4001.230    94556109.54308
        48.000        3112.262    22750555.063  
  20664969.906   110349695.39106        39.000       -2863.891    85827544.30907
        42.000       -2227.523    20664971.242  
  20347543.023   108807448.75407        47.000       -2246.613    84627936.38706
        37.000       -1747.168    20347542.086  
  20529652.500   109858269.00808        51.000         842.965    85445354.73008
        49.000         655.598    20529652.320  
 23  7 24 21 23 38.0000000  0 14G24G11G28G25G29G12G20G05G18R14R15R13            
                                R24R17                                          
  23127578.453   121536212.19906        41.000       -3289.992    94703573.48007
        46.000       -2563.633    23127587.844  
  23225767.070   122052139.56607        42.000       -3172.328    95105608.82804
        27.000       -2471.934    23225769.961  
  23537612.406   123691027.39807        42.000        1900.434    96382602.80904
        27.000        1480.852    23537615.742  
  20810894.789   109361921.54308        50.000        1778.965    85217162.64106
        41.000        1386.203    20810898.414  
  21901257.484   115091907.30107        47.000         329.555    89682012.36707
        47.000         256.805    21901258.047  
  21102442.461   110894090.55508        50.000        -385.496    86410976.39508
        51.000        -300.391    21102442.633  
  22458103.328   118018135.40606        40.000        -640.273    91962150.53104
        27.000        -498.906    22458104.836  
  22399035.313   117707750.74207        42.000        1155.215    91720345.74606
        40.000         900.176    22399036.914  
  22945025.031   120576998.16807        46.000        3043.582    93956078.39805
        35.000        2371.621    22945029.172  
  19375271.758   103281146.60908        51.000        1400.852    80329755.89108
        49.000        1089.531    19375273.750  
  22749807.906   121568208.13708        48.000        4000.918    94553003.35207
        47.000        3111.680    22749807.664  
  20665507.695   110352567.01206        39.000       -2864.203    85829777.80107
        42.000       -2228.082    20665508.961  
  20347964.766   108809702.90208        48.000       -2247.023    84629689.62106
        37.000       -1747.840    20347963.656  
  20529496.648   109857433.93408        51.000         842.074    85444705.22308
        48.000         655.059    20529496.328  
 23  7 24 21 23 39.0000000  0 14G24G11G28G25G29G12G20G05G18R14R15R13            
                                R24R17                                          
  23128203.828   121539497.87906        41.000       -3289.992    94706133.74207
        46.000       -2563.629    23128213.070  
  23226370.320   122055307.76207        42.000       -3172.508    95108077.56304
        27.000       -2472.078    23226372.867  
  23537250.000   123689122.82807        42.000        1900.242    96381118.72704
        27.000        1480.750    23537253.250  
  20810555.422   109360138.21908        50.000        1778.891    85215773.03506
        41.000        1386.141    20810559.063  
  21901194.000   115091573.32807        47.000         329.383    89681752.12907
        47.000         256.660    21901194.531  
  21102514.930   110894471.79708        50.000        -385.891    86411273.46508
        51.000        -300.691    21102515.172  
  22458223.977   118018771.27306        40.000        -640.758    91962646.01204
        27.000        -499.285    22458225.828  
  22398814.797   117706591.13307        42.000        1155.063    91719442.15206
        40.000         900.051    22398816.258  
  22944445.234   120573950.26607        46.000        3043.453    93953703.41405
        35.000        2371.512    22944449.188  
  19375008.188   103279741.53108        51.000        1400.258    80328663.05508
        49.000        1089.051    19375010.195  
  22749058.375   121564202.77308        48.000        4000.715    94549888.07407
        47.000        3111.590    22749058.086  
  20666043.477   110355427.42606        39.000       -2865.309    85832002.56307
        42.000       -2228.465    20666044.602  
  20348384.133   108811945.46908        48.000       -2247.211    84631433.84006
        37.000       -1747.641    20348382.828  
  20529338.516   109856587.52008        51.000         841.719    85444046.91008
        49.000         654.586    20529338.328  
 23  7 24 21 23 40.0000000  0 14G24G11G28G25G29G12G20G05G18R14R15R13            
                                R24R17                                          
  23128829.609   121542785.65606        41.000       -3289.902    94708695.64507
        46.000       -2563.574    23128838.727  
  23226973.195   122058478.14807        42.000       -3172.641    95110547.99204
        26.000       -2472.191    23226976.078  
  23536888.102   123687220.78107        42.000        1899.836    96379636.60904
        27.000        1480.398    23536891.281  
  20810216.289   109358357.20708        49.000        1778.801    85214385.23806
        41.000        1386.086    20810220.164  
  21901130.852   115091241.46507        47.000         329.680    89681493.53907
        47.000         256.898    21901131.359  
  21102588.031   110894855.48408        50.000        -386.223    86411572.44508
        51.000        -300.949    21102588.180  
  22458345.914   118019409.73806        40.000        -640.930    91963143.52704
        27.000        -499.398    22458347.367  
  22398594.750   117705434.00807        42.000        1154.621    91718540.49206
        40.000         899.730    22398596.078  
  22943865.609   120570904.72307        46.000        3043.098    93951330.27005
        35.000        2371.238    22943869.664  
  19374745.109   103278339.24208        51.000        1399.711    80327572.38308
        50.000        1088.715    19374747.172  
  22748309.227   121560199.59808        48.000        4001.000    94546774.49607
        47.000        3111.730    22748308.813  
  20666579.125   110358290.50006        39.000       -2865.672    85834229.39107
        42.000       -2229.004    20666580.672  
  20348803.766   108814190.33607        47.000       -2247.090    84633179.84406
        37.000       -1747.441    20348802.227  
  20529180.484   109855743.74208        51.000         841.242    85443390.64108
        49.000         654.297    20529180.680  
 23  7 24 21 23 41.0000000  0 14G24G11G28G25G29G12G20G05G18R14R15R13            
                                R24R17                                          
  23129457.570   121546085.27306        41.000       -3290.234    94711266.77007
        46.000       -2563.816    23129466.625  
  23227578.891   122061660.49207        42.000       -3172.656    95113027.74604
        26.000       -2472.211    23227581.531  
  23536527.875   123685331.02007        42.000        1898.875    96378164.07004
        27.000        1479.676    23536531.664  
  20809879.516   109356588.26208        49.000        1778.148    85213006.84406
        41.000        1385.566    20809883.570  
  21901069.992   115090921.48007        47.000         329.379    89681244.20307
        47.000         256.656    21901070.461  
  21102663.328   110895251.34808        50.000        -386.637    86411880.91008
        51.000        -301.273    21102663.492  
  22458470.031   118020060.56306        40.000        -641.473    91963650.67604
        27.000        -499.887    22458471.188  
  22398376.508   117704289.08207        42.000        1154.293    91717648.35506
        40.000         899.426    22398378.234  
  22943288.148   120567871.28507        46.000        3042.652    93948966.55905
        35.000        2370.891    22943292.430  
  19374484.422   103276949.65208        51.000        1398.820    80326491.59408
        49.000        1087.824    19374486.648  
  22747562.336   121556208.54308        48.000        4000.637    94543670.34407
        47.000        3111.480    22747562.055  
  20667117.742   110361166.16006        39.000       -2866.633    85836466.00807
        42.000       -2229.172    20667119.195  
  20349225.742   108816447.46108        48.000       -2247.730    84634935.39806
        37.000       -1748.637    20349224.383  
  20529025.148   109854912.52308        51.000         840.473    85442744.13708
        49.000         653.781    20529025.320  
 23  7 24 21 23 42.0000000  0 14G24G11G28G25G29G12G20G05G18R14R15R13            
                                R24R17                                          
  23130083.930   121549377.21506        41.000       -3290.484    94713831.91007
        46.000       -2564.004    23130093.078  
  23228183.305   122064835.29307        42.000       -3173.410    95115501.60904
        26.000       -2472.801    23228185.578  
  23536167.273   123683433.98807        43.000        1898.348    96376685.86704
        27.000        1479.227    23536170.625  
  20809541.727   109354811.84408        50.000        1777.805    85211622.62106
        41.000        1385.305    20809545.531  
  21901007.938   115090593.84807        47.000         329.113    89680988.90207
        47.000         256.449    21901008.156  
  21102737.344   110895639.87908        50.000        -387.234    86412183.66008
        51.000        -301.750    21102737.414  
  22458592.133   118020704.23806        40.000        -642.270    91964152.24204
        27.000        -500.469    22458593.641  
  22398157.133   117703136.84807        42.000        1153.324    91716750.51206
        40.000         898.680    22398159.000  
  22942709.391   120564830.43807        46.000        3042.297    93946597.06605
        35.000        2370.621    22942713.758  
  19374222.484   103275552.93808        51.000        1398.109    80325405.26208
        49.000        1087.246    19374224.648  
  22746814.109   121552209.73408        48.000        4000.434    94540560.16008
        48.000        3111.383    22746813.781  
  20667654.867   110364034.57006        39.000       -2867.078    85838696.99607
        42.000       -2229.832    20667656.500  
  20349646.477   108818697.01208        48.000       -2248.082    84636685.03906
        37.000       -1748.863    20349645.148  
  20528868.758   109854073.96108        51.000         839.938    85442091.93008
        49.000         653.324    20528868.766  
 23  7 24 21 23 43.0000000  0 14G24G11G28G25G29G12G20G05G18R14R15R13            
                                R24R17                                          
  23130707.898   121552654.95706        41.000       -3290.957    94716385.98807
        46.000       -2564.359    23130716.828  
  23228784.602   122067995.98007        42.000       -3173.535    95117964.47704
        26.000       -2472.898    23228787.008  
  23535803.445   123681523.18807        42.000        1897.832    96375196.93004
        27.000        1478.828    23535806.992  
  20809200.867   109353021.42208        49.000        1777.492    85210227.48406
        41.000        1385.066    20809204.828  
  21900942.742   115090252.02707        47.000         328.867    89680722.54707
        47.000         256.273    21900943.117  
  21102808.609   110896014.51608        50.000        -387.664    86412475.58208
        51.000        -302.078    21102808.688  
  22458711.844   118021334.19106        39.000        -643.172    91964643.10904
        27.000        -501.168    22458713.469  
  22397935.414   117701970.77007        42.000        1153.082    91715841.87906
        40.000         898.484    22397937.125  
  22942128.320   120561775.63307        46.000        3041.926    93944216.70305
        35.000        2370.316    22942132.477  
  19373957.852   103274142.45308        51.000        1397.141    80324308.21108
        49.000        1086.766    19373960.047  
  22746063.031   121548196.56608        48.000        4000.180    94537438.79707
        47.000        3111.316    22746062.719  
  20668189.336   110366889.09806        39.000       -2868.219    85840917.17207
        42.000       -2230.512    20668191.031  
  20350064.500   108820932.30907        47.000       -2248.504    84638423.60906
        37.000       -1749.281    20350063.023  
  20528709.414   109853221.38708        51.000         839.332    85441428.82008
        49.000         652.766    20528709.453  
 23  7 24 21 23 44.0000000  0 14G24G11G28G25G29G12G20G05G18R14R15R13            
                                R24R17                                          
  23131332.297   121555939.53106        41.000       -3290.242    94718945.39807
        46.000       -2563.832    23131341.898  
  23229387.273   122071163.64507        43.000       -3174.055    95120432.79704
        27.000       -2473.297    23229389.813  
  23535441.352   123679619.65207        43.000        1897.414    96373713.65604
        27.000        1478.484    23535444.750  
  20808861.469   109351238.06308        49.000        1777.250    85208837.85906
        41.000        1384.871    20808865.500  
  21900878.797   115089917.08207        47.000         328.969    89680461.55508
        48.000         256.336    21900879.344  
  21102881.344   110896396.32808        50.000        -387.891    86412773.09808
        51.000        -302.258    21102881.336  
  22458833.133   118021971.50006        40.000        -643.465    91965139.71904
        27.000        -501.402    22458834.742  
  22397714.891   117700811.91007        43.000        1153.105    91714938.88306
        40.000         898.508    22397716.602  
  22941548.359   120558727.93007        46.000        3041.785    93941841.87905
        35.000        2370.188    22941552.570  
  19373694.641   103272739.55108        51.000        1396.586    80323217.07008
        49.000        1086.324    19373696.977  
  22745313.242   121544190.44508        48.000        4000.230    94534322.93007
        47.000        3111.297    22745312.969  
  20668724.859   110369751.05506        39.000       -2868.113    85843143.16407
        42.000       -2230.945    20668726.914  
  20350483.797   108823174.77007        47.000       -2248.473    84640167.73006
        37.000       -1748.508    20350481.594  
  20528551.172   109852376.26208        51.000         838.988    85440771.49208
        49.000         652.535    20528551.484  
 23  7 24 21 23 45.0000000  0 14G24G11G28G25G29G12G20G05G18R14R15R13            
                                R24R17                                          
  23131960.586   121559240.19106        41.000       -3290.332    94721517.34007
        46.000       -2563.895    23131970.016  
  23229993.031   122074347.45307        42.000       -3173.641    95122913.69104
        27.000       -2472.969    23229995.594  
  23535082.219   123677732.60907        43.000        1896.910    96372243.23004
        27.000        1478.129    23535085.633  
  20808525.305   109349470.98408        49.000        1777.129    85207460.92206
        41.000        1384.773    20808529.266  
  21900817.969   115089598.22307        47.000         329.008    89680213.09808
        48.000         256.379    21900818.664  
  21102957.094   110896794.54708        50.000        -388.184    86413083.39808
        51.000        -302.469    21102957.094  
  22458957.828   118022625.42206        40.000        -644.066    91965649.26604
        27.000        -501.875    22458959.156  
  22397498.086   117699669.51207        43.000        1152.266    91714048.70706
        40.000         897.867    22397499.227  
  22940971.492   120555696.58207        46.000        3041.359    93939479.79305
        35.000        2369.906    22940975.734  
  19373434.641   103271353.60508        51.000        1395.816    80322139.10908
        49.000        1085.773    19373437.000  
  22744566.633   121540200.74208        48.000        3999.941    94531219.83608
        48.000        3111.066    22744566.336  
  20669263.516   110372629.91006        39.000       -2868.711    85845382.27007
        42.000       -2231.285    20669266.086  
  20350906.219   108825433.79707        47.000       -2248.660    84641924.75006
        36.000       -1748.859    20350904.172  
  20528396.313   109851548.01208        51.000         838.289    85440127.29708
        49.000         652.000    20528396.820  
 23  7 24 21 23 46.0000000  0 14G24G11G28G25G29G12G20G05G18R14R15R13            
                                R24R17                                          
  23132588.477   121562540.21506        41.000       -3290.508    94724088.77707
        46.000       -2564.012    23132598.000  
  23230599.008   122077530.73807        43.000       -3173.758    95125394.17604
        27.000       -2473.082    23230601.242  
  23534722.719   123675845.33207        43.000        1896.605    96370772.61304
        27.000        1477.902    23534726.453  
  20808189.000   109347703.46108        49.000        1776.949    85206083.62906
        41.000        1384.641    20808192.906  
  21900757.195   115089278.73007        47.000         329.156    89679964.14108
        48.000         256.465    21900757.898  
  21103032.961   110897192.43408        50.000        -388.578    86413393.44108
        51.000        -302.785    21103032.789  
  22459081.883   118023279.18006        40.000        -644.961    91966158.68004
        26.000        -502.574    22459083.539  
  22397280.625   117698526.78907        43.000        1152.191    91713158.27006
        40.000         897.793    22397281.789  
  22940394.438   120552664.82007        46.000        3041.164    93937117.38305
        35.000        2369.727    22940398.805  
  19373174.766   103269967.68008        51.000        1395.223    80321061.17208
        50.000        1085.230    19373177.023  
  22743819.977   121536210.42208        48.000        3999.988    94528116.26208
        48.000        3111.020    22743819.734  
  20669802.867   110375508.60206        39.000       -2869.203    85847621.25407
        42.000       -2231.664    20669805.117  
  20351328.805   108827692.33608        48.000       -2248.938    84643681.39106
        36.000       -1749.199    20351326.695  
  20528241.883   109850719.57008        51.000         837.801    85439482.94508
        49.000         651.871    20528242.125  
 23  7 24 21 23 47.0000000  0 14G24G11G28G25G29G12G20G05G18R14R15R13            
                                R24R17                                          
  23133214.250   121565826.37506        41.000       -3291.273    94726649.41407
        46.000       -2564.629    23133223.336  
  23231202.094   122080700.27007        43.000       -3174.305    95127863.94104
        27.000       -2473.465    23231204.336  
  23534361.398   123673944.62507        43.000        1895.793    96369291.54704
        27.000        1477.234    23534364.703  
  20807849.984   109345922.27308        49.000        1776.578    85204695.68806
        41.000        1384.348    20807853.977  
  21900693.805   115088945.40207        47.000         328.793    89679704.39508
        48.000         256.219    21900694.516  
  21103105.938   110897576.79308        50.000        -389.297    86413692.93408
        51.000        -303.355    21103105.914  
  22459203.977   118023919.57006        40.000        -644.961    91966657.69504
        26.000        -502.582    22459205.344  
  22397060.539   117697370.58607        43.000        1151.281    91712257.33606
        40.000         897.082    22397061.766  
  22939814.836   120549619.45707        46.000        3040.645    93934744.37105
        35.000        2369.324    22939819.320  
  19372912.281   103268568.35908        51.000        1394.258    80319972.82008
        50.000        1084.324    19372914.547  
  22743070.602   121532206.06308        48.000        3999.543    94525001.74608
        48.000        3110.766    22743070.484  
  20670339.625   110378373.73406        39.000       -2869.867    85849849.66007
        42.000       -2231.926    20670341.781  
  20351748.594   108829936.95308        48.000       -2249.418    84645427.21905
        35.000       -1749.891    20351746.172  
  20528084.813   109849877.44908        51.000         837.273    85438827.97708
        49.000         651.207    20528084.813  
 23  7 24 21 23 48.0000000  0 14G24G11G28G25G29G12G20G05G18R14R15R13            
                                R24R17                                          
  23133838.477   121569108.43806        41.000       -3291.125    94729206.85507
        46.000       -2564.516    23133847.906  
  23231804.680   122083865.82807        43.000       -3174.559    95130330.60904
        27.000       -2473.691    23231806.711  
  23533998.781   123672040.27007        42.000        1895.227    96367807.62904
        27.000        1476.828    23534002.305  
  20807510.297   109344137.24208        49.000        1776.039    85203304.75406
        41.000        1383.930    20807514.320  
  21900629.508   115088608.03107        47.000         328.543    89679441.51208
        48.000         255.996    21900630.305  
  21103178.539   110897957.39808        51.000        -389.621    86413989.51208
        51.000        -303.609    21103178.320  
  22459325.125   118024556.41806        40.000        -645.797    91967153.95304
        26.000        -503.246    22459326.508  
  22396839.359   117696210.66807        43.000        1150.863    91711353.51206
        40.000         896.789    22396841.047  
  22939234.523   120546570.28507        46.000        3040.086    93932368.40205
        35.000        2368.898    22939239.148  
  19372649.039   103267165.58208        51.000        1393.520    80318881.76608
        50.000        1083.781    19372651.359  
  22742320.469   121528197.62108        48.000        3999.457    94521884.08208
        48.000        3110.594    22742320.281  
  20670875.023   110381235.22706        39.000       -2870.254    85852075.30507
        42.000       -2232.805    20670877.586  
  20352167.617   108832177.64507        47.000       -2249.641    84647169.94505
        35.000       -1749.414    20352164.391  
  20527926.750   109849031.67208        51.000         836.441    85438170.15208
        49.000         650.453    20527926.883  
 23  7 24 21 23 49.0000000  0 14G24G11G28G25G29G12G20G05G18R14R15R13            
                                R24R17                                          
  23134465.289   121572402.78106        41.000       -3291.102    94731773.87907
        46.000       -2564.469    23134474.813  
  23232409.383   122087043.78107        42.000       -3174.367    95132806.95304
        27.000       -2473.547    23232411.422  
  23533638.852   123670148.60507        42.000        1894.977    96366333.61704
        27.000        1476.602    23533642.305  
  20807172.891   109342364.68808        49.000        1775.934    85201923.54706
        41.000        1383.844    20807177.055  
  21900567.539   115088282.95707        47.000         328.313    89679188.21508
        48.000         255.824    21900568.445  
  21103253.422   110898350.61308        51.000        -390.059    86414295.91808
        51.000        -303.945    21103253.125  
  22459448.406   118025206.04306        39.000        -646.348    91967660.15204
        26.000        -503.660    22459450.063  
  22396621.070   117695063.37907        43.000        1150.555    91710459.52706
        40.000         896.531    22396622.758  
  22938656.672   120543533.64107        45.000        3039.715    93930002.18805
        35.000        2368.598    22938661.359  
  19372388.359   103265775.93408        51.000        1392.730    80317800.93408
        50.000        1083.156    19372390.766  
  22741572.656   121524201.72708        48.000        3999.246    94518776.16008
        48.000        3110.672    22741572.594  
  20671413.477   110384109.75406        38.000       -2871.137    85854311.02007
        42.000       -2233.141    20671415.867  
  20352589.016   108834431.06607        47.000       -2249.926    84648922.61305
        35.000       -1750.219    20352585.250  
  20527771.031   109848198.85508        51.000         836.117    85437522.41008
        49.000         650.164    20527771.211  
 23  7 24 21 23 50.0000000  0 14G24G11G28G25G29G12G20G05G18R14R15R13            
                                R24R17                                          
  23135092.719   121575701.04706        41.000       -3290.898    94734343.94507
        46.000       -2564.281    23135102.469  
  23233014.672   122090225.77007        43.000       -3174.695    95135286.43004
        27.000       -2473.777    23233016.914  
  23533279.656   123668261.30507        42.000        1894.742    96364862.98804
        27.000        1476.438    23533283.242  
  20806836.477   109340596.27308        49.000        1775.535    85200545.56606
        41.000        1383.531    20806840.563  
  21900506.320   115087961.83607        47.000         328.441    89678937.99208
        48.000         255.945    21900507.352  
  21103328.914   110898748.08608        51.000        -390.297    86414605.63308
        51.000        -304.129    21103328.750  
  22459572.891   118025860.10206        39.000        -647.016    91968169.80904
        26.000        -504.195    22459574.461  
  22396403.688   117693920.38707        43.000        1150.273    91709568.88706
        40.000         896.320    22396405.250  
  22938079.688   120540501.18407        45.000        3039.730    93927639.23805
        35.000        2368.613    22938084.328  
  19372128.648   103264390.91408        51.000        1392.152    80316723.69508
        50.000        1082.781    19372131.000  
  22740825.672   121520209.93408        48.000        3999.203    94515671.43408
        48.000        3110.609    22740825.617  
  20671952.641   110386988.78906        38.000       -2871.578    85856550.28107
        42.000       -2233.969    20671955.250  
  20353011.273   108836688.64108        48.000       -2250.102    84650678.53905
        34.000       -1750.719    20353006.891  
  20527616.484   109847370.55108        51.000         835.520    85436878.16808
        49.000         649.727    20527616.578  
 23  7 24 21 23 51.0000000  0 14G24G11G28G25G29G12G20G05G18R14R15R13            
                                R24R17                                          
  23135717.922   121578987.61706        41.000       -3290.926    94736904.90607
        46.000       -2564.367    23135727.891  
  23233617.867   122093396.17607        43.000       -3174.945    95137756.87104
        27.000       -2473.984    23233620.172  
  23532918.461   123666362.72707        42.000        1893.867    96363383.56304
        27.000        1475.793    23532921.961  
  20806497.891   109338816.37108        49.000        1775.250    85199158.62506
        41.000        1383.309    20806501.859  
  21900443.383   115087629.03907        47.000         328.109    89678678.66808
        48.000         255.660    21900444.070  
  21103402.430   110899134.19108        51.000        -390.719    86414906.49608
        51.000        -304.453    21103402.203  
  22459695.398   118026502.98006        39.000        -647.430    91968670.74604
        26.000        -504.465    22459696.695  
  22396184.156   117692766.07807        43.000        1149.648    91708669.42606
        40.000         895.809    22396185.578  
  22937500.602   120537457.28507        45.000        3039.453    93925267.37105
        35.000        2368.395    22937505.125  
  19371866.797   103262994.67608        51.000        1391.434    80315637.73008
        50.000        1082.199    19371869.094  
  22740076.531   121516206.34408        48.000        3998.844    94512557.52308
        48.000        3110.539    22740076.547  
  20672489.719   110389856.50006        38.000       -2872.734    85858780.69107
        42.000       -2234.102    20672492.227  
  20353431.281   108838934.48008        48.000       -2250.656    84652425.26205
        34.000       -1749.609    20353426.891  
  20527459.641   109846530.79308        51.000         834.918    85436225.02308
        49.000         649.422    20527459.695  
 23  7 24 21 23 52.0000000  0 14G24G11G28G25G29G12G20G05G18R14R15R13            
                                R24R17                                          
  23136344.063   121582276.26206        41.000       -3290.773    94739467.49207
        46.000       -2564.234    23136353.719  
  23234221.461   122096568.75007        43.000       -3174.895    95140229.01604
        26.000       -2473.930    23234223.852  
  23532557.602   123664466.65207        42.000        1893.531    96361906.10904
        27.000        1475.477    23532561.117  
  20806159.539   109337038.75408        49.000        1775.383    85197773.47306
        41.000        1383.406    20806163.633  
  21900380.398   115087298.34007        47.000         328.285    89678420.98008
        48.000         255.793    21900381.117  
  21103476.508   110899522.70308        51.000        -390.891    86415209.23408
        51.000        -304.586    21103476.117  
  22459818.266   118027148.44506        39.000        -648.262    91969173.69904
        26.000        -505.133    22459819.500  
  22395965.094   117691614.19107        43.000        1149.617    91707771.85506
        40.000         895.781    22395966.406  
  22936921.781   120534415.73007        45.000        3039.098    93922897.33605
        35.000        2368.109    22936926.391  
  19371605.344   103261601.19508        51.000        1390.863    80314553.91408
        50.000        1081.758    19371607.836  
  22739327.719   121512204.91408        48.000        3999.145    94509445.31608
        48.000        3110.414    22739327.734  
  20673027.242   110392726.81606        38.000       -2873.000    85861013.18407
        42.000       -2234.484    20673029.602  
  20353851.680   108841182.63307        47.000       -2250.578    84654173.85505
        34.000       -1750.816    20353847.352  
  20527303.063   109845693.62508        51.000         834.508    85435573.88708
        50.000         649.258    20527303.359  
 23  7 24 21 23 53.0000000  0 14G24G11G28G25G29G12G20G05G18R14R15R13            
                                R24R17                                          
  23136972.219   121585577.07806        40.000       -3291.316    94742039.55107
        46.000       -2564.625    23136981.852  
  23234827.883   122099753.60207        42.000       -3175.359    95142710.71904
        26.000       -2474.293    23234829.883  
  23532199.594   123662583.16007        42.000        1892.676    96360438.45704
        27.000        1474.770    23532202.742  
  20805823.664   109335273.50808        49.000        1774.504    85196397.95706
        41.000        1382.727    20805827.750  
  21900319.750   115086979.82407        47.000         327.891    89678172.78908
        48.000         255.496    21900320.500  
  21103552.773   110899923.71508        51.000        -391.840    86415521.71508
        51.000        -305.336    21103552.414  
  22459944.008   118027806.58606        39.000        -648.789    91969686.54304
        26.000        -505.551    22459944.625  
  22395748.219   117690474.82807        43.000        1148.566    91706884.04306
        40.000         894.988    22395749.617  
  22936345.133   120531386.60507        45.000        3038.246    93920536.98805
        35.000        2367.453    22936350.000  
  19371346.391   103260220.71508        51.000        1389.715    80313480.21508
        50.000        1080.840    19371348.859  
  22738581.102   121508215.90208        48.000        3998.613    94506342.75008
        48.000        3110.027    22738581.188  
  20673566.984   110395610.08206        38.000       -2873.875    85863255.71907
        42.000       -2235.348    20673569.523  
  20354274.430   108843443.39807        47.000       -2251.336    84655932.20705
        34.000       -1750.949    20354270.188  
  20527149.039   109844869.34008        51.000         833.684    85434932.78908
        50.000         648.348    20527149.367  
 23  7 24 21 23 54.0000000  0 14G24G11G28G25G29G12G20G05G18R14R15R13            
                                R24R17                                          
  23137599.211   121588870.31606        40.000       -3291.238    94744605.70307
        46.000       -2564.605    23137608.500  
  23235432.500   122102930.99607        43.000       -3175.543    95145186.61304
        26.000       -2474.418    23235434.508  
  23531839.570   123660692.53107        42.000        1892.164    96358965.23804
        27.000        1474.418    23531843.016  
  20805486.383   109333500.91008        49.000        1774.328    85195016.71506
        41.000        1382.594    20805490.422  
  21900257.836   115086653.77007        47.000         327.973    89677918.71908
        48.000         255.586    21900258.484  
  21103627.695   110900317.48408        51.000        -392.012    86415828.54308
        51.000        -305.477    21103627.336  
  22460067.609   118028457.66806        39.000        -649.395    91970193.87504
        26.000        -505.984    22460068.438  
  22395529.891   117689328.25007        43.000        1148.414    91705990.60206
        40.000         894.871    22395531.422  
  22935767.422   120528350.16007        45.000        3038.160    93918170.93005
        35.000        2367.406    22935772.195  
  19371086.234   103258833.24608        51.000        1389.059    80312401.07008
        50.000        1080.402    19371088.609  
  22737833.195   121504219.25808        48.000        3998.438    94503234.24608
        48.000        3109.895    22737833.391  
  20674105.648   110398486.18006        38.000       -2874.375    85865492.68807
        42.000       -2235.859    20674108.352  
  20354696.211   108845696.65608        48.000       -2251.461    84657684.75405
        33.000       -1751.422    20354691.719  
  20526994.016   109844037.83208        51.000         833.230    85434286.06608
        50.000         648.012    20526994.086  
 23  7 24 21 23 55.0000000  0 14G24G11G28G25G29G12G20G05G18R14R15R13            
                                R24R17                                          
  23138223.102   121592149.47306        40.000       -3291.324    94747160.87907
        46.000       -2564.637    23138232.484  
  23236034.516   122106094.44507        43.000       -3175.926    95147651.64104
        26.000       -2474.750    23236036.391  
  23531477.172   123658788.23407        42.000        1892.039    96357481.36304
        27.000        1474.340    23531480.633  
  20805146.336   109331714.44108        49.000        1774.230    85193624.65606
        41.000        1382.516    20805150.453  
  21900192.891   115086313.66007        47.000         327.887    89677653.69508
        48.000         255.469    21900193.766  
  21103700.047   110900697.51608        51.000        -392.426    86416124.66808
        51.000        -305.789    21103699.641  
  22460189.063   118029095.16806        39.000        -649.551    91970690.63704
        26.000        -506.156    22460189.766  
  22395309.141   117688168.00007        43.000        1147.855    91705086.51606
        40.000         894.410    22395310.617  
  22935186.883   120525299.90607        45.000        3037.746    93915794.11305
        35.000        2367.066    22935191.766  
  19370823.391   103257432.17608        51.000        1388.293    80311311.35208
        50.000        1079.770    19370825.773  
  22737082.617   121500208.37508        48.000        3998.379    94500114.67608
        48.000        3109.715    22737082.852  
  20674641.719   110401348.48806        38.000       -2874.855    85867718.92207
        42.000       -2236.297    20674644.422  
  20355114.953   108847935.80108        48.000       -2251.645    84659426.32005
        34.000       -1752.137    20355110.484  
  20526836.023   109843192.44508        51.000         832.637    85433628.53108
        50.000         647.777    20526836.164  
 23  7 24 21 23 56.0000000  0 14G24G11G28G25G29G12G20G05G18R14R15R13            
                                R24R17                                          
  23138848.414   121595435.77006        40.000       -3291.480    94749721.61707
        46.000       -2564.789    23138857.867  
  23236637.586   122109265.08607        43.000       -3175.727    95150122.27704
        27.000       -2474.602    23236639.750  
  23531115.930   123656891.49607        42.000        1891.570    96356003.39804
        27.000        1473.949    23531119.758  
  20804807.734   109329935.30108        49.000        1773.973    85192238.31606
        41.000        1382.313    20804811.930  
  21900129.406   115085980.69907        47.000         327.645    89677394.24608
        48.000         255.301    21900130.398  
  21103773.555   110901084.98408        51.000        -392.719    86416426.59408
        51.000        -306.020    21103773.359  
  22460311.273   118029740.32006        39.000        -650.301    91971193.35504
        26.000        -506.738    22460312.508  
  22395090.047   117687015.20707        43.000        1147.559    91704188.24206
        40.000         894.195    22395091.258  
  22934607.898   120522257.02007        45.000        3037.762    93913423.04705
        35.000        2367.063    22934612.750  
  19370561.938   103256038.99608        51.000        1387.625    80310227.76208
        50.000        1079.266    19370564.516  
  22736333.336   121496204.82008        48.000        3998.191    94497000.79708
        48.000        3109.859    22736333.563  
  20675178.609   110404218.51606        38.000       -2875.340    85869951.18007
        42.000       -2236.609    20675181.930  
  20355535.078   108850182.39508        48.000       -2251.910    84661173.66805
        34.000       -1751.848    20355530.078  
  20526679.188   109842354.74608        51.000         832.195    85432976.99208
        50.000         647.129    20526679.578  
 23  7 24 21 23 57.0000000  0 14G24G11G28G25G29G12G20G05G18R14R15R13            
                                R24R17                                          
  23139476.344   121598736.18406        40.000       -3291.762    94752293.36707
        46.000       -2564.992    23139485.906  
  23237243.516   122112449.98007        43.000       -3176.074    95152604.02004
        27.000       -2474.871    23237245.758  
  23530757.750   123655009.28907        42.000        1890.844    96354536.74604
        27.000        1473.406    23530761.656  
  20804471.938   109328170.48808        49.000        1773.559    85190863.14106
        41.000        1381.992    20804476.125  
  21900068.852   115085661.86307        47.000         327.781    89677145.80508
        48.000         255.410    21900069.734  
  21103850.117   110901486.91408        51.000        -393.184    86416739.78508
        51.000        -306.375    21103849.820  
  22460437.094   118030400.10506        39.000        -651.359    91971707.47704
        26.000        -507.547    22460438.008  
  22394873.242   117685876.91807        43.000        1147.012    91703301.25806
        40.000         893.781    22394874.656  
  22934031.664   120519228.52707        45.000        3037.125    93911063.18805
        35.000        2366.613    22934036.438  
  19370303.398   103254660.78108        51.000        1386.891    80309155.82008
        50.000        1078.566    19370305.984  
  22735586.656   121492215.69108        48.000        3998.211    94493898.14108
        48.000        3109.676    22735587.008  
  20675718.477   110407103.46106        38.000       -2876.883    85872194.99207
        42.000       -2236.953    20675722.047  
  20355958.195   108852443.52308        48.000       -2252.047    84662932.31605
        34.000       -1751.926    20355953.211  
  20526525.438   109841531.89808        51.000         831.668    85432337.00808
        50.000         646.805    20526525.875  
 23  7 24 21 23 58.0000000  0 14G24G11G28G25G29G12G20G05G18R14R15R13            
                                R24R17                                          
  23140102.977   121602029.59806        40.000       -3291.375    94754859.65207
        46.000       -2564.684    23140112.586  
  23237848.852   122115628.00407        43.000       -3176.410    95155080.39104
        27.000       -2475.105    23237850.523  
  23530398.523   123653120.54307        42.000        1890.367    96353064.99204
        27.000        1473.016    23530402.297  
  20804134.820   109326398.92608        49.000        1773.258    85189482.70306
        41.000        1381.773    20804138.984  
  21900006.930   115085336.08207        47.000         327.770    89676891.94908
        48.000         255.406    21900007.805  
  21103925.273   110901882.19508        51.000        -393.531    86417047.79708
        51.000        -306.656    21103925.031  
  22460561.016   118031053.40606        39.000        -651.691    91972216.53104
        25.000        -507.813    22460562.297  
  22394655.547   117684732.00407        43.000        1146.852    91702409.10906
        40.000         893.648    22394656.773  
  22933454.203   120516193.32807        45.000        3036.848    93908698.09405
        35.000        2366.379    22933458.852  
  19370043.742   103253276.13308        51.000        1386.219    80308078.87508
        50.000        1078.074    19370046.227  
  22734838.859   121488219.52008        48.000        3998.105    94490790.02008
        48.000        3109.473    22734839.227  
  20676257.586   110409981.78106        38.000       -2876.512    85874433.71107
        42.000       -2237.621    20676261.188  
  20356380.094   108854697.73008        48.000       -2252.594    84664685.58605
        35.000       -1752.145    20356375.203  
  20526370.594   109840702.48808        51.000         831.055    85431691.91008
        50.000         646.273    20526371.023  
 23  7 24 21 23 59.0000000  0 14G24G11G28G25G29G12G20G05G18R14R15R13            
                                R24R17                                          
  23140727.141   121605308.77706        40.000       -3291.738    94757414.85507
        46.000       -2565.035    23140736.586  
  23238450.805   122118791.87907        42.000       -3176.469    95157545.75004
        27.000       -2475.152    23238452.539  
  23530036.664   123651217.96507        42.000        1889.988    96351582.46104
        27.000        1472.727    23530040.281  
  20803795.000   109324613.30908        49.000        1773.336    85188091.31306
        41.000        1381.816    20803799.219  
  21899941.805   115084996.07407        47.000         327.578    89676627.01608
        48.000         255.230    21899943.125  
  21103997.859   110902263.55508        51.000        -393.930    86417344.96108
        51.000        -306.961    21103997.594  
  22460682.266   118031692.96906        39.000        -652.109    91972714.89104
        25.000        -508.133    22460683.984  
  22394434.844   117683573.21507        43.000        1146.328    91701506.16006
        40.000         893.234    22394436.266  
  22932873.773   120513144.10907        45.000        3036.578    93906322.08205
        35.000        2366.160    22932878.664  
  19369781.281   103251877.66408        51.000        1385.477    80306991.18008
        50.000        1077.703    19369783.852  
  22734088.352   121484208.90608        48.000        3997.992    94487670.64808
        48.000        3109.543    22734088.609  
  20676794.078   110412846.16806        38.000       -2877.043    85876661.56607
        42.000       -2237.773    20676797.789  
  20356799.070   108856937.61708        48.000       -2252.680    84666427.72705
        34.000       -1752.102    20356793.961  
  20526212.867   109839859.03908        51.000         830.586    85431035.89108
        50.000         646.016    20526213.422  
 23  7 24 21 24  0.0000000  0 14G24G11G28G25G29G12G20G05G18R14R15R13            
                                R24R17                                          
  23141352.125   121608594.98006        40.000       -3291.809    94759975.52307
        46.000       -2565.000    23141361.938  
  23239054.219   122121962.88307        42.000       -3176.492    95160016.65604
        27.000       -2475.203    23239056.008  
  23529676.367   123649322.83207        42.000        1889.262    96350105.74204
        27.000        1472.156    23529679.703  
  20803456.695   109322834.92608        49.000        1772.770    85186705.56606
        41.000        1381.371    20803460.813  
  21899878.523   115084663.10907        47.000         327.352    89676367.55908
        48.000         255.078    21899879.773  
  21104071.875   110902652.26208        51.000        -394.426    86417647.85208
        51.000        -307.348    21104071.539  
  22460805.227   118032340.07806        39.000        -652.789    91973219.14104
        25.000        -508.703    22460806.977  
  22394216.289   117682421.82007        43.000        1145.449    91700608.97306
        40.000         892.563    22394217.219  
  22932294.742   120510102.18807        45.000        3036.254    93903951.75805
        35.000        2365.906    22932299.836  
  19369520.234   103250487.00408        51.000        1384.684    80305909.55908
        50.000        1076.918    19369522.875  
  22733338.977   121480205.53908        48.000        3997.645    94484556.92208
        48.000        3109.262    22733339.477  
  20677331.461   110415718.25406        38.000       -2878.184    85878895.39507
        42.000       -2238.566    20677335.555  
  20357219.352   108859184.89808        48.000       -2252.855    84668175.61705
        34.000       -1752.410    20357214.195  
  20526056.250   109839023.18808        51.000         829.934    85430385.78508
        50.000         645.578    20526057.172  
 23  7 24 21 24  1.0000000  0 14G24G11G28G25G29G12G20G05G18R14R15R13            
                                R24R17                                          
  23141980.563   121611897.64506        40.000       -3291.918    94762549.02307
        46.000       -2565.129    23141990.422  
  23239660.352   122125150.48807        42.000       -3177.125    95162500.51604
        27.000       -2475.703    23239662.641  
  23529318.742   123647444.62507        42.000        1888.570    96348642.19904
        27.000        1471.594    23529322.375  
  20803121.461   109321073.24208        49.000        1772.121    85185332.82806
        41.000        1380.852    20803125.586  
  21899818.523   115084346.64507        47.000         327.199    89676120.96908
        48.000         254.957    21899819.547  
  21104149.023   110903057.78508        51.000        -394.910    86417963.84808
        51.000        -307.727    21104148.695  
  22460932.023   118033004.16806        39.000        -653.813    91973736.62104
        25.000        -509.496    22460933.336  
  22394000.180   117681287.23407        43.000        1145.316    91699724.88306
        40.000         892.445    22394001.367  
  22931718.727   120507077.00407        45.000        3035.781    93901594.48005
        35.000        2365.539    22931724.188  
  19369262.555   103249113.74208        51.000        1383.633    80304841.46108
        50.000        1076.273    19369265.328  
  22732592.953   121476219.03908        48.000        3997.219    94481456.30908
        48.000        3109.051    22732593.383  
  20677872.633   110418607.61706        38.000       -2879.332    85881142.67607
        42.000       -2239.133    20677876.703  
  20357642.719   108861449.16808        48.000       -2253.906    84669936.70705
        34.000       -1752.777    20357637.945  
  20525903.117   109838204.57808        51.000         829.039    85429749.09008
        50.000         644.992    20525904.117  
 23  7 24 21 24  2.0000000  0 14G24G11G28G25G29G12G20G05G18R14R15R13            
                                R24R17                                          
  23142609.328   121615199.75806        40.000       -3291.855    94765122.08607
        46.000       -2565.078    23142618.781  
  23240267.148   122128337.63707        42.000       -3177.051    95164984.01204
        27.000       -2475.652    23240269.109  
  23528961.219   123645566.26607        42.000        1888.141    96347178.53504
        27.000        1471.281    23528964.938  
  20802786.156   109319311.20708        49.000        1771.750    85183959.80906
        41.000        1380.594    20802790.273  
  21899758.188   115084029.64507        47.000         327.070    89675873.94908
        48.000         254.875    21899759.250  
  21104226.055   110903463.08208        51.000        -395.480    86418279.66008
        51.000        -308.164    21104225.813  
  22461058.602   118033668.22706        40.000        -654.309    91974254.06304
        25.000        -509.855    22461059.758  
  22393784.242   117680152.48007        43.000        1144.422    91698840.65606
        41.000         891.781    22393785.445  
  22931143.281   120504051.52307        46.000        3035.352    93899236.97305
        35.000        2365.207    22931148.461  
  19369005.055   103247740.61708        51.000        1382.742    80303773.47708
        50.000        1075.578    19369007.734  
  22731846.844   121472232.04708        48.000        3997.098    94478355.31308
        48.000        3108.922    22731847.375  
  20678414.000   110421496.93806        38.000       -2879.680    85883389.94107
        42.000       -2239.734    20678417.844  
  20358066.273   108863713.03908        48.000       -2254.121    84671697.49205
        35.000       -1753.215    20358061.453  
  20525750.328   109837385.89808        51.000         828.602    85429112.34008
        50.000         644.520    20525751.156  
 23  7 24 21 24  3.0000000  0 14G24G11G28G25G29G12G20G05G18R14R15R13            
                                R24R17                                          
  23143234.563   121618485.80906        40.000       -3292.313    94767682.62907
        46.000       -2565.438    23143244.070  
  23240870.047   122131508.81307        42.000       -3176.977    95167455.05904
        27.000       -2475.555    23240872.609  
  23528600.789   123643672.25407        42.000        1887.840    96345702.67204
        27.000        1471.078    23528604.602  
  20802447.867   109317533.32408        49.000        1771.781    85182574.44506
        41.000        1380.602    20802451.945  
  21899695.086   115083696.60207        47.000         327.324    89675614.43008
        48.000         255.055    21899695.906  
  21104300.211   110903852.63708        51.000        -395.570    86418583.20708
        51.000        -308.211    21104299.938  
  22461181.898   118034316.69906        40.000        -654.809    91974759.35904
        25.000        -510.238    22461183.102  
  22393565.680   117679002.01207        43.000        1144.379    91697944.18406
        41.000         891.727    22393566.516  
  22930564.766   120501010.24207        46.000        3035.293    93896867.14505
        35.000        2365.164    22930569.719  
  19368744.484   103246351.84408        51.000        1382.426    80302693.32808
        50.000        1075.164    19368747.102  
  22731097.813   121468228.74608        48.000        3997.254    94475241.64108
        48.000        3108.910    22731098.305  
  20678952.125   110424370.49606        38.000       -2879.418    85885624.92607
        42.000       -2240.074    20678956.039  
  20358486.672   108865960.73808        48.000       -2253.832    84673445.68405
        35.000       -1752.844    20358481.875  
  20525594.523   109836551.35508        51.000         828.262    85428463.24608
        50.000         644.227    20525595.227  
 23  7 24 21 24  4.0000000  0 14G24G11G28G25G29G12G20G05G18R14R15R13            
                                R24R17                                          
  23143858.273   121621761.22306        41.000       -3292.027    94770234.89807
        46.000       -2565.207    23143867.352  
  23241472.047   122134669.47707        43.000       -3177.441    95169917.91404
        26.000       -2475.926    23241474.141  
  23528238.594   123641768.03507        42.000        1887.563    96344218.85904
        27.000        1470.832    23528242.172  
  20802107.484   109315744.99208        49.000        1771.875    85181180.94506
        41.000        1380.676    20802111.648  
  21899629.313   115083352.94107        47.000         327.133    89675346.64808
        48.000         254.891    21899630.500  
  21104372.359   110904231.87908        51.000        -396.008    86418878.71908
        51.000        -308.578    21104372.094  
  22461303.531   118034955.04706        40.000        -655.254    91975256.77004
        25.000        -510.590    22461304.531  
  22393344.727   117677841.26607        43.000        1144.117    91697039.70306
        41.000         891.520    22393345.664  
  22929983.977   120497958.57407        46.000        3034.863    93894489.23005
        35.000        2364.840    22929989.016  
  19368482.031   103244952.92208        51.000        1381.879    80301605.28508
        50.000        1074.547    19368484.734  
  22730346.578   121464214.66408        48.000        3997.363    94472119.58608
        48.000        3109.008    22730347.102  
  20679488.594   110427233.75006        38.000       -2879.656    85887851.90607
        42.000       -2240.402    20679492.055  
  20358904.750   108868197.78908        48.000       -2253.797    84675185.64806
        36.000       -1753.523    20358900.438  
  20525436.313   109835706.42608        51.000         827.855    85427806.08608
        50.000         643.793    20525437.320  
 23  7 24 21 24  5.0000000  0 14G24G11G28G25G29G12G20G05G18R14R15R13            
                                R24R17                                          
  23144483.227   121625047.13706        40.000       -3292.203    94772795.35507
        45.000       -2565.379    23144492.617  
  23242075.188   122137840.74607        42.000       -3177.469    95172389.03904
        26.000       -2475.957    23242077.547  
  23527878.531   123639874.75807        42.000        1887.004    96342743.58604
        27.000        1470.359    23527881.961  
  20801769.328   109313967.40608        49.000        1771.414    85179795.81606
        41.000        1380.320    20801773.398  
  21899565.953   115083019.81307        47.000         327.227    89675087.07008
        48.000         254.977    21899567.094  
  21104446.547   110904621.96508        51.000        -396.176    86419182.68808
        51.000        -308.723    21104446.313  
  22461427.289   118035604.41806        40.000        -655.719    91975762.77704
        25.000        -510.949    22461428.016  
  22393126.070   117676691.41807        44.000        1143.582    91696143.72306
        41.000         891.078    22393126.922  
  22929405.352   120494917.68807        46.000        3034.746    93892119.70705
        35.000        2364.734    22929410.359  
  19368221.625   103243565.32008        51.000        1381.324    80300526.03508
        50.000        1074.270    19368224.406  
  22729597.289   121460211.36308        48.000        3996.949    94469005.89808
        48.000        3108.855    22729597.813  
  20680026.680   110430108.22706        38.000       -2881.129    85890087.59407
        42.000       -2240.602    20680030.430  
  20359324.820   108870445.77308        48.000       -2254.305    84676934.05506
        36.000       -1752.969    20359320.781  
  20525280.109   109834872.65608        51.000         827.414    85427157.59808
        50.000         643.516    20525281.609  
 23  7 24 21 24  6.0000000  0 14G24G11G28G25G29G12G20G05G18R14R15R13            
                                R24R17                                          
  23145111.797   121628350.41406        40.000       -3292.609    94775369.33207
        45.000       -2565.680    23145121.195  
  23242681.883   122141029.50007        42.000       -3177.762    95174873.78104
        26.000       -2476.184    23242684.367  
  23527521.461   123637999.28907        42.000        1886.137    96341282.19504
        27.000        1469.688    23527525.109  
  20801434.359   109312207.41008        49.000        1770.863    85178424.39506
        41.000        1379.898    20801438.492  
  21899505.891   115082704.08207        47.000         326.859    89674841.05508
        48.000         254.680    21899507.016  
  21104524.125   110905029.77308        50.000        -397.020    86419500.46108
        51.000        -309.375    21104523.906  
  22461553.953   118036271.68806        40.000        -656.438    91976282.73404
        24.000        -511.563    22461554.852  
  22392910.664   117675559.29307        44.000        1142.949    91695261.54706
        41.000         890.629    22392911.555  
  22928829.984   120491894.43807        46.000        3033.902    93889763.93405
        35.000        2364.070    22928835.063  
  19367964.789   103242196.02008        51.000        1380.066    80299461.02308
        50.000        1073.379    19367967.477  
  22728851.297   121456225.78507        47.000        3997.016    94465906.01608
        48.000        3108.617    22728852.000  
  20680568.320   110433000.85906        38.000       -2881.805    85892337.42207
        42.000       -2241.316    20680572.047  
  20359748.188   108872711.61308        48.000       -2254.773    84678696.38306
        36.000       -1753.590    20359744.266  
  20525127.516   109834057.03108        51.000         826.531    85426523.22308
        50.000         643.000    20525129.063  
 23  7 24 21 24  7.0000000  0 14G24G11G28G25G29G12G20G05G18R14R15R13            
                                R24R17                                          
  23145741.086   121631659.25406        41.000       -3292.375    94777947.63707
        45.000       -2565.480    23145750.805  
  23243289.664   122144223.93007        42.000       -3177.734    95177362.94104
        26.000       -2476.152    23243292.297  
  23527165.344   123636129.80507        42.000        1885.715    96339825.45304
        27.000        1469.387    23527169.398  
  20801100.547   109310453.18408        49.000        1770.777    85177057.46506
        41.000        1379.828    20801104.648  
  21899446.984   115082393.94907        47.000         326.766    89674599.39108
        48.000         254.633    21899448.031  
  21104602.969   110905443.47308        50.000        -397.242    86419822.82408
        51.000        -309.531    21104602.625  
  22461682.313   118036945.03506        40.000        -656.918    91976807.42604
        24.000        -511.891    22461682.953  
  22392696.461   117674433.12107        44.000        1142.859    91694384.01606
        41.000         890.527    22392697.305  
  22928256.031   120488877.00407        46.000        3033.770    93887412.69105
        35.000        2363.973    22928260.859  
  19367709.141   103240833.02708        51.000        1379.621    80298400.92208
        50.000        1072.887    19367711.688  
  22728106.594   121452245.99608        48.000        3996.641    94462810.62108
        48.000        3108.465    22728107.273  
  20681111.336   110435899.64506        38.000       -2881.707    85894592.03907
        42.000       -2241.371    20681114.969  
  20360173.297   108874983.32008        48.000       -2254.688    84680463.28906
        36.000       -1754.031    20360169.516  
  20524976.461   109833247.57408        51.000         826.309    85425893.64808
        50.000         642.500    20524977.820  
 23  7 24 21 24  8.0000000  0 14G24G11G28G25G29G12G20G05G18R14R15R13            
                                R24R17                                          
  23146368.563   121634956.24606        41.000       -3292.449    94780516.71907
        45.000       -2565.563    23146378.164  
  23243895.422   122147406.60907        42.000       -3178.016    95179842.95704
        26.000       -2476.359    23243897.844  
  23526807.555   123634248.87107        43.000        1885.348    96338359.78904
        27.000        1469.090    23526811.539  
  20800764.430   109308687.30108        49.000        1770.426    85175681.45306
        41.000        1379.551    20800768.563  
  21899385.797   115082071.96507        47.000         326.688    89674348.49208
        48.000         254.563    21899386.828  
  21104679.508   110905845.63708        50.000        -397.723    86420136.19508
        51.000        -309.922    21104679.148  
  22461808.602   118037607.02706        40.000        -657.590    91977323.25804
        24.000        -512.367    22461808.844  
  22392479.797   117673295.44507        44.000        1141.855    91693497.51206
        41.000         889.777    22392480.820  
  22927679.820   120485847.96907        46.000        3033.637    93885052.40605
        35.000        2363.879    22927684.438  
  19367451.406   103239458.67608        51.000        1378.891    80297331.98408
        50.000        1072.406    19367453.984  
  22727359.578   121448254.21108        48.000        3996.590    94459705.90208
        48.000        3108.445    22727360.328  
  20681652.086   110438786.94106        38.000       -2882.691    85896837.71107
        43.000       -2242.199    20681655.906  
  20360596.125   108877243.17608        48.000       -2255.113    84682220.94106
        36.000       -1754.332    20360592.984  
  20524823.375   109832426.54308        51.000         825.648    85425255.06308
        50.000         642.145    20524824.492  
 23  7 24 21 24  9.0000000  0 14G24G11G28G25G29G12G20G05G18R14R15R13            
                                R24R17                                          
  23146993.555   121638235.88306        41.000       -3292.332    94783072.27707
        45.000       -2565.453    23147002.234  
  23244497.945   122150572.06307        42.000       -3178.367    95182309.53504
        26.000       -2476.637    23244500.180  
  23526446.672   123632351.03507        42.000        1885.168    96336880.94904
        27.000        1468.961    23526450.445  
  20800425.266   109306904.29308        49.000        1770.262    85174292.09406
        41.000        1379.426    20800429.234  
  21899321.148   115081732.67207        47.000         326.758    89674084.10508
        48.000         254.621    21899322.297  
  21104752.844   110906230.79708        50.000        -397.969    86420436.32008
        51.000        -310.105    21104752.453  
  22461930.594   118038252.17606        39.000        -658.066    91977825.96904
        24.000        -512.777    22461931.672  
  22392260.164   117672140.76607        44.000        1141.988    91692597.75806
        41.000         889.879    22392261.125  
  22927100.125   120482801.86707        46.000        3033.063    93882678.82005
        35.000        2363.449    22927104.750  
  19367190.469   103238067.37908        51.000        1378.367    80296249.86308
        50.000        1071.914    19367192.945  
  22726609.453   121444244.82808        48.000        3996.703    94456587.50408
        48.000        3108.480    22726609.992  
  20682189.703   110441657.10906        38.000       -2882.879    85899070.07407
        42.000       -2242.637    20682193.430  
  20361015.398   108879485.55508        48.000       -2255.199    84683965.02006
        36.000       -1754.418    20361012.070  
  20524666.852   109831588.30908        51.000         825.324    85424603.10508
        50.000         641.930    20524667.766  
 23  7 24 21 24 10.0000000  0 14G24G11G28G25G29G12G20G05G18R14R15R13            
                                R24R17                                          
  23147617.531   121641515.96506        40.000       -3292.887    94785628.18407
        45.000       -2565.898    23147626.375  
  23245100.555   122153738.04707        42.000       -3178.832    95184776.54704
        26.000       -2477.016    23245102.688  
  23526085.391   123630454.05907        42.000        1884.125    96335402.78104
        27.000        1468.129    23526089.500  
  20800085.977   109305121.93408        49.000        1769.402    85172903.24606
        41.000        1378.758    20800090.078  
  21899256.742   115081393.84007        47.000         325.973    89673820.08608
        48.000         253.992    21899257.813  
  21104826.266   110906616.72308        50.000        -398.930    86420737.04308
        51.000        -310.855    21104825.883  
  22462053.742   118038898.28106        39.000        -658.664    91978329.42204
        24.000        -513.246    22462054.734  
  22392040.922   117670986.88307        44.000        1141.289    91691698.62906
        41.000         889.305    22392041.625  
  22926520.438   120479756.44507        46.000        3032.742    93880305.77005
        35.000        2363.172    22926525.234  
  19366929.609   103236677.18008        51.000        1376.969    80295168.59408
        50.000        1070.961    19366932.070  
  22725859.070   121440235.98407        47.000        3995.934    94453469.50408
        48.000        3107.977    22725859.641  
  20682727.430   110444528.30906        38.000       -2884.652    85901303.21107
        43.000       -2243.395    20682730.984  
  20361434.500   108881728.57808        48.000       -2255.922    84685709.60206
        36.000       -1754.961    20361431.906  
  20524510.039   109830750.96508        51.000         824.211    85423951.84408
        50.000         640.941    20524511.172  
 23  7 24 21 24 11.0000000  0 14G24G11G28G25G29G12G20G05G18R14R15R13            
                                R24R17                                          
  23148244.617   121644811.82406        41.000       -3292.875    94788196.38707
        45.000       -2565.875    23148253.539  
  23245706.055   122156919.91407        42.000       -3178.660    95187255.92604
        26.000       -2476.879    23245708.180  
  23525726.906   123628573.28107        42.000        1883.637    96333937.23804
        27.000        1467.797    23525731.719  
  20799749.867   109303355.56308        49.000        1769.328    85171526.85506
        41.000        1378.680    20799753.945  
  21899195.164   115081070.80107        47.000         326.137    89673568.37108
        48.000         254.129    21899196.344  
  21104902.719   110907018.75808        50.000        -399.172    86421050.31608
        51.000        -311.043    21104902.375  
  22462179.352   118039560.68806        39.000        -659.637    91978845.59404
        24.000        -513.996    22462180.695  
  22391824.297   117669849.14807        44.000        1140.625    91690812.09406
        41.000         888.785    22391825.172  
  22925943.898   120476727.07407        46.000        3032.418    93877945.22305
        35.000        2362.910    22925948.789  
  19366671.930   103235303.63308        51.000        1376.547    80294100.28908
        51.000        1070.605    19366674.328  
  22725111.703   121436243.25007        47.000        3995.922    94450364.04708
        48.000        3107.875    22725112.414  
  20683267.898   110447416.05906        38.000       -2884.711    85903549.25007
        43.000       -2243.781    20683271.859  
  20361856.750   108883987.84008        48.000       -2256.137    84687466.80506
        36.000       -1754.980    20361854.398  
  20524356.469   109829930.16808        51.000         823.879    85423313.44508
        50.000         640.754    20524357.836  
 23  7 24 21 24 12.0000000  0 14G24G11G28G25G29G12G20G05G18R14R15R13            
                                R24R17                                          
  23148873.477   121648118.96506        40.000       -3293.035    94790773.36307
        45.000       -2565.992    23148882.813  
  23246313.492   122160113.19507        42.000       -3179.195    95189744.19904
        27.000       -2477.328    23246315.797  
  23525371.844   123626704.22707        42.000        1883.285    96332480.84004
        27.000        1467.480    23525376.086  
  20799415.930   109301600.70308        49.000        1769.008    85170159.43406
        41.000        1378.434    20799419.992  
  21899136.000   115080759.09007        47.000         325.902    89673325.47708
        48.000         253.961    21899137.063  
  21104981.383   110907432.42608        50.000        -399.637    86421372.65208
        51.000        -311.391    21104981.094  
  22462307.828   118040234.89806        39.000        -660.480    91979370.95704
        24.000        -514.660    22462308.906  
  22391609.883   117668723.09807        44.000        1139.965    91689934.65606
        41.000         888.277    22391610.938  
  22925369.813   120473709.26207        46.000        3031.977    93875593.68405
        35.000        2362.582    22925374.531  
  19366416.539   103233942.23808        51.000        1375.535    80293041.41808
        50.000        1069.879    19366418.914  
  22724366.672   121432262.09807        47.000        3995.594    94447267.59808
        48.000        3107.520    22724367.516  
  20683810.734   110450315.86706        38.000       -2886.023    85905804.63707
        43.000       -2244.340    20683814.953  
  20362281.461   108886258.82808        48.000       -2256.652    84689233.11706
        37.000       -1755.016    20362279.117  
  20524205.531   109829121.39508        51.000         823.016    85422684.40208
        50.000         640.074    20524206.586  
 23  7 24 21 24 13.0000000  0 14G24G11G28G25G29G12G20G05G18R14R15R13            
                                R24R17                                          
  23149501.242   121651416.31606        41.000       -3292.938    94793342.71907
        45.000       -2565.891    23149510.227  
  23246919.266   122163296.78107        42.000       -3178.902    95192224.90604
        27.000       -2477.055    23246921.609  
  23525014.273   123624825.81307        42.000        1882.941    96331017.13704
        27.000        1467.211    23525018.633  
  20799080.109   109299836.25808        49.000        1768.918    85168784.53906
        41.000        1378.375    20799084.211  
  21899074.875   115080437.58608        48.000         326.254    89673074.95308
        48.000         254.223    21899075.945  
  21105058.219   110907836.62108        50.000        -399.582    86421687.60508
        51.000        -311.352    21105058.023  
  22462434.297   118040899.79306        39.000        -660.539    91979889.04704
        24.000        -514.691    22462435.391  
  22391393.734   117667587.60507        44.000        1139.660    91689049.85506
        41.000         888.074    22391394.867  
  22924793.563   120470681.90207        46.000        3032.109    93873234.70705
        35.000        2362.676    22924798.430  
  19366159.492   103232571.55508        51.000        1375.109    80291975.33208
        50.000        1069.586    19366161.813  
  22723620.016   121428271.05108        48.000        3995.613    94444163.45308
        48.000        3107.887    22723620.773  
  20684352.305   110453206.20306        38.000       -2885.301    85908052.68407
        43.000       -2244.184    20684356.383  
  20362704.602   108888520.00408        48.000       -2256.438    84690991.80106
        36.000       -1754.879    20362702.039  
  20524052.922   109828303.12908        51.000         822.809    85422047.97308
        50.000         640.023    20524053.742  
 23  7 24 21 24 14.0000000  0 14G24G11G28G25G29G12G20G05G18R14R15R13            
                                R24R17                                          
  23150125.586   121654698.56606        40.000       -3292.789    94795900.30507
        45.000       -2565.777    23150134.781  
  23247522.281   122166465.39507        42.000       -3179.078    95194693.96504
        27.000       -2477.168    23247524.555  
  23524654.469   123622932.73807        42.000        1882.023    96329542.01604
        27.000        1466.508    23524658.477  
  20798741.602   109298056.94508        49.000        1768.520    85167398.06606
        41.000        1378.063    20798745.586  
  21899010.852   115080101.03907        47.000         325.910    89672812.70708
        48.000         253.949    21899011.922  
  21105132.320   110908226.07408        50.000        -400.273    86421991.07408
        51.000        -311.914    21105132.141  
  22462558.734   118041550.16806        39.000        -661.734    91980395.83204
        24.000        -515.629    22462559.109  
  22391175.141   117666437.41407        44.000        1139.352    91688153.59406
        41.000         887.828    22391176.023  
  22924214.547   120467639.74607        46.000        3031.270    93870864.19105
        35.000        2362.027    22924219.484  
  19365899.703   103231186.24208        51.000        1374.125    80290897.87108
        50.000        1068.895    19365901.914  
  22722870.211   121424264.74207        47.000        3995.414    94441047.43408
        48.000        3107.621    22722870.938  
  20684891.039   110456081.74606        38.000       -2887.004    85910289.21107
        43.000       -2244.840    20684895.008  
  20363124.469   108890766.02308        48.000       -2256.934    84692738.69906
        37.000       -1754.852    20363122.117  
  20523897.281   109827469.97308        51.000         821.938    85421399.96108
        50.000         639.434    20523898.008  
 23  7 24 21 24 15.0000000  0 14G24G11G28G25G29G12G20G05G18R14R15R13            
                                R24R17                                          
  23150751.375   121657988.00006        41.000       -3292.637    94798463.50407
        45.000       -2565.695    23150760.711  
  23248126.641   122169641.31607        42.000       -3179.512    95197168.71104
        27.000       -2477.555    23248128.914  
  23524295.195   123621047.27007        42.000        1881.699    96328072.82404
        27.000        1466.250    23524299.773  
  20798404.563   109296285.03508        49.000        1768.199    85166017.35906
        41.000        1377.820    20798408.414  
  21898947.992   115079771.69108        48.000         325.934    89672556.07808
        48.000         253.984    21898949.258  
  21105207.750   110908623.03908        50.000        -400.543    86422300.40208
        51.000        -312.113    21105207.672  
  22462683.789   118042208.18006        39.000        -661.191    91980908.56604
        24.000        -515.223    22462684.203  
  22390957.750   117665294.75407        44.000        1138.836    91687263.21906
        41.000         887.383    22390958.656  
  22923636.766   120464605.02707        46.000        3030.918    93868499.48405
        35.000        2361.758    22923642.023  
  19365641.305   103229808.89108        51.000        1373.520    80289826.59808
        50.000        1068.332    19365643.539  
  22722121.898   121420265.78507        47.000        3995.336    94437937.13308
        48.000        3107.570    22722122.500  
  20685430.938   110458965.07006        38.000       -2887.000    85912531.81307
        43.000       -2245.461    20685434.742  
  20363545.492   108893019.55508        48.000       -2257.383    84694491.44106
        37.000       -1755.363    20363544.055  
  20523742.828   109826644.57408        51.000         821.676    85420757.98008
        50.000         639.125    20523743.734  
 23  7 24 21 24 16.0000000  0 14G24G11G28G25G29G12G20G05G18R14R15R13            
                                R24R17                                          
  23151380.453   121661291.86306        41.000       -3293.180    94801037.93807
        45.000       -2566.109    23151389.383  
  23248734.148   122172831.73407        42.000       -3180.074    95199654.76204
        26.000       -2477.977    23248736.039  
  23523939.125   123619176.63707        42.000        1881.141    96326615.18804
        27.000        1465.801    23523943.813  
  20798070.055   109294527.72708        49.000        1767.906    85164648.03106
        41.000        1377.594    20798073.992  
  21898888.078   115079456.77007        47.000         325.754    89672310.69108
        49.000         253.820    21898889.336  
  21105285.953   110909034.73408        50.000        -401.156    86422621.20308
        51.000        -312.590    21105286.016  
  22462812.008   118042881.14506        39.000        -662.332    91981432.95704
        24.000        -516.098    22462812.195  
  22390743.289   117664166.87907        44.000        1138.125    91686384.35506
        41.000         886.852    22390744.086  
  22923062.297   120461584.96507        45.000        3030.625    93866146.19905
        35.000        2361.531    22923067.336  
  19365385.820   103228446.82808        51.000        1372.551    80288767.21508
        50.000        1067.652    19365387.984  
  22721376.297   121416281.53907        47.000        3995.234    94434838.28508
        48.000        3107.211    22721376.969  
  20685973.688   110461863.52706        38.000       -2887.613    85914786.18407
        43.000       -2246.113    20685977.461  
  20363969.805   108895287.95308        48.000       -2257.676    84696255.78906
        37.000       -1756.215    20363968.352  
  20523591.430   109825834.30108        51.000         820.918    85420127.77008
        50.000         638.492    20523592.289  
 23  7 24 21 24 17.0000000  0 14G24G11G28G25G29G12G20G05G18R14R15R13            
                                R24R17                                          
  23152008.063   121664588.41406        41.000       -3293.262    94803606.66807
        45.000       -2566.152    23152016.648  
  23249340.023   122176014.95307        42.000       -3179.734    95202135.18804
        26.000       -2477.688    23249341.734  
  23523581.930   123617299.13707        42.000        1880.469    96325152.20704
        27.000        1465.289    23523586.500  
  20797734.258   109292763.35208        49.000        1767.703    85163273.19106
        41.000        1377.434    20797738.203  
  21898826.859   115079134.58207        47.000         325.652    89672059.62908
        49.000         253.762    21898828.070  
  21105363.070   110909439.47708        50.000        -401.555    86422936.58208
        51.000        -312.898    21105363.063  
  22462938.031   118043547.33606        39.000        -662.855    91981952.06304
        24.000        -516.516    22462938.922  
  22390527.203   117663032.08607        44.000        1137.828    91685500.09806
        41.000         886.633    22390528.172  
  22922486.414   120458557.88307        46.000        3030.406    93863787.42605
        35.000        2361.395    22922491.242  
  19365129.102   103227078.04708        51.000        1372.012    80287702.61708
        50.000        1066.938    19365131.133  
  22720629.375   121412289.97708        48.000        3994.980    94431733.73408
        48.000        3107.141    22720630.094  
  20686515.133   110464755.14506        38.000       -2888.313    85917035.20307
        43.000       -2246.477    20686519.047  
  20364392.969   108897549.14108        48.000       -2257.805    84698014.44906
        38.000       -1755.484    20364391.250  
  20523439.063   109825017.08208        51.000         820.520    85419492.16008
        50.000         638.043    20523439.664  
 23  7 24 21 24 18.0000000  0 14G24G11G28G25G29G12G20G05G18R14R15R13            
                                R24R17                                          
  23152631.891   121667868.62906        41.000       -3292.977    94806162.67207
        45.000       -2565.949    23152640.813  
  23249942.367   122179181.98407        42.000       -3179.664    95204603.00004
        26.000       -2477.652    23249944.344  
  23523221.867   123615405.75807        42.000        1880.227    96323676.85504
        27.000        1465.121    23523226.211  
  20797395.445   109290982.87908        49.000        1767.543    85161885.81306
        41.000        1377.309    20797399.367  
  21898762.344   115078796.10207        47.000         325.699    89671795.87908
        49.000         253.805    21898763.703  
  21105437.117   110909828.24608        50.000        -401.750    86423239.51608
        51.000        -313.051    21105437.055  
  22463061.695   118044197.71906        39.000        -663.191    91982458.85203
        23.000        -516.793    22463062.641  
  22390308.281   117661881.35207        44.000        1137.492    91684603.41807
        42.000         886.387    22390309.258  
  22921907.461   120455514.75807        46.000        3030.102    93861416.16405
        35.000        2361.098    22921912.188  
  19364869.359   103225693.38308        51.000        1371.477    80286625.65208
        50.000        1066.684    19364871.406  
  22719879.320   121408281.92608        48.000        3995.012    94428616.36308
        48.000        3107.137    22719879.969  
  20687053.797   110467630.72306        39.000       -2889.105    85919271.76207
        43.000       -2247.020    20687057.508  
  20364812.836   108899793.93808        48.000       -2257.875    84699760.41806
        38.000       -1755.891    20364811.734  
  20523283.367   109824183.77708        51.000         820.191    85418844.02708
        50.000         637.957    20523283.922  
 23  7 24 21 24 19.0000000  0 14G24G11G28G25G29G12G20G05G18R14R15R13            
                                R24R17                                          
  23153256.258   121671149.46506        41.000       -3293.008    94808719.16407
        45.000       -2565.957    23153265.102  
  23250544.898   122182349.71107        42.000       -3180.176    95207071.35904
        26.000       -2478.055    23250547.094  
  23522861.477   123613513.36307        42.000        1879.945    96322202.26604
        28.000        1464.887    23522866.078  
  20797056.898   109289203.20308        49.000        1767.191    85160499.05106
        41.000        1377.027    20797060.703  
  21898698.148   115078458.21507        47.000         325.590    89671532.59808
        49.000         253.707    21898699.422  
  21105511.180   110910217.90608        50.000        -401.941    86423543.15208
        51.000        -313.191    21105511.211  
  22463185.531   118044849.17606        39.000        -664.145    91982966.50003
        23.000        -517.527    22463186.680  
  22390089.563   117660731.56307        43.000        1137.676    91683707.48407
        42.000         886.496    22390090.531  
  22921328.359   120452472.46107        46.000        3029.891    93859045.54705
        35.000        2360.945    22921333.273  
  19364609.836   103224309.94108        51.000        1370.520    80285549.64108
        50.000        1066.043    19364611.805  
  22719129.313   121404274.54707        47.000        3994.668    94425499.51208
        48.000        3107.113    22719130.070  
  20687592.836   110470507.41806        39.000       -2889.516    85921509.18407
        43.000       -2247.488    20687596.148  
  20365232.422   108902039.50808        48.000       -2258.066    84701506.98806
        38.000       -1756.508    20365231.820  
  20523127.602   109823351.54308        51.000         819.488    85418196.73408
        50.000         637.449    20523128.273  
 23  7 24 21 24 20.0000000  0 14G24G11G28G25G29G12G20G05G18R14R15R13            
                                R24R17                                          
  23153883.789   121674445.89106        40.000       -3293.664    94811287.81307
        45.000       -2566.500    23153892.367  
  23251150.445   122185533.17207        42.000       -3180.801    95209551.98004
        27.000       -2478.555    23251152.867  
  23522504.703   123611637.05107        42.000        1879.168    96320740.21104
        28.000        1464.313    23522509.008  
  20796721.328   109287439.35208        49.000        1766.875    85159124.62506
        41.000        1376.781    20796725.063  
  21898636.672   115078135.98008        48.000         325.434    89671281.50808
        49.000         253.582    21898638.102  
  21105588.445   110910623.53908        50.000        -402.754    86423859.23408
        51.000        -313.836    21105588.398  
  22463312.258   118045516.77706        39.000        -664.797    91983486.71903
        23.000        -518.035    22463313.656  
  22389873.820   117659597.78507        44.000        1136.930    91682824.02707
        42.000         885.914    22389874.867  
  22920752.492   120449446.06307        46.000        3029.281    93856687.32405
        35.000        2360.469    22920757.359  
  19364353.391   103222943.00008        51.000        1369.656    80284486.46508
        50.000        1065.340    19364355.305  
  22718382.344   121400283.12907        47.000        3994.555    94422395.07408
        48.000        3107.012    22718383.125  
  20688134.250   110473400.52706        39.000       -2890.395    85923759.37907
        43.000       -2248.012    20688137.820  
  20365655.039   108904301.17208        48.000       -2258.645    84703266.05906
        39.000       -1757.043    20365655.367  
  20522974.797   109822535.69108        51.000         818.707    85417562.18808
        50.000         636.703    20522975.773  
 23  7 24 21 24 21.0000000  0 14G24G11G28G25G29G12G20G05G18R14R15R13            
                                R24R17                                          
  23154513.047   121677752.81606        40.000       -3293.152    94813864.62507
        45.000       -2566.074    23154521.625  
  23251758.734   122188727.20307        43.000       -3180.477    95212040.83604
        27.000       -2478.297    23251760.695  
  23522149.359   123609771.64507        42.000        1878.570    96319286.64804
        28.000        1463.820    23522154.055  
  20796387.578   109285686.23008        49.000        1766.461    85157758.55906
        41.000        1376.469    20796391.422  
  21898577.438   115077824.27008        48.000         325.133    89671038.61708
        49.000         253.383    21898578.813  
  21105667.625   110911040.00008        50.000        -403.086    86424183.75008
        51.000        -314.090    21105667.672  
  22463441.953   118046195.39806        39.000        -665.422    91984015.50403
        23.000        -518.531    22463442.797  
  22389660.188   117658474.86307        44.000        1135.844    91681949.02307
        42.000         885.086    22389661.242  
  22920178.633   120446430.41407        46.000        3029.105    93854337.46905
        35.000        2360.363    22920183.508  
  19364099.094   103221587.38708        51.000        1368.984    80283432.10208
        50.000        1064.797    19364101.047  
  22717637.422   121396302.43408        48.000        3994.348    94419299.00008
        48.000        3106.555    22717638.289  
  20688678.383   110476304.85506        39.000       -2891.410    85926018.29307
        43.000       -2248.328    20688681.938  
  20366080.188   108906573.68807        47.000       -2258.988    84705033.55906
        39.000       -1756.625    20366081.086  
  20522824.602   109821730.97708        51.000         818.047    85416936.30908
        50.000         636.164    20522825.422  
 23  7 24 21 24 22.0000000  0 14G24G11G28G25G29G12G20G05G18R14R15R13            
                                R24R17                                          
  23155140.359   121681049.36706        40.000       -3293.535    94816433.36307
        45.000       -2566.391    23155148.906  
  23252364.539   122191910.98807        43.000       -3180.605    95214521.69904
        27.000       -2478.383    23252366.539  
  23521792.734   123607896.28107        43.000        1878.512    96317825.32004
        28.000        1463.781    23521797.188  
  20796052.258   109283922.93808        49.000        1766.480    85156384.56306
        41.000        1376.480    20796055.828  
  21898516.281   115077502.20308        48.000         325.133    89670787.65208
        49.000         253.340    21898517.578  
  21105745.055   110911446.41808        51.000        -403.336    86424500.43008
        51.000        -314.281    21105745.023  
  22463569.430   118046864.16806        39.000        -666.555    91984536.62103
        23.000        -519.391    22463570.039  
  22389444.742   117657341.91407        44.000        1136.012    91681066.21107
        42.000         885.199    22389445.680  
  22919603.031   120443404.65607        46.000        3028.934    93851979.73805
        35.000        2360.207    22919607.672  
  19363842.938   103220221.93408        51.000        1368.336    80282370.08208
        50.000        1064.242    19363844.875  
  22716890.625   121392311.24208        48.000        3994.352    94416194.73008
        48.000        3106.871    22716891.430  
  20689220.242   110479199.14106        39.000       -2891.367    85928269.41407
        43.000       -2248.984    20689224.055  
  20366503.602   108908835.83607        47.000       -2259.152    84706793.02006
        40.000       -1757.172    20366504.430  
  20522672.719   109820916.13308        51.000         817.840    85416302.53508
        50.000         635.984    20522673.211  
 23  7 24 21 24 23.0000000  0 14G24G11G28G25G29G12G20G05G18R14R15R13            
                                R24R17                                          
  23155764.602   121684330.84006        40.000       -3293.477    94818990.34807
        45.000       -2566.363    23155773.320  
  23252967.578   122195079.82007        42.000       -3180.738    95216990.92204
        27.000       -2478.504    23252969.547  
  23521433.125   123606006.28907        42.000        1877.617    96316352.60204
        28.000        1463.070    23521437.578  
  20795713.898   109282144.79708        49.000        1766.078    85154998.99606
        41.000        1376.160    20795717.430  
  21898452.102   115077165.10207        47.000         324.887    89670524.97308
        49.000         253.141    21898453.453  
  21105819.484   110911838.10508        50.000        -403.973    86424805.63708
        51.000        -314.797    21105819.570  
  22463694.141   118047518.31306        39.000        -666.164    91985046.34403
        23.000        -519.098    22463694.391  
  22389226.359   117656194.28507        43.000        1135.355    91680171.95307
        42.000         884.730    22389227.328  
  22919024.156   120440364.10207        46.000        3028.391    93849610.47705
        35.000        2359.777    22919029.055  
  19363584.078   103218841.89108        51.000        1367.289    80281296.71108
        50.000        1063.465    19363585.938  
  22716140.898   121388304.80508        48.000        3994.070    94413078.61708
        48.000        3106.543    22716141.586  
  20689759.492   110482078.63306        39.000       -2891.965    85930509.01607
        43.000       -2249.316    20689763.250  
  20366923.813   108911082.88307        47.000       -2259.488    84708540.73006
        40.000       -1757.563    20366925.398  
  20522517.688   109820086.44108        51.000         817.141    85415657.22308
        50.000         635.484    20522518.141  
 23  7 24 21 24 24.0000000  0 14G24G11G28G25G29G12G20G05G18R14R15R13            
                                R24R17                                          
  23156390.383   121687619.33606        40.000       -3293.395    94821552.80907
        45.000       -2566.313    23156399.047  
  23253571.867   122198255.75807        42.000       -3181.012    95219465.68404
        27.000       -2478.711    23253573.867  
  23521074.672   123604123.74207        42.000        1877.152    96314885.68404
        28.000        1462.707    23521079.367  
  20795376.719   109280373.87908        49.000        1765.664    85153619.06606
        41.000        1375.840    20795380.438  
  21898389.180   115076835.02308        48.000         324.988    89670267.77308
        49.000         253.227    21898390.633  
  21105895.477   110912237.13708        50.000        -404.422    86425116.57408
        51.000        -315.133    21105895.516  
  22463819.539   118048180.04706        38.000        -666.762    91985561.98003
        23.000        -519.547    22463820.367  
  22389009.266   117655054.02707        43.000        1135.094    91679283.44507
        42.000         884.480    22389010.422  
  22918447.109   120437330.81607        46.000        3027.809    93847246.88705
        35.000        2359.336    22918451.844  
  19363326.680   103217469.59808        51.000        1366.688    80280229.37508
        50.000        1062.996    19363328.586  
  22715392.328   121384305.59407        47.000        3993.816    94409968.12108
        48.000        3106.270    22715393.164  
  20690300.281   110484965.77706        39.000       -2892.656    85932754.57407
        43.000       -2249.992    20690303.797  
  20367345.031   108913337.25407        47.000       -2259.801    84710294.10506
        40.000       -1757.008    20367347.023  
  20522363.695   109819264.38308        51.000         816.465    85415017.83608
        50.000         635.086    20522364.500  
 23  7 24 21 24 25.0000000  0 14G24G11G28G25G29G12G20G05G18R14R15R13            
                                R24R17                                          
  23157019.016   121690923.55906        40.000       -3293.863    94824127.52307
        45.000       -2566.621    23157027.797  
  23254179.172   122201447.53907        42.000       -3181.332    95221952.78504
        27.000       -2478.957    23254181.313  
  23520719.414   123602257.34007        42.000        1876.504    96313431.35504
        28.000        1462.203    23520724.234  
  20795042.602   109278618.89508        49.000        1765.535    85152251.54706
        41.000        1375.762    20795046.469  
  21898329.547   115076520.69508        48.000         324.816    89670022.84408
        49.000         253.102    21898330.820  
  21105974.391   110912652.21108        50.000        -404.559    86425440.01208
        51.000        -315.250    21105974.523  
  22463948.336   118048858.01606        38.000        -667.820    91986090.26603
        23.000        -520.375    22463949.336  
  22388795.227   117653929.88307        43.000        1134.520    91678407.48807
        42.000         884.020    22388796.578  
  22917872.750   120434313.51607        46.000        3027.570    93844895.75005
        35.000        2359.145    22917877.680  
  19363072.313   103216113.90608        51.000        1366.043    80279174.94908
        50.000        1062.555    19363074.305  
  22714646.938   121380322.45307        47.000        3993.949    94406870.12908
        48.000        3106.250    22714647.672  
  20690844.320   110487869.41406        39.000       -2893.195    85935012.95707
        43.000       -2250.281    20690847.586  
  20367769.477   108915607.79307        47.000       -2259.891    84712060.11306
        40.000       -1758.012    20367772.125  
  20522213.063   109818458.79708        51.000         815.992    85414391.27708
        50.000         634.754    20522213.945  
 23  7 24 21 24 26.0000000  0 14G24G11G28G25G29G12G20G05G18R14R15R13            
                                R24R17                                          
  23157647.422   121694227.20306        40.000       -3293.926    94826701.78507
        45.000       -2566.688    23157656.398  
  23254786.203   122204638.85907        42.000       -3181.344    95224439.53104
        27.000       -2478.965    23254788.609  
  23520364.578   123600390.82007        42.000        1875.914    96311976.92604
        28.000        1461.738    23520369.109  
  20794708.625   109276863.57008        49.000        1765.102    85150883.75806
        41.000        1375.410    20794712.406  
  21898269.641   115076205.83208        48.000         324.625    89669777.49608
        49.000         252.949    21898270.922  
  21106053.391   110913067.07008        50.000        -405.129    86425763.27708
        51.000        -315.680    21106053.500  
  22464077.156   118049535.93006        38.000        -668.398    91986618.50803
        22.000        -520.836    22464078.281  
  22388581.336   117652805.52307        44.000        1133.945    91677531.36707
        42.000         883.582    22388582.664  
  22917298.406   120431295.91807        46.000        3027.277    93842544.37505
        35.000        2358.918    22917303.438  
  19362818.102   103214758.31308        51.000        1365.219    80278120.60508
        50.000        1061.871    19362820.086  
  22713901.391   121376338.82408        48.000        3993.512    94403771.75408
        48.000        3105.879    22713902.172  
  20691388.047   110490773.03106        39.000       -2893.832    85937271.33607
        43.000       -2250.711    20691391.531  
  20368194.289   108917877.97707        47.000       -2260.242    84713825.80506
        40.000       -1757.703    20368197.094  
  20522062.766   109817653.12908        51.000         815.527    85413764.65208
        50.000         634.164    20522063.430  
 23  7 24 21 24 27.0000000  0 14G24G11G28G25G29G12G20G05G18R14R15R13            
                                R24R17                                          
  23158273.375   121697517.04706        40.000       -3293.512    94829265.28507
        45.000       -2566.367    23158282.391  
  23255391.359   122207816.48407        43.000       -3181.582    95226915.60204
        27.000       -2479.168    23255393.227  
  23520006.961   123598510.89807        42.000        1876.086    96310512.05504
        28.000        1461.891    23520011.414  
  20794372.156   109275094.65208        49.000        1765.344    85149505.37906
        41.000        1375.602    20794375.773  
  21898207.195   115075877.19108        48.000         324.867    89669521.41008
        49.000         253.141    21898208.406  
  21106129.734   110913468.45308        50.000        -405.023    86426076.03508
        51.000        -315.598    21106129.906  
  22464203.977   118050200.54706        38.000        -669.074    91987136.39503
        22.000        -521.352    22464204.789  
  22388364.555   117651667.73807        44.000        1134.008    91676644.77707
        42.000         883.629    22388366.180  
  22916721.656   120428264.78507        46.000        3027.375    93840182.46105
        35.000        2358.996    22916726.625  
  19362561.320   103213389.36708        51.000        1364.895    80277055.86308
        50.000        1061.766    19362563.180  
  22713153.391   121372341.22708        48.000        3993.836    94400662.50808
        48.000        3106.285    22713154.102  
  20691929.703   110493663.19506        39.000       -2894.652    85939519.21507
        43.000       -2250.965    20691932.617  
  20368616.336   108920134.34007        47.000       -2260.313    84715580.77706
        40.000       -1758.180    20368619.188  
  20521909.781   109816833.89808        51.000         815.219    85413127.46908
        50.000         634.109    20521910.313  
 23  7 24 21 24 28.0000000  0 14G24G11G28G25G29G12G20G05G18R14R15R13            
                                R24R17                                          
  23158898.453   121700802.25806        39.000       -3293.281    94831825.18007
        45.000       -2566.172    23158907.508  
  23255994.992   122210989.59007        42.000       -3181.879    95229388.15604
        27.000       -2479.395    23255997.047  
  23519648.109   123596626.78907        42.000        1875.145    96309043.92204
        28.000        1461.133    23519652.945  
  20794034.555   109273321.33608        49.000        1764.469    85148123.57406
        41.000        1374.914    20794038.328  
  21898144.008   115075543.95308        48.000         324.422    89669261.74608
        49.000         252.789    21898145.000  
  21106205.398   110913865.55108        50.000        -405.895    86426385.46508
        51.000        -316.285    21106205.492  
  22464329.000   118050861.02006        38.000        -668.855    91987651.03903
        22.000        -521.137    22464330.422  
  22388147.086   117650525.72707        43.000        1133.215    91675754.90607
        42.000         883.031    22388148.945  
  22916143.867   120425229.29707        46.000        3026.672    93837817.14505
        35.000        2358.449    22916148.961  
  19362303.758   103212016.35908        51.000        1363.883    80275987.97308
        51.000        1060.875    19362305.609  
  22712404.430   121368338.99207        47.000        3993.367    94397549.66008
        48.000        3106.098    22712405.117  
  20692470.125   110496549.10506        39.000       -2894.813    85941763.84007
        43.000       -2251.652    20692473.047  
  20369036.938   108922386.16807        47.000       -2260.707    84717332.18806
        40.000       -1758.324    20369039.953  
  20521755.695   109816010.41808        51.000         814.406    85412486.99208
        50.000         633.313    20521756.391  
 23  7 24 21 24 29.0000000  0 14G24G11G28G25G29G12G20G05G18R14R15R13            
                                R24R17                                          
  23159526.328   121704099.71506        40.000       -3293.863    94834394.63307
        45.000       -2566.668    23159534.961  
  23256600.766   122214175.05907        42.000       -3182.039    95231870.34404
        27.000       -2479.516    23256603.242  
  23519292.195   123594755.34807        42.000        1874.750    96307585.64804
        28.000        1460.852    23519296.844  
  20793699.625   109271560.48008        49.000        1763.965    85146751.48406
        41.000        1374.516    20793703.242  
  21898082.828   115075222.98008        48.000         324.492    89669011.64508
        49.000         252.852    21898083.914  
  21106283.383   110914275.23008        50.000        -406.547    86426704.69908
        51.000        -316.813    21106283.469  
  22464456.891   118051534.29706        38.000        -670.531    91988175.67203
        22.000        -522.496    22464458.414  
  22387932.086   117649396.28107        44.000        1132.418    91674874.82807
        42.000         882.391    22387934.094  
  22915568.516   120422206.30107        45.000        3026.473    93835461.56605
        35.000        2358.285    22915573.727  
  19362048.742   103210656.46908        51.000        1362.941    80274930.28108
        51.000        1060.031    19362050.531  
  22711657.750   121364349.29707        47.000        3992.984    94394446.56608
        48.000        3105.652    22711658.625  
  20693012.844   110499448.00806        39.000       -2895.313    85944018.53507
        43.000       -2252.199    20693015.875  
  20369460.141   108924650.62908        48.000       -2261.195    84719093.43406
        40.000       -1758.426    20369463.578  
  20521604.000   109815199.87908        51.000         813.660    85411856.57408
        50.000         632.781    20521604.797  
 23  7 24 21 24 30.0000000  0 14G24G11G28G25G29G12G20G05G18R14R15R13            
                                R24R17                                          
  23160154.172   121707401.00006        40.000       -3294.477    94836967.07007
        45.000       -2567.156    23160163.133  
  23257207.719   122217364.44907        42.000       -3182.602    95234355.58604
        27.000       -2479.930    23257210.164  
  23518936.781   123592888.16407        42.000        1874.188    96306130.70704
        28.000        1460.398    23518941.563  
  20793365.297   109269803.64108        49.000        1763.785    85145382.52006
        41.000        1374.379    20793368.891  
  21898022.383   115074905.85208        48.000         324.188    89668764.53108
        49.000         252.617    21898023.609  
  21106361.984   110914689.04708        50.000        -406.953    86427027.15208
        51.000        -317.105    21106362.242  
  22464586.094   118052211.86706        38.000        -670.762    91988703.65203
        21.000        -522.680    22464587.328  
  22387718.000   117648271.02707        43.000        1132.148    91673998.00406
        41.000         882.207    22387720.000  
  22914994.344   120419187.40607        46.000        3025.664    93833109.18405
        35.000        2357.637    22914999.266  
  19361794.609   103209301.13708        51.000        1362.160    80273876.13308
        51.000        1059.465    19361796.367  
  22710912.234   121360363.54708        48.000        3993.055    94391346.54308
        48.000        3105.555    22710912.656  
  20693556.367   110502351.32406        40.000       -2896.230    85946276.67207
        43.000       -2252.961    20693559.625  
  20369884.578   108926919.16407        47.000       -2261.352    84720857.84406
        40.000       -1758.695    20369887.938  
  20521453.570   109814393.68008        51.000         813.043    85411229.52708
        50.000         632.281    20521453.922  
 23  7 24 21 24 31.0000000  0 14G24G11G28G25G29G12G20G05G18R14R15R13            
                                R24R17                                          
  23160780.438   121710690.57406        39.000       -3294.262    94839530.35507
        45.000       -2566.949    23160789.047  
  23257813.008   122220542.22707        42.000       -3182.254    95236831.77704
        27.000       -2479.684    23257814.867  
  23518579.305   123591009.70307        42.000        1873.719    96304666.96904
        28.000        1460.070    23518584.086  
  20793028.734   109268035.33208        49.000        1763.625    85144004.61306
        41.000        1374.246    20793032.359  
  21897959.773   115074577.04708        48.000         324.133    89668508.32008
        49.000         252.563    21897961.078  
  21106438.648   110915091.50808        50.000        -407.148    86427340.75408
        51.000        -317.254    21106438.859  
  22464712.703   118052878.28506        38.000        -671.754    91989222.93403
        21.000        -523.445    22464714.195  
  22387501.805   117647134.43807        43.000        1131.887    91673112.34806
        41.000         882.016    22387503.758  
  22914417.563   120416157.05507        45.000        3025.707    93830747.87105
        35.000        2357.695    22914422.609  
  19361538.297   103207934.64508        51.000        1361.613    80272813.31308
        51.000        1058.836    19361539.969  
  22710164.250   121356365.98808        48.000        3992.961    94388237.32808
        48.000        3105.645    22710164.469  
  20694098.359   110505243.28906        40.000       -2897.137    85948525.96907
        43.000       -2253.207    20694101.305  
  20370306.766   108929176.01207        47.000       -2261.395    84722613.18006
        40.000       -1759.105    20370309.813  
  20521300.883   109813576.04308        51.000         812.805    85410593.57808
        50.000         632.270    20521301.031  
 23  7 24 21 24 32.0000000  0 14G24G11G28G25G29G12G20G05G18R14R15R13            
                                R24R17                                          
  23161406.594   121713982.95706        39.000       -3294.230    94842095.84007
        45.000       -2566.941    23161415.508  
  23258418.047   122223722.94507        42.000       -3182.613    95239310.25804
        27.000       -2479.977    23258420.172  
  23518222.109   123589134.49207        42.000        1873.117    96303205.76204
        28.000        1459.578    23518227.219  
  20792692.859   109266270.05108        49.000        1763.031    85142629.07806
        41.000        1373.777    20792696.430  
  21897897.836   115074251.07008        48.000         323.859    89668254.31608
        49.000         252.355    21897899.055  
  21106515.789   110915497.10208        50.000        -407.734    86427656.80108
        51.000        -317.723    21106516.055  
  22464840.602   118053548.00406        38.000        -672.313    91989744.80903
        21.000        -523.902    22464841.633  
  22387285.773   117646001.07007        43.000        1131.355    91672229.20706
        41.000         881.543    22387288.180  
  22913841.391   120413129.78507        46.000        3025.316    93828388.96505
        35.000        2357.379    22913846.547  
  19361282.633   103206571.68408        51.000        1360.574    80271753.22708
        51.000        1058.320    19361284.297  
  22709416.703   121352371.36708        48.000        3992.359    94385130.40208
        48.000        3105.238    22709416.852  
  20694640.898   110508138.63306        40.000       -2898.004    85950777.89807
        43.000       -2253.629    20694643.359  
  20370729.227   108931435.93407        47.000       -2262.043    84724370.86306
        40.000       -1758.754    20370732.617  
  20521148.438   109812761.75408        51.000         812.270    85409960.25408
        50.000         631.652    20521148.836  
 23  7 24 21 24 33.0000000  0 14G24G11G28G25G29G12G20G05G18R14R15R13            
                                R24R17                                          
  23162036.297   121717288.00006        40.000       -3294.563    94844671.19107
        45.000       -2567.145    23162044.398  
  23259025.523   122226916.42607        42.000       -3182.766    95241798.68404
        27.000       -2480.074    23259027.922  
  23517868.148   123587272.37107        42.000        1873.004    96301754.76604
        28.000        1459.457    23517872.852  
  20792359.422   109264517.64108        49.000        1763.082    85141263.56606
        41.000        1373.836    20792362.930  
  21897838.266   115073937.78108        48.000         324.066    89668010.19508
        49.000         252.527    21897839.445  
  21106595.289   110915915.69908        50.000        -407.957    86427982.98408
        51.000        -317.883    21106595.734  
  22464970.766   118054230.88706        37.000        -672.160    91990276.92603
        21.000        -523.762    22464971.641  
  22387072.641   117644880.72707        43.000        1130.887    91671356.21106
        41.000         881.191    22387075.086  
  22913267.742   120410115.46507        46.000        3024.980    93826040.14805
        35.000        2357.125    22913272.984  
  19361029.492   103205222.21508        51.000        1360.152    80270703.64108
        51.000        1057.875    19361031.086  
  22708671.617   121348389.70308        48.000        3992.422    94382033.55508
        48.000        3105.270    22708671.711  
  20695185.484   110511047.37906        40.000       -2898.133    85953040.25407
        43.000       -2254.086    20695188.227  
  20371154.219   108933708.93807        47.000       -2262.199    84726138.78906
        40.000       -1759.488    20371157.945  
  20520998.773   109811960.81308        51.000         811.832    85409337.29708
        50.000         631.547    20520999.039  
 23  7 24 21 24 34.0000000  0 14G24G11G28G25G29G12G20G05G18R14R15R13            
                                R24R17                                          
  23162663.563   121720585.40606        40.000       -3294.738    94847240.60207
        45.000       -2567.352    23162671.797  
  23259631.938   122230102.39507        42.000       -3182.938    95244281.25804
        27.000       -2480.207    23259634.156  
  23517512.570   123585403.04307        43.000        1872.203    96300298.14104
        28.000        1458.883    23517517.188  
  20792024.461   109262757.82408        49.000        1762.840    85139892.28106
        41.000        1373.637    20792027.969  
  21897777.313   115073616.88708        48.000         324.043    89667760.15208
        49.000         252.500    21897778.430  
  21106673.734   110916327.01608        51.000        -408.465    86428303.48808
        51.000        -318.273    21106674.039  
  22465099.258   118054906.68406        37.000        -673.191    91990803.52703
        21.000        -524.563    22465100.227  
  22386858.273   117643753.11307        43.000        1130.520    91670477.55506
        41.000         880.926    22386860.594  
  22912692.945   120407093.75807        46.000        3024.727    93823685.57405
        35.000        2356.934    22912698.000  
  19360775.031   103203865.64808        51.000        1359.617    80269648.53908
        51.000        1057.469    19360776.641  
  22707924.984   121344400.36708        48.000        3992.605    94378930.74608
        48.000        3105.332    22707925.195  
  20695728.914   110513948.86706        40.000       -2898.480    85955296.98807
        43.000       -2254.629    20695731.570  
  20371578.047   108935974.35507        47.000       -2262.414    84727900.77706
        40.000       -1759.641    20371581.375  
  20520847.953   109811152.60508        51.000         811.328    85408708.69908
        50.000         630.906    20520848.055  
 23  7 24 21 24 35.0000000  0 14G24G11G28G25G29G12G20G05G18R14R15R13            
                                R24R17                                          
  23163287.734   121723866.35906        39.000       -3294.500    94849797.18007
        45.000       -2567.133    23163296.086  
  23260234.938   122233272.01207        42.000       -3183.305    95246751.09404
        27.000       -2480.492    23260237.328  
  23517153.625   123583517.69507        43.000        1871.348    96298829.04304
        28.000        1458.184    23517158.438  
  20791686.445   109260981.77708        49.000        1762.188    85138508.34406
        41.000        1373.148    20791689.930  
  21897713.250   115073279.56608        48.000         323.543    89667497.30508
        49.000         252.113    21897714.305  
  21106749.133   110916722.20708        50.000        -409.168    86428611.42608
        51.000        -318.816    21106749.281  
  22465224.633   118055566.54306        38.000        -673.879    91991317.69903
        21.000        -525.113    22465225.867  
  22386640.313   117642609.41007        43.000        1130.000    91669586.36306
        41.000         880.512    22386643.016  
  22912114.961   120404055.86707        46.000        3024.238    93821318.39105
        35.000        2356.543    22912119.914  
  19360517.539   103202493.05908        51.000        1358.313    80268580.96508
        50.000        1056.402    19360519.172  
  22707175.250   121340394.40608        48.000        3992.090    94375815.00008
        48.000        3104.832    22707175.461  
  20696269.328   110516834.21106        40.000       -2899.648    85957541.12107
        43.000       -2255.082    20696271.836  
  20371998.664   108938223.19107        47.000       -2262.871    84729649.88306
        40.000       -1759.891    20372001.867  
  20520693.953   109810328.15608        51.000         810.141    85408067.46108
        50.000         630.141    20520693.836  
 23  7 24 21 24 36.0000000  0 14G24G11G28G25G29G12G20G05G18R14R15R13            
                                R24R17                                          
  23163912.328   121727148.09406        40.000       -3295.387    94852354.37107
        45.000       -2567.832    23163920.531  
  23260837.891   122236442.52707        42.000       -3183.641    95249221.62104
        27.000       -2480.762    23260840.672  
  23516795.063   123581633.55507        43.000        1871.098    96297360.88304
        28.000        1458.008    23516799.883  
  20791348.711   109259206.71108        49.000        1762.105    85137125.18006
        41.000        1373.051    20791352.133  
  21897649.289   115072943.04708        48.000         323.652    89667235.08208
        50.000         252.191    21897650.289  
  21106824.313   110917118.50808        50.000        -409.285    86428920.23408
        51.000        -318.926    21106824.703  
  22465349.813   118056227.65606        37.000        -673.926    91991832.84003
        21.000        -525.152    22465351.648  
  22386422.867   117641466.84807        43.000        1129.707    91668696.05506
        41.000         880.293    22386425.695  
  22911537.070   120401019.03507        46.000        3023.840    93818952.03505
        35.000        2356.230    22911542.070  
  19360260.344   103201121.94508        51.000        1357.664    80267514.53508
        51.000        1056.047    19360261.969  
  22706425.789   121336389.29308        48.000        3992.074    94372699.91408
        48.000        3104.770    22706426.000  
  20696809.672   110519720.85906        40.000       -2899.664    85959786.29307
        43.000       -2255.418    20696812.258  
  20372419.086   108940473.03907        47.000       -2262.949    84731399.74606
        40.000       -1760.098    20372422.508  
  20520539.961   109809504.98808        51.000         809.813    85407427.22708
        50.000         629.766    20520539.883  
 23  7 24 21 24 37.0000000  0 14G24G11G28G25G29G12G20G05G18R14R15R13            
                                R24R17                                          
  23164539.406   121730445.88306        40.000       -3294.625    94854924.06607
        44.000       -2567.234    23164548.055  
  23261444.477   122239629.18807        42.000       -3183.184    95251704.73404
        27.000       -2480.379    23261447.086  
  23516440.250   123579765.90207        43.000        1870.617    96295905.57404
        28.000        1457.633    23516444.516  
  20791013.742   109257447.94108        49.000        1762.008    85135754.71506
        41.000        1372.996    20791017.438  
  21897588.016   115072622.62908        48.000         323.680    89666985.41408
        50.000         252.215    21897589.328  
  21106902.969   110917531.21508        50.000        -409.551    86429241.82408
        51.000        -319.137    21106903.266  
  22465479.023   118056905.35906        37.000        -674.523    91992360.91803
        21.000        -525.594    22465480.500  
  22386208.578   117640340.74607        43.000        1129.473    91667818.58206
        41.000         880.082    22386211.477  
  22910962.414   120397998.52307        46.000        3023.691    93816598.40205
        35.000        2356.109    22910967.336  
  19360006.250   103199767.81308        51.000        1357.262    80266461.32008
        51.000        1055.770    19360007.898  
  22705679.281   121332400.57808        48.000        3992.027    94369597.57808
        48.000        3104.910    22705679.453  
  20697353.594   110522624.39106        40.000       -2900.574    85962044.59807
        43.000       -2255.879    20697355.961  
  20372842.852   108942739.46907        47.000       -2263.105    84733162.53106
        40.000       -1760.113    20372846.344  
  20520389.055   109808698.65208        51.000         809.449    85406800.06608
        50.000         629.582    20520389.078  
 23  7 24 21 24 38.0000000  0 14G24G11G28G25G29G12G20G05G18R14R15R13            
                                R24R17                                          
  23165169.195   121733754.79706        39.000       -3294.590    94857502.44107
        44.000       -2567.199    23165177.688  
  23262053.508   122242827.12507        42.000       -3183.871    95254196.63704
        27.000       -2480.934    23262055.664  
  23516087.297   123577909.82807        43.000        1870.063    96294459.28504
        28.000        1457.180    23516091.305  
  20790681.242   109255700.53108        49.000        1761.414    85134393.09006
        41.000        1372.543    20790684.891  
  21897529.172   115072313.36708        48.000         323.352    89666744.43008
        50.000         251.969    21897530.516  
  21106983.766   110917955.39508        50.000        -410.219    86429572.35208
        51.000        -319.645    21106984.008  
  22465609.930   118057594.72306        37.000        -675.098    91992898.09403
        20.000        -526.059    22465611.734  
  22385996.344   117639226.17207        43.000        1128.438    91666950.09006
        41.000         879.324    22385999.445  
  22910389.891   120394989.42207        45.000        3022.980    93814253.65605
        35.000        2355.574    22910394.766  
  19359754.477   103198425.66408        51.000        1356.199    80265417.44108
        51.000        1054.676    19359756.117  
  22704935.102   121328423.27308        48.000        3991.582    94366504.12508
        48.000        3104.469    22704935.242  
  20697899.422   110525539.77006        40.000       -2900.965    85964312.10207
        43.000       -2256.426    20697901.930  
  20373268.906   108945017.39807        47.000       -2263.523    84734934.26206
        40.000       -1760.566    20373272.469  
  20520240.703   109807904.09408        51.000         808.793    85406182.09008
        49.000         628.832    20520240.531  
 23  7 24 21 24 39.0000000  0 14G24G11G28G25G29G12G20G05G18R14R15R13            
                                R24R17                                          
  23165796.820   121737054.06306        39.000       -3295.352    94860073.28507
        44.000       -2567.809    23165805.469  
  23262660.195   122246015.48007        42.000       -3183.891    95256681.06304
        27.000       -2480.953    23262662.383  
  23515731.688   123576044.50007        42.000        1869.840    96293005.78504
        28.000        1456.977    23515736.383  
  20790347.242   109253943.65608        49.000        1761.117    85133024.09406
        41.000        1372.293    20790350.516  
  21897468.633   115071994.45708        48.000         323.270    89666495.91808
        50.000         251.914    21897469.898  
  21107062.867   110918370.24208        51.000        -410.813    86429895.60508
        51.000        -320.121    21107062.992  
  22465739.313   118058274.92606        37.000        -675.938    91993428.12903
        20.000        -526.637    22465741.063  
  22385782.242   117638102.26607        43.000        1127.926    91666074.32006
        41.000         878.895    22385785.602  
  22909815.242   120391970.90207        46.000        3022.727    93811901.57005
        35.000        2355.363    22909820.359  
  19359501.023   103197074.36308        51.000        1355.309    80264366.42208
        51.000        1054.309    19359502.594  
  22704188.969   121324436.23808        48.000        3991.223    94363403.08608
        48.000        3104.500    22704189.219  
  20698444.000   110528445.84006        40.000       -2901.570    85966572.39107
        43.000       -2257.004    20698446.211  
  20373693.367   108947285.68007        47.000       -2263.941    84736698.48006
        41.000       -1761.094    20373696.922  
  20520090.773   109807100.14808        51.000         808.191    85405556.79708
        49.000         628.496    20520090.133  
 23  7 24 21 24 40.0000000  0 14G24G11G28G25G29G12G20G05G18R14R15R13            
                                R24R17                                          
  23166421.906   121740338.60906        39.000       -3294.789    94862632.66407
        44.000       -2567.375    23166430.461  
  23263264.000   122249189.26206        41.000       -3184.422    95259154.14104
        27.000       -2481.359    23263266.367  
  23515374.461   123574164.92607        43.000        1868.988    96291541.17604
        28.000        1456.355    23515378.719  
  20790010.117   109252172.31308        49.000        1760.766    85131643.82406
        41.000        1372.020    20790013.406  
  21897405.188   115071660.88708        48.000         323.031    89666235.99608
        50.000         251.707    21897406.445  
  21107138.992   110918770.73008        50.000        -411.117    86430207.67608
        51.000        -320.348    21107139.227  
  22465865.859   118058940.94106        37.000        -676.816    91993947.11703
        20.000        -527.387    22465867.766  
  22385565.531   117636964.04707        43.000        1127.602    91665187.39806
        41.000         878.633    22385569.047  
  22909238.156   120388937.96107        46.000        3022.543    93809538.23805
        35.000        2355.238    22909243.219  
  19359244.867   103195708.81308        51.000        1354.594    80263304.32808
        51.000        1053.594    19359246.398  
  22703440.031   121320434.34408        48.000        3991.309    94360290.52008
        48.000        3104.199    22703440.344  
  20698985.766   110531337.51606        40.000       -2902.332    85968821.46107
        43.000       -2257.516    20698987.789  
  20374114.734   108949539.19907        47.000       -2264.230    84738451.21106
        41.000       -1760.895    20374118.117  
  20519937.813   109806281.73408        51.000         807.387    85404920.24608
        49.000         628.000    20519937.023  
 23  7 24 21 24 41.0000000  0 14G24G11G28G25G29G12G20G05G18R14R15R13            
                                R24R17                                          
  23167048.297   121743629.91806        39.000       -3294.641    94865197.31307
        44.000       -2567.270    23167056.750  
  23263869.383   122252369.88307        42.000       -3184.043    95261632.55104
        27.000       -2481.070    23263871.633  
  23515018.289   123572292.52007        43.000        1868.758    96290082.15604
        28.000        1456.184    23515022.398  
  20789674.398   109250407.92608        49.000        1760.734    85130268.98406
        41.000        1371.996    20789677.641  
  21897342.953   115071334.07408        48.000         323.305    89665981.33608
        50.000         251.934    21897344.242  
  21107216.602   110919178.30108        51.000        -411.238    86430525.26608
        51.000        -320.449    21107216.805  
  22465993.969   118059614.20706        37.000        -677.070    91994471.74603
        20.000        -527.547    22465995.945  
  22385350.047   117635832.96507        43.000        1127.301    91664306.04706
        41.000         878.414    22385353.859  
  22908662.453   120385912.04307        46.000        3022.297    93807180.39105
        35.000        2355.047    22908667.438  
  19358989.984   103194350.76608        51.000        1354.156    80262248.06608
        51.000        1053.102    19358991.664  
  22702692.469   121316439.39108        48.000        3991.316    94357183.32008
        48.000        3104.340    22702692.773  
  20699528.547   110534236.50806        40.000       -2902.574    85971076.25007
        43.000       -2257.750    20699530.750  
  20374537.242   108951799.77307        47.000       -2264.098    84740209.46506
        41.000       -1761.676    20374540.906  
  20519785.938   109805470.66008        51.000         807.285    85404289.41408
        49.000         627.848    20519785.352  
 23  7 24 21 24 42.0000000  0 14G24G11G28G25G29G12G20G05G18R14R15R13            
                                R24R17                                          
  23167677.648   121746935.12106        39.000       -3294.879    94867772.79307
        44.000       -2567.406    23167685.695  
  23264477.313   122255564.51607        42.000       -3184.156    95264121.87504
        27.000       -2481.168    23264479.516  
  23514664.414   123570434.45307        43.000        1868.047    96288634.31304
        28.000        1455.621    23514668.797  
  20789341.320   109248657.66408        49.000        1760.309    85128905.14506
        41.000        1371.672    20789344.563  
  21897283.469   115071021.18808        48.000         323.133    89665737.53108
        50.000         251.805    21897284.695  
  21107297.023   110919600.10508        51.000        -411.691    86430853.94108
        51.000        -320.789    21107297.086  
  22466125.578   118060301.91006        37.000        -677.688    91995007.62103
        20.000        -528.066    22466126.727  
  22385137.492   117634716.14807        43.000        1127.031    91663435.80106
        41.000         878.234    22385141.375  
  22908089.289   120382900.28107        46.000        3021.840    93804833.56605
        35.000        2354.680    22908094.320  
  19358738.023   103193007.47708        51.000        1353.234    80261203.28508
        51.000        1052.688    19358739.672  
  22701947.586   121312458.62508        48.000        3991.145    94354087.17208
        48.000        3104.332    22701947.891  
  20700074.359   110537150.18406        40.000       -2903.754    85973342.43807
        43.000       -2258.234    20700076.422  
  20374962.898   108954074.69907        47.000       -2264.676    84741978.82806
        41.000       -1761.641    20374965.914  
  20519637.000   109804674.22708        51.000         806.590    85403669.96908
        49.000         627.203    20519636.516  
 23  7 24 21 24 43.0000000  0 14G24G11G28G25G29G12G20G05G18R14R15R13            
                                R24R17                                          
  23168304.539   121750232.96906        39.000       -3295.332    94870342.54307
        44.000       -2567.770    23168313.234  
  23265083.852   122258751.91407        42.000       -3184.719    95266605.56304
        27.000       -2481.609    23265086.047  
  23514309.711   123568569.45307        42.000        1867.469    96287181.07004
        29.000        1455.152    23514313.914  
  20789006.867   109246900.25808        50.000        1760.012    85127535.73406
        41.000        1371.434    20789010.094  
  21897222.461   115070700.96508        48.000         323.133    89665488.00808
        50.000         251.801    21897223.789  
  21107375.906   110920014.88708        51.000        -412.113    86431177.14808
        51.000        -321.125    21107376.047  
  22466255.320   118060982.74206        37.000        -677.797    91995538.13303
        20.000        -528.121    22466256.297  
  22384923.539   117633592.32807        43.000        1126.348    91662560.09406
        41.000         877.664    22384927.539  
  22907514.984   120379881.43807        46.000        3021.438    93802481.21905
        35.000        2354.379    22907519.867  
  19358484.766   103191657.42608        51.000        1352.504    80260153.25008
        51.000        1051.805    19358486.359  
  22701201.305   121308470.44508        48.000        3991.059    94350985.26208
        48.000        3103.996    22701201.500  
  20700619.109   110540056.92206        40.000       -2904.461    85975603.22307
        43.000       -2258.793    20700620.734  
  20375387.344   108956342.34407        47.000       -2264.875    84743742.55506
        41.000       -1762.004    20375389.883  
  20519487.164   109803870.75408        51.000         806.113    85403045.05508
        49.000         626.926    20519486.398  
 23  7 24 21 24 44.0000000  0 14G24G11G28G25G29G12G20G05G18R14R15R13            
                                R24R17                                          
  23168929.484   121753514.85206        40.000       -3295.406    94872899.84007
        44.000       -2567.840    23168937.750  
  23265687.617   122261923.44907        42.000       -3185.086    95269076.89504
        27.000       -2481.887    23265689.570  
  23513951.625   123566688.92607        42.000        1866.762    96285715.72304
        29.000        1454.613    23513956.047  
  20788669.555   109245127.10908        49.000        1759.770    85126154.05906
        41.000        1371.250    20788672.641  
  21897158.703   115070364.82008        48.000         322.988    89665226.07408
        50.000         251.691    21897159.836  
  21107451.953   110920414.04308        51.000        -412.602    86431488.17608
        51.000        -321.504    21107452.039  
  22466381.211   118061648.15606        36.000        -678.926    91996056.62903
        20.000        -529.059    22466382.813  
  22384706.648   117632452.94507        43.000        1126.008    91661672.26606
        41.000         877.410    22384710.766  
  22906937.453   120376846.89507        46.000        3021.121    93800116.64505
        35.000        2354.109    22906942.438  
  19358228.563   103190291.88708        51.000        1351.652    80259091.16408
        51.000        1051.301    19358230.266  
  22700452.008   121304466.14108        48.000        3990.715    94347870.80508
        48.000        3103.824    22700452.063  
  20701160.406   110542947.94506        40.000       -2904.699    85977851.80107
        43.000       -2259.117    20701162.344  
  20375808.625   108958593.93407        47.000       -2265.211    84745493.78506
        41.000       -1761.832    20375810.781  
  20519334.102   109803051.52708        51.000         805.527    85402407.86708
        49.000         626.547    20519333.195  
 23  7 24 21 24 45.0000000  0 14G24G11G28G25G29G12G20G05G18R14R15R13            
                                R24R17                                          
  23169553.836   121756797.59006        40.000       -3294.625    94875457.82007
        45.000       -2567.195    23169562.422  
  23266291.000   122265095.98007        42.000       -3185.320    95271549.00004
        27.000       -2482.063    23266293.328  
  23513593.648   123564809.69907        42.000        1866.477    96284251.40604
        29.000        1454.355    23513598.469  
  20788332.344   109243355.07808        49.000        1759.465    85124773.25406
        41.000        1371.004    20788335.422  
  21897094.734   115070029.59008        48.000         322.672    89664964.85908
        50.000         251.410    21897096.031  
  21107527.953   110920814.43408        51.000        -413.102    86431800.16808
        51.000        -321.906    21107528.242  
  22466507.898   118062314.97306        36.000        -679.504    91996576.22703
        20.000        -529.492    22466509.680  
  22384489.813   117631314.82807        43.000        1125.379    91660785.41806
        41.000         876.926    22384494.234  
  22906360.125   120373813.51207        46.000        3020.762    93797752.97705
        35.000        2353.840    22906365.219  
  19357972.531   103188927.91408        51.000        1350.828    80258030.28908
        51.000        1050.902    19357974.352  
  22699702.742   121300462.83208        48.000        3990.520    94344757.11308
        48.000        3103.773    22699702.891  
  20701702.102   110545840.41006        40.000       -2905.598    85980101.49207
        43.000       -2259.840    20701703.820  
  20376229.672   108960846.62107        47.000       -2265.754    84747245.87106
        41.000       -1762.121    20376231.617  
  20519180.953   109802233.70308        51.000         804.758    85401771.78108
        49.000         626.066    20519180.313  
 23  7 24 21 24 46.0000000  0 14G24G11G28G25G29G12G20G05G18R14R15R13            
                                R24R17                                          
  23170181.875   121760096.19106        40.000       -3294.867    94878028.15607
        45.000       -2567.426    23170190.117  
  23266897.688   122268284.45707        42.000       -3185.117    95274033.52304
        27.000       -2481.910    23266900.102  
  23513239.297   123562946.74607        42.000        1866.230    96282799.75804
        29.000        1454.207    23513243.969  
  20787998.180   109241599.08208        49.000        1759.313    85123404.95306
        41.000        1370.891    20788001.266  
  21897034.000   115069710.19508        48.000         322.750    89664715.99208
        50.000         251.473    21897035.227  
  21107607.164   110921230.97708        51.000        -413.289    86432124.75008
        51.000        -322.043    21107607.523  
  22466638.250   118062998.13306        36.000        -680.414    91997108.57003
        20.000        -530.227    22466639.648  
  22384276.609   117630192.89507        43.000        1124.773    91659911.19106
        41.000         876.441    22384280.781  
  22905786.063   120370796.21907        46.000        3020.645    93795401.84405
        35.000        2353.738    22905791.078  
  19357719.727   103187580.61708        51.000        1350.551    80256982.40208
        51.000        1050.414    19357721.664  
  22698956.391   121296475.70308        48.000        3990.699    94341656.02708
        48.000        3103.633    22698956.578  
  20702246.859   110548749.46506        41.000       -2905.625    85982364.10207
        43.000       -2260.398    20702248.398  
  20376653.984   108963115.59407        47.000       -2265.355    84749010.64506
        41.000       -1762.332    20376655.992  
  20519030.859   109801432.47308        51.000         804.402    85401148.61308
        49.000         625.793    20519030.398  
 23  7 24 21 24 47.0000000  0 14G24G11G28G25G29G12G20G05G18R14R15R13            
                                R24R17                                          
  23170811.523   121763405.70706        40.000       -3295.098    94880606.99607
        45.000       -2567.570    23170819.883  
  23267506.758   122271483.94907        42.000       -3185.078    95276526.62904
        27.000       -2481.875    23267508.938  
  23512887.016   123561095.14107        42.000        1865.887    96281356.95304
        29.000        1453.922    23512891.656  
  20787666.000   109239854.23808        50.000        1759.004    85122045.34006
        41.000        1370.641    20787669.211  
  21896975.359   115069401.75808        48.000         322.766    89664475.65208
        50.000         251.492    21896976.555  
  21107688.742   110921658.78908        51.000        -413.516    86432458.10908
        51.000        -322.219    21107688.945  
  22466770.117   118063692.72705        35.000        -680.121    91997649.82003
        20.000        -529.957    22466771.844  
  22384065.273   117629082.25807        42.000        1125.086    91659045.75806
        41.000         876.680    22384069.461  
  22905213.836   120367790.12907        46.000        3020.172    93793059.44105
        35.000        2353.359    22905219.094  
  19357469.188   103186245.06608        51.000        1349.641    80255943.63308
        51.000        1049.891    19357471.039  
  22698212.648   121292499.79708        48.000        3990.355    94338563.65208
        48.000        3103.750    22698212.727  
  20702793.602   110551670.19506        41.000       -2906.684    85984635.76207
        43.000       -2260.453    20702795.602  
  20377080.555   108965395.93007        47.000       -2266.063    84750784.23806
        40.000       -1762.711    20377082.383  
  20518883.438   109800642.84408        51.000         803.684    85400534.44908
        49.000         625.363    20518882.695  
 23  7 24 21 24 48.0000000  0 14G24G11G28G25G29G12G20G05G18R14R15R13            
                                R24R17                                          
  23171440.094   121766705.50406        40.000       -3295.051    94883178.25807
        45.000       -2567.586    23171447.797  
  23268113.602   122274673.85507        42.000       -3185.641    95279012.26604
        27.000       -2482.320    23268115.977  
  23512532.602   123559234.28107        42.000        1865.289    96279906.93004
        29.000        1453.477    23512537.523  
  20787332.406   109238099.90208        50.000        1758.695    85120678.32406
        41.000        1370.414    20787335.352  
  21896914.805   115069083.63708        48.000         322.523    89664227.76208
        50.000         251.320    21896916.055  
  21107768.492   110922077.23008        51.000        -414.055    86432784.16408
        51.000        -322.629    21107768.609  
  22466901.555   118064378.12905        35.000        -681.492    91998183.89503
        20.000        -531.023    22466902.219  
  22383852.086   117627962.30507        42.000        1124.434    91658173.06606
        41.000         876.199    22383856.375  
  22904640.258   120364774.57807        46.000        3019.969    93790709.66805
        35.000        2353.219    22904645.281  
  19357216.992   103184900.35508        51.000        1348.840    80254897.75408
        51.000        1049.098    19357218.820  
  22697466.789   121288514.08608        48.000        3990.047    94335463.65208
        48.000        3103.586    22697466.930  
  20703338.984   110554581.57006        41.000       -2906.922    85986900.18007
        43.000       -2261.176    20703340.805  
  20377505.336   108967666.56307        47.000       -2266.117    84752550.27306
        40.000       -1762.656    20377507.023  
  20518734.469   109799843.76608        51.000         803.410    85399912.94508
        49.000         624.867    20518733.328  
 23  7 24 21 24 49.0000000  0 14G24G11G28G25G29G12G20G05G18R14R15R13            
                                R24R17                                          
  23172065.016   121769990.39106        40.000       -3295.555    94885737.90207
        45.000       -2567.980    23172072.875  
  23268718.133   122277848.93007        42.000       -3185.582    95281486.34404
        27.000       -2482.289    23268720.227  
  23512176.047   123557358.92207        42.000        1864.480    96278445.60504
        29.000        1452.824    23512180.633  
  20786995.656   109236330.87108        49.000        1758.324    85119299.85506
        41.000        1370.129    20786998.703  
  21896851.469   115068750.63308        48.000         322.270    89663968.27708
        50.000         251.117    21896852.695  
  21107845.367   110922481.10208        51.000        -414.695    86433098.86708
        51.000        -323.141    21107845.484  
  22467029.289   118065049.10505        34.000        -682.438    91998706.72703
        20.000        -531.762    22467029.805  
  22383636.211   117626827.77307        42.000        1123.750    91657289.00806
        41.000         875.676    22383640.492  
  22904063.492   120361744.39807        46.000        3019.461    93788348.49205
        35.000        2352.824    22904068.680  
  19356961.953   103183541.19908        51.000        1348.000    80253840.62908
        51.000        1048.391    19356963.852  
  22696718.047   121284513.27308        48.000        3989.844    94332351.91408
        48.000        3103.266    22696718.273  
  20703881.172   110557478.33606        40.000       -2907.844    85989153.21907
        43.000       -2261.664    20703883.375  
  20377927.164   108969922.20707        47.000       -2266.738    84754304.66406
        40.000       -1762.969    20377928.438  
  20518582.320   109799029.96908        51.000         802.801    85399279.99608
        49.000         624.465    20518581.133  
 23  7 24 21 24 50.0000000  0 14G24G11G28G25G29G12G20G05G18R14R15R13            
                                R24R17                                          
  23172691.445   121773282.21106        40.000       -3295.137    94888302.95307
        45.000       -2567.637    23172699.289  
  23269323.688   122281031.11707        42.000       -3185.883    95283965.96904
        27.000       -2482.512    23269325.805  
  23511820.789   123555490.97307        42.000        1864.082    96276990.06604
        29.000        1452.531    23511825.133  
  20786660.508   109234569.03908        49.000        1758.211    85117927.00006
        41.000        1370.031    20786663.422  
  21896789.195   115068424.60908        48.000         322.406    89663714.23808
        50.000         251.227    21896790.633  
  21107923.719   110922892.27708        51.000        -415.004    86433419.27008
        51.000        -323.379    21107923.742  
  22467157.813   118065727.63705        34.000        -683.141    91999235.44503
        20.000        -532.313    22467158.875  
  22383421.602   117625700.60207        42.000        1123.379    91656410.69906
        40.000         875.359    22383426.031  
  22903487.898   120358721.45307        46.000        3019.129    93785992.96105
        35.000        2352.547    22903493.469  
  19356708.320   103182189.79708        51.000        1347.332    80252789.54308
        51.000        1047.773    19356710.359  
  22695970.617   121280519.62508        48.000        3989.883    94329245.74208
        48.000        3103.230    22695970.875  
  20704425.133   110560382.70306        40.000       -2907.926    85991412.17607
        43.000       -2262.359    20704427.242  
  20378350.031   108972185.15607        47.000       -2266.789    84756064.73406
        40.000       -1763.000    20378351.188  
  20518431.250   109798223.77708        51.000         802.199    85398652.96908
        49.000         623.738    20518430.469  
 23  7 24 21 24 51.0000000  0 14G24G11G28G25G29G12G20G05G18R14R15R13            
                                R24R17                                          
  23173320.453   121776588.29706        40.000       -3294.941    94890879.12107
        45.000       -2567.477    23173328.414  
  23269932.039   122284227.60907        42.000       -3185.961    95286456.74604
        27.000       -2482.594    23269934.047  
  23511468.820   123553637.66807        42.000        1863.844    96275545.94104
        28.000        1452.320    23511472.492  
  20786327.867   109232821.63708        49.000        1757.637    85116565.39106
        41.000        1369.578    20786330.891  
  21896729.883   115068112.82808        48.000         322.355    89663471.29308
        50.000         251.191    21896731.297  
  21108004.656   110923317.99608        51.000        -415.254    86433751.00008
        51.000        -323.574    21108004.758  
  22467289.797   118066420.82005        34.000        -683.465    91999775.59003
        20.000        -532.574    22467290.891  
  22383210.109   117624588.02306        41.000        1123.121    91655543.75406
        40.000         875.172    22383214.336  
  22902915.734   120355712.98407        46.000        3019.125    93783648.70705
        35.000        2352.559    22902921.008  
  19356457.680   103180853.47708        51.000        1346.613    80251750.17608
        51.000        1047.617    19356459.727  
  22695225.945   121276540.50008        48.000        3989.383    94326150.87108
        48.000        3103.043    22695226.117  
  20704971.727   110563302.04306        40.000       -2909.480    85993682.75407
        43.000       -2262.523    20704974.000  
  20378775.977   108974462.76207        47.000       -2267.301    84757836.20306
        40.000       -1763.016    20378776.398  
  20518283.336   109797432.55508        51.000         801.512    85398037.58208
        49.000         623.285    20518282.414  
 23  7 24 21 24 52.0000000  0 14G24G11G28G25G29G12G20G05G18R14R15R13            
                                R24R17                                          
  23173948.117   121779887.47706        40.000       -3295.117    94893449.89807
        45.000       -2567.598    23173956.227  
  23270538.938   122287417.34007        42.000       -3186.273    95288942.24604
        27.000       -2482.805    23270541.109  
  23511114.320   123551777.92207        42.000        1863.262    96274096.78104
        28.000        1451.918    23511118.586  
  20785994.281   109231067.58208        50.000        1757.695    85115198.59406
        41.000        1369.633    20785997.086  
  21896669.469   115067794.21108        49.000         322.141    89663223.02008
        50.000         251.008    21896670.695  
  21108084.555   110923737.19508        51.000        -415.656    86434077.64508
        51.000        -323.871    21108084.555  
  22467419.797   118067107.74605        35.000        -685.250    92000310.84003
        20.000        -533.957    22467421.625  
  22382996.906   117623468.93406        41.000        1122.770    91654671.73806
        40.000         874.867    22383001.406  
  22902341.984   120352697.93407        46.000        3018.563    93781299.32005
        35.000        2352.125    22902347.273  
  19356205.984   103179510.85508        51.000        1346.035    80250705.91808
        51.000        1047.039    19356207.906  
  22694479.891   121272554.47708        48.000        3989.504    94323050.62508
        48.000        3103.078    22694480.344  
  20705517.336   110566214.89806        41.000       -2909.574    85995948.31307
        43.000       -2262.895    20705519.648  
  20379200.961   108976733.53907        47.000       -2267.113    84759602.35906
        40.000       -1763.020    20379201.063  
  20518134.516   109796634.80508        51.000         801.113    85397417.10208
        49.000         623.223    20518133.289  
 23  7 24 21 24 53.0000000  0 14G24G11G28G25G29G12G20G05G18R14R15R13            
                                R24R17                                          
  23174573.664   121783172.78906        40.000       -3295.613    94896009.87907
        45.000       -2567.984    23174581.398  
  23271143.477   122290593.30107        42.000       -3186.379    95291417.02004
        27.000       -2482.883    23271145.523  
  23510757.844   123549904.73407        42.000        1862.707    96272637.14804
        28.000        1451.488    23510762.164  
  20785657.883   109229299.87508        50.000        1757.313    85113821.16006
        41.000        1369.344    20785660.688  
  21896606.273   115067461.73408        49.000         322.305    89662963.94508
        50.000         251.145    21896607.430  
  21108161.648   110924142.84408        51.000        -416.074    86434393.73408
        51.000        -324.223    21108161.758  
  22467549.336   118067781.20705        35.000        -685.168    92000835.61703
        20.000        -533.906    22467549.836  
  22382781.297   117622336.34006        41.000        1122.211    91653789.20706
        40.000         874.406    22382785.891  
  22901765.359   120349669.25007        46.000        3018.398    93778939.30905
        35.000        2351.992    22901770.922  
  19355951.570   103178154.80908        51.000        1345.539    80249651.22708
        51.000        1046.336    19355953.516  
  22693731.219   121268554.44508        48.000        3989.570    94319939.50408
        48.000        3103.137    22693731.734  
  20706060.469   110569114.21506        41.000       -2909.938    85998203.34007
        44.000       -2263.348    20706062.609  
  20379622.984   108978990.37907        47.000       -2267.301    84761357.70706
        40.000       -1763.832    20379622.883  
  20517982.688   109795823.34008        51.000         801.426    85396785.97308
        48.000         623.242    20517981.547  
 23  7 24 21 24 54.0000000  0 14G24G11G28G25G29G12G20G05G18R14R15R13            
                                R24R17                                          
  23175199.883   121786465.10906        41.000       -3295.918    94898575.32007
        45.000       -2568.254    23175207.898  
  23271748.953   122293776.39107        42.000       -3187.000    95293897.35904
        27.000       -2483.387    23271751.219  
  23510402.750   123548038.99207        42.000        1861.820    96271183.32404
        28.000        1450.773    23510407.133  
  20785322.898   109227539.39808        50.000        1756.504    85112449.35906
        41.000        1368.699    20785325.688  
  21896544.383   115067136.30508        49.000         321.586    89662710.37108
        50.000         250.578    21896545.469  
  21108240.078   110924555.84808        51.000        -417.031    86434715.55908
        51.000        -324.965    21108240.359  
  22467678.281   118068462.18405        35.000        -684.766    92001366.25403
        20.000        -533.582    22467679.445  
  22382567.391   117621211.14806        41.000        1121.145    91652912.43806
        40.000         873.605    22382571.781  
  22901190.391   120346647.87107        46.000        3017.379    93776584.99205
        35.000        2351.195    22901195.969  
  19355698.602   103176806.55108        51.000        1343.957    80248602.57808
        51.000        1045.258    19355700.594  
  22692983.867   121264561.65207        47.000        3988.941    94316834.00008
        48.000        3102.391    22692984.469  
  20706604.492   110572021.17206        41.000       -2911.090    86000464.31607
        44.000       -2264.332    20706606.906  
  20380046.094   108981254.59007        47.000       -2268.461    84763118.74606
        40.000       -1764.141    20380045.695  
  20517832.086   109795019.53508        51.000         799.406    85396160.78108
        49.000         622.000    20517831.227  
 23  7 24 21 24 55.0000000  0 14G24G11G28G25G29G12G20G05G18R14R15R13            
                                R24R17                                          
  23175829.563   121789771.32406        41.000       -3296.078    94901151.59007
        45.000       -2568.363    23175837.039  
  23272357.484   122296973.47307        42.000       -3187.148    95296388.59004
        27.000       -2483.488    23272359.609  
  23510050.211   123546187.58207        43.000        1861.473    96269740.67604
        29.000        1450.504    23510054.750  
  20784990.672   109225793.03508        50.000        1756.613    85111088.56306
        41.000        1368.789    20784993.352  
  21896485.203   115066824.78908        49.000         321.547    89662467.64108
        50.000         250.547    21896486.195  
  21108321.422   110924983.08608        51.000        -417.266    86435048.47308
        51.000        -325.137    21108321.656  
  22467811.219   118069157.62106        36.000        -684.629    92001908.16003
        20.000        -533.559    22467811.766  
  22382355.859   117620100.21506        41.000        1120.863    91652046.77006
        40.000         873.391    22382360.367  
  22900618.195   120343640.64107        46.000        3017.297    93774241.70305
        35.000        2351.137    22900623.734  
  19355448.547   103175473.06608        51.000        1343.566    80247565.42608
        51.000        1044.887    19355450.445  
  22692239.297   121260583.04707        47.000        3988.961    94313739.53508
        48.000        3102.477    22692239.953  
  20707151.664   110574942.78506        41.000       -2911.156    86002736.67207
        43.000       -2264.348    20707153.984  
  20380472.273   108983533.14107        47.000       -2268.285    84764890.95706
        39.000       -1764.289    20380471.891  
  20517684.531   109794230.35908        51.000         799.410    85395546.99208
        48.000         621.547    20517683.617  
 23  7 24 21 24 56.0000000  0 14G24G11G28G25G29G12G20G05G18R14R15R13            
                                R24R17                                          
  23176457.500   121793070.23406        41.000       -3296.023    94903722.16007
        45.000       -2568.336    23176464.797  
  23272964.625   122300163.35907        42.000       -3186.664    95298874.21504
        27.000       -2483.105    23272966.641  
  23509695.961   123544329.28907        43.000        1861.254    96268292.65604
        29.000        1450.344    23509701.094  
  20784656.750   109224039.59408        50.000        1756.250    85109722.24206
        41.000        1368.508    20784659.680  
  21896424.523   115066505.98808        49.000         321.730    89662219.22308
        50.000         250.699    21896425.563  
  21108401.453   110925403.34808        51.000        -417.492    86435375.94908
        51.000        -325.320    21108401.648  
  22467941.648   118069846.29306        36.000        -684.992    92002444.79303
        20.000        -533.754    22467942.789  
  22382143.063   117618982.37106        41.000        1120.813    91651175.72306
        40.000         873.363    22382147.625  
  22900044.703   120340626.38307        46.000        3017.023    93771892.93005
        35.000        2350.938    22900050.133  
  19355197.234   103174132.86308        51.000        1342.809    80246523.03908
        51.000        1044.508    19355199.141  
  22691493.570   121256597.09408        48.000        3988.699    94310639.34408
        48.000        3102.363    22691494.148  
  20707697.586   110577857.50406        41.000       -2911.887    86005003.66007
        43.000       -2264.770    20707699.844  
  20380897.289   108985804.44107        47.000       -2268.414    84766657.52706
        39.000       -1764.324    20380896.711  
  20517536.008   109793434.26608        51.000         798.758    85394927.80108
        49.000         621.305    20517534.852  
 23  7 24 21 24 57.0000000  0 14G24G11G28G25G29G12G20G05G18R14R15R13            
                                R24R17                                          
  23177082.328   121796355.24206        41.000       -3296.270    94906281.89807
        45.000       -2568.547    23177089.906  
  23273568.891   122303339.46907        42.000       -3187.344    95301349.10904
        27.000       -2483.621    23273571.000  
  23509340.609   123542457.54707        42.000        1860.449    96266834.15204
        29.000        1449.707    23509344.922  
  20784320.328   109222272.47708        50.000        1755.914    85108345.26606
        41.000        1368.242    20784323.414  
  21896361.273   115066173.32408        49.000         321.594    89661960.00008
        50.000         250.590    21896362.266  
  21108478.656   110925810.05508        51.000        -417.992    86435692.85908
        51.000        -325.711    21108479.047  
  22468071.227   118070521.55506        36.000        -686.660    92002970.97303
        20.000        -535.043    22468071.328  
  22381927.508   117617850.98806        40.000        1120.004    91650294.12506
        40.000         872.754    22381932.297  
  22899468.406   120337598.49607        46.000        3016.699    93769533.54305
        35.000        2350.668    22899473.953  
  19354943.406   103172779.25008        51.000        1342.023    80245470.22708
        51.000        1043.910    19354945.258  
  22690745.000   121252597.07807        47.000        3988.664    94307528.22708
        48.000        3102.129    22690745.609  
  20708240.641   110580758.60906        40.000       -2912.848    86007260.09007
        43.000       -2265.328    20708243.164  
  20381319.555   108988061.77007        47.000       -2268.895    84768413.21106
        39.000       -1764.590    20381318.656  
  20517384.633   109792624.48808        51.000         798.184    85394297.98008
        49.000         620.711    20517383.555  
 23  7 24 21 24 58.0000000  0 14G24G11G28G25G29G12G20G05G18R14R15R13            
                                R24R17                                          
  23177708.758   121799647.40606        41.000       -3296.594    94908847.21507
        45.000       -2568.793    23177716.359  
  23274174.906   122306522.83607        42.000       -3187.633    95303829.65604
        27.000       -2483.887    23274176.727  
  23508985.539   123540593.38307        42.000        1859.820    96265381.55904
        29.000        1449.207    23508990.203  
  20783985.586   109220512.73808        50.000        1755.488    85106974.04306
        41.000        1367.906    20783988.531  
  21896299.219   115065847.85208        49.000         321.262    89661706.39108
        50.000         250.328    21896300.328  
  21108557.563   110926224.26608        51.000        -418.520    86436015.62508
        51.000        -326.129    21108557.867  
  22468200.922   118071204.50406        36.000        -687.383    92003503.14503
        20.000        -535.641    22468201.352  
  22381713.828   117616727.14106        41.000        1119.598    91649418.39806
        40.000         872.426    22381718.398  
  22898893.359   120334578.03107        46.000        3016.301    93767179.94105
        35.000        2350.359    22898899.188  
  19354690.891   103171433.57808        51.000        1341.305    80244423.59808
        51.000        1043.160    19354692.820  
  22689997.688   121248604.44507        47.000        3988.543    94304422.84008
        48.000        3102.164    22689998.313  
  20708785.656   110583667.53906        41.000       -2913.266    86009522.58607
        43.000       -2266.039    20708787.789  
  20381742.969   108990326.58607        47.000       -2269.055    84770174.74606
        39.000       -1764.648    20381741.719  
  20517234.477   109791822.44908        51.000         797.684    85393674.17208
        49.000         620.336    20517233.727  
 23  7 24 21 24 59.0000000  0 14G24G11G28G25G29G12G20G05G18R14R15R13            
                                R24R17                                          
  23178338.156   121802953.62106        41.000       -3296.395    94911423.48407
        45.000       -2568.617    23178345.500  
  23274783.125   122309720.37107        42.000       -3187.785    95306321.24204
        27.000       -2484.027    23274785.195  
  23508633.641   123538743.71507        42.000        1859.102    96263940.26204
        29.000        1448.695    23508638.289  
  20783653.555   109218767.28908        50.000        1754.910    85105613.95706
        41.000        1367.484    20783656.367  
  21896239.969   115065536.46508        49.000         320.996    89661463.75808
        50.000         250.121    21896241.070  
  21108639.133   110926652.87108        51.000        -419.027    86436349.60908
        51.000        -326.520    21108639.430  
  22468332.625   118071902.03906        36.000        -688.332    92004046.68003
        20.000        -536.371    22468334.125  
  22381502.484   117615617.75806        41.000        1118.676    91648553.94906
        40.000         871.695    22381507.266  
  22898321.531   120331571.91407        46.000        3015.582    93764837.52005
        35.000        2349.797    22898327.133  
  19354441.266   103170102.82008        51.000        1340.469    80243388.56608
        51.000        1042.578    19354443.125  
  22689253.055   121244626.19907        47.000        3988.348    94301328.66008
        48.000        3101.797    22689253.953  
  20709333.117   110586591.31306        40.000       -2913.930    86011796.62507
        43.000       -2266.402    20709335.320  
  20382169.438   108992605.94507        47.000       -2269.508    84771947.57006
        39.000       -1765.344    20382167.922  
  20517087.453   109791035.16808        51.000         797.188    85393061.84408
        48.000         620.043    20517086.547  
 23  7 24 21 25  0.0000000  0 14G24G11G28G25G29G12G20G05G18R14R15R13            
                                R24R17                                          
  23178965.727   121806252.51206        41.000       -3295.836    94913994.04707
        45.000       -2568.141    23178973.266  
  23275390.023   122312910.69907        42.000       -3187.668    95308807.21904
        28.000       -2483.895    23275392.242  
  23508280.484   123536887.16407        42.000        1859.273    96262493.59404
        29.000        1448.801    23508284.992  
  20783320.156   109217014.72708        50.000        1755.266    85104248.32006
        41.000        1367.730    20783322.867  
  21896179.328   115065217.76208        49.000         321.480    89661215.41808
        51.000         250.512    21896180.453  
  21108719.453   110927074.50008        51.000        -419.266    86436678.14808
        51.000        -326.699    21108719.680  
  22468464.453   118072592.75406        36.000        -688.629    92004584.91003
        20.000        -536.594    22468465.664  
  22381290.203   117614501.39506        41.000        1118.422    91647684.05506
        40.000         871.469    22381294.789  
  22897748.391   120328558.73007        46.000        3015.754    93762489.58605
        35.000        2349.949    22897753.703  
  19354190.453   103168765.29308        51.000        1340.047    80242348.27308
        51.000        1042.176    19354192.195  
  22688507.344   121240640.61307        47.000        3988.172    94298228.75008
        48.000        3102.086    22688508.008  
  20709879.258   110589508.15206        41.000       -2914.273    86014065.29307
        43.000       -2266.797    20709881.547  
  20382594.680   108994878.05107        47.000       -2269.348    84773714.77706
        39.000       -1765.125    20382593.156  
  20516939.211   109790240.90608        51.000         796.813    85392444.09008
        48.000         619.711    20516938.156  
 23  7 24 21 25  1.0000000  0 14G24G11G28G25G29G12G20G05G18R14R15R13            
                                R24R17                                          
  23179590.914   121809537.41006        41.000       -3296.129    94916553.70307
        46.000       -2568.410    23179598.375  
  23275995.094   122316087.11707        42.000       -3187.453    95311282.34804
        28.000       -2483.730    23275996.719  
  23507924.211   123535017.05507        42.000        1858.512    96261036.36704
        29.000        1448.164    23507929.195  
  20782984.016   109215248.39808        50.000        1754.910    85102871.95706
        41.000        1367.453    20782986.742  
  21896115.875   115064885.10208        49.000         321.457    89660956.19908
        51.000         250.484    21896117.172  
  21108797.133   110927482.46908        51.000        -419.406    86436996.04708
        51.000        -326.832    21108797.320  
  22468594.195   118073269.97706        36.000        -689.535    92005112.62503
        20.000        -537.313    22468594.672  
  22381075.086   117613371.38706        40.000        1118.918    91646803.52006
        40.000         871.938    22381079.734  
  22897172.336   120325531.81607        45.000        3015.711    93760130.95305
        35.000        2349.898    22897177.695  
  19353937.016   103167414.25408        51.000        1339.375    80241297.46508
        51.000        1041.613    19353938.742  
  22687758.711   121236640.85507        47.000        3988.352    94295117.82808
        48.000        3102.043    22687759.547  
  20710422.758   110592411.32406        41.000       -2914.688    86016323.30507
        43.000       -2267.195    20710425.273  
  20383017.055   108997136.08207        47.000       -2269.578    84775471.00806
        39.000       -1765.078    20383015.586  
  20516788.250   109789432.90208        51.000         796.219    85391815.64808
        49.000         619.250    20516787.281  
 23  7 24 21 25  2.0000000  0 14G24G11G28G25G29G12G20G05G18R14R15R13            
                                R24R17                                          
  23180217.586   121812829.28106        41.000       -3296.621    94919118.80107
        46.000       -2568.777    23180224.781  
  23276600.859   122319270.64507        42.000       -3188.418    95313763.02004
        28.000       -2484.473    23276602.484  
  23507569.859   123533154.34807        42.000        1857.750    96259584.91004
        29.000        1447.590    23507574.719  
  20782649.125   109213489.25808        50.000        1754.281    85101501.20306
        41.000        1366.973    20782651.992  
  21896053.891   115064559.43808        49.000         320.910    89660702.43808
        51.000         250.055    21896055.188  
  21108875.977   110927897.74608        51.000        -420.105    86437319.64108
        51.000        -327.359    21108876.344  
  22468724.297   118073954.68006        36.000        -689.664    92005646.15603
        20.000        -537.391    22468725.016  
  22380861.344   117612248.77006        41.000        1117.738    91645928.76206
        40.000         870.949    22380866.070  
  22896597.648   120322512.16407        46.000        3014.598    93757777.98405
        35.000        2349.051    22896603.078  
  19353684.969   103166070.96908        51.000        1338.285    80240252.68008
        51.000        1040.957    19353686.766  
  22687011.391   121232648.26607        47.000        3987.902    94292012.48808
        48.000        3101.723    22687012.344  
  20710967.836   110595322.08206        41.000       -2915.980    86018587.21507
        43.000       -2267.645    20710970.102  
  20383440.445   108999401.39807        47.000       -2270.238    84777232.90606
        39.000       -1765.297    20383438.844  
  20516638.445   109788632.50008        51.000         795.527    85391193.11308
        49.000         618.664    20516637.758  
 23  7 24 21 25  3.0000000  0 14G24G11G28G25G29G12G20G05G18R14R15R13            
                                R24R17                                          
  23180846.586   121816135.09006        41.000       -3296.594    94921694.74607
        46.000       -2568.770    23180853.844  
  23277209.008   122322468.21507        42.000       -3188.449    95316254.62504
        28.000       -2484.488    23277210.977  
  23507218.352   123531306.02007        42.000        1857.586    96258144.65604
        28.000        1447.441    23507223.016  
  20782317.148   109211744.29308        50.000        1754.008    85100141.48806
        41.000        1366.770    20782319.938  
  21895994.836   115064247.73808        49.000         320.836    89660459.55908
        51.000         250.012    21895995.867  
  21108957.609   110928327.31308        51.000        -420.570    86437654.37108
        51.000        -327.703    21108958.094  
  22468857.266   118074653.86306        36.000        -690.332    92006190.98003
        20.000        -537.926    22468858.148  
  22380650.766   117611140.46106        41.000        1117.328    91645065.16006
        40.000         870.652    22380655.125  
  22896025.695   120319506.70707        46.000        3014.410    93755436.07405
        35.000        2348.887    22896031.133  
  19353435.742   103164742.52308        51.000        1337.520    80239219.44508
        51.000        1040.281    19353437.563  
  22686266.781   121228669.95307        47.000        3987.621    94288918.25408
        48.000        3101.371    22686267.875  
  20711515.680   110598247.51606        41.000       -2916.254    86020862.56307
        43.000       -2268.281    20711517.969  
  20383866.828   109001681.12507        47.000       -2270.531    84779006.05506
        39.000       -1766.016    20383865.250  
  20516491.703   109787846.77708        51.000         794.902    85390581.99208
        49.000         618.270    20516491.031  
 23  7 24 21 25  4.0000000  0 14G24G11G28G25G29G12G20G05G18R14R15R13            
                                R24R17                                          
  23181474.172   121819433.87506        41.000       -3296.988    94924265.21507
        46.000       -2569.086    23181481.594  
  23277816.000   122325658.89107        42.000       -3188.770    95318740.86704
        27.000       -2484.766    23277818.141  
  23506864.930   123529451.12107        42.000        1856.949    96256699.27704
        28.000        1446.996    23506870.070  
  20781983.727   109209992.53508        50.000        1753.934    85098776.48006
        41.000        1366.699    20781986.602  
  21895934.445   115063929.06608        49.000         320.746    89660211.24208
        51.000         249.934    21895935.250  
  21109038.133   110928750.21508        51.000        -420.957    86437983.90208
        51.000        -328.012    21109038.578  
  22468989.266   118075346.54306        36.000        -690.547    92006730.72703
        20.000        -538.152    22468989.992  
  22380438.445   117610025.52306        41.000        1117.176    91644196.37106
        40.000         870.547    22380442.922  
  22895452.516   120316494.51607        46.000        3014.309    93753088.91405
        35.000        2348.797    22895457.875  
  19353185.367   103163407.64108        51.000        1336.898    80238181.21508
        51.000        1039.715    19353187.219  
  22685521.102   121224684.61707        47.000        3987.430    94285818.54308
        48.000        3101.539    22685522.039  
  20712062.656   110601166.35506        41.000       -2916.617    86023132.76607
        43.000       -2268.508    20712064.438  
  20384292.234   109003953.91007        47.000       -2270.543    84780773.77706
        39.000       -1765.805    20384290.156  
  20516344.055   109787054.34808        51.000         794.621    85389965.66408
        49.000         617.934    20516342.945  
 23  7 24 21 25  5.0000000  0 14G24G11G28G25G29G12G20G05G18R14R15R13            
                                R24R17                                          
  23182099.117   121822718.78906        41.000       -3296.586    94926824.87907
        46.000       -2568.742    23182106.672  
  23278420.938   122328835.76207        42.000       -3188.391    95321216.34804
        27.000       -2484.473    23278422.664  
  23506509.477   123527582.77007        42.000        1856.395    96255243.41404
        28.000        1446.543    23506514.578  
  20781647.828   109208227.12108        50.000        1753.805    85097400.83206
        41.000        1366.602    20781650.648  
  21895870.930   115063596.51608        49.000         320.965    89659952.11308
        51.000         250.102    21895871.977  
  21109116.102   110929159.56308        50.000        -420.902    86438302.87108
        51.000        -327.977    21109116.477  
  22469118.922   118076025.89106        36.000        -691.719    92007260.09803
        20.000        -538.984    22469119.430  
  22380223.758   117608897.09806        41.000        1116.914    91643317.07806
        40.000         870.340    22380228.133  
  22894876.836   120313468.71107        45.000        3014.078    93750731.14805
        35.000        2348.621    22894882.047  
  19352932.414   103162059.32808        51.000        1336.391    80237132.52708
        51.000        1039.355    19352934.188  
  22684772.703   121220685.23807        47.000        3987.551    94282707.93008
        48.000        3101.395    22684773.680  
  20712606.813   110604071.60506        41.000       -2917.016    86025392.41007
        43.000       -2268.754    20712608.477  
  20384714.688   109006212.73007        47.000       -2270.828    84782530.60906
        39.000       -1765.922    20384712.570  
  20516193.445   109786248.27708        51.000         794.109    85389338.71908
        49.000         617.754    20516192.406  
 23  7 24 21 25  6.0000000  0 14G24G11G28G25G29G12G20G05G18R14R15R13            
                                R24R17                                          
  23182725.570   121826010.56307        42.000       -3296.359    94929389.89507
        46.000       -2568.594    23182733.063  
  23279026.906   122332019.62907        42.000       -3188.719    95323697.28904
        27.000       -2484.699    23279028.555  
  23506155.289   123525721.71907        42.000        1856.059    96253793.25004
        28.000        1446.281    23506160.461  
  20781313.313   109206468.78908        50.000        1753.500    85096030.70706
        41.000        1366.367    20781316.031  
  21895808.922   115063270.87108        49.000         320.875    89659698.36708
        51.000         250.023    21895809.977  
  21109195.289   110929576.12508        50.000        -421.449    86438627.46908
        51.000        -328.391    21109195.750  
  22469249.508   118076712.57806        36.000        -691.574    92007795.18403
        21.000        -538.922    22469250.156  
  22380010.109   117607775.91006        41.000        1116.109    91642443.43806
        40.000         869.656    22380014.719  
  22894302.234   120310450.04307        46.000        3013.902    93748378.94905
        35.000        2348.484    22894307.578  
  19352680.859   103160718.64808        51.000        1335.582    80236089.77008
        51.000        1038.848    19352682.641  
  22684025.477   121216692.91007        47.000        3987.461    94279602.78508
        48.000        3101.234    22684026.656  
  20713152.156   110606984.39506        41.000       -2917.410    86027657.91407
        43.000       -2269.438    20713153.781  
  20385138.234   109008478.72707        47.000       -2271.070    84784293.08206
        39.000       -1766.469    20385136.039  
  20516044.148   109785449.70708        51.000         793.449    85388717.61308
        49.000         617.219    20516043.117  
 23  7 24 21 25  7.0000000  0 14G24G11G28G25G29G12G20G05G18R14R15R13            
                                R24R17                                          
  23183355.508   121829318.66807        42.000       -3296.973    94931967.64507
        46.000       -2569.098    23183362.547  
  23279636.250   122335219.89807        42.000       -3189.066    95326191.01204
        27.000       -2485.000    23279637.563  
  23505804.359   123523877.41007        42.000        1855.145    96252356.13304
        28.000        1445.566    23505809.500  
  20780981.688   109204727.00008        50.000        1752.945    85094673.46906
        41.000        1365.941    20780984.570  
  21895750.266   115062961.56608        49.000         320.535    89659457.35508
        51.000         249.758    21895751.102  
  21109277.602   110930009.33608        50.000        -422.203    86438965.03508
        51.000        -328.996    21109278.180  
  22469383.688   118077416.10506        36.000        -692.426    92008343.39803
        21.000        -539.570    22469384.141  
  22379800.031   117606671.41806        41.000        1115.840    91641582.79706
        40.000         869.508    22379804.516  
  22893731.000   120307447.96507        45.000        3013.121    93746039.67205
        35.000        2347.883    22893736.258  
  19352432.570   103159395.19508        51.000        1334.457    80235060.41808
        51.000        1037.941    19352434.320  
  22683281.461   121212717.22307        47.000        3987.199    94276510.59408
        48.000        3100.918    22683282.680  
  20713700.703   110609914.27706        41.000       -2918.453    86029936.71907
        43.000       -2270.082    20713702.563  
  20385565.063   109010761.54307        46.000       -2271.145    84786068.60906
        39.000       -1766.730    20385562.492  
  20515898.180   109784668.21108        51.000         792.785    85388109.78508
        49.000         616.496    20515897.180  
 23  7 24 21 25  8.0000000  0 14G24G11G28G25G29G12G20G05G18R14R15R13            
                                R24R17                                          
  23183984.273   121832625.94107        42.000       -3296.887    94934544.73407
        46.000       -2569.000    23183991.922  
  23280245.156   122338419.49207        42.000       -3189.180    95328684.20704
        27.000       -2485.074    23280246.445  
  23505453.117   123522032.75007        42.000        1854.719    96250918.73804
        28.000        1445.227    23505458.469  
  20780649.977   109202984.63308        50.000        1752.566    85093315.78106
        41.000        1365.645    20780653.016  
  21895691.266   115062651.48408        49.000         320.426    89659215.73408
        51.000         249.699    21895692.117  
  21109360.055   110930442.08208        50.000        -422.758    86439302.24208
        51.000        -329.426    21109360.531  
  22469517.375   118078119.37106        36.000        -693.414    92008891.38303
        21.000        -540.293    22469518.047  
  22379589.734   117605566.52306        41.000        1114.859    91640721.82806
        40.000         868.719    22379594.250  
  22893159.539   120304445.34807        45.000        3012.738    93743699.97305
        35.000        2347.590    22893164.828  
  19352184.344   103158071.61708        51.000        1333.590    80234030.97308
        51.000        1037.164    19352186.063  
  22682537.297   121208740.84807        46.000        3986.672    94273417.85208
        48.000        3100.930    22682538.547  
  20714249.516   110612843.89806        41.000       -2919.422    86032215.29707
        43.000       -2270.496    20714251.484  
  20385991.938   109013043.78907        46.000       -2272.070    84787843.68406
        39.000       -1767.203    20385989.047  
  20515752.469   109783886.36708        51.000         792.078    85387501.68808
        49.000         616.043    20515751.094  
 23  7 24 21 25  9.0000000  0 14G24G11G28G25G29G12G20G05G18R14R15R13            
                                R24R17                                          
  23184610.547   121835917.24207        42.000       -3296.605    94937109.37507
        46.000       -2568.773    23184618.266  
  23280850.922   122341603.23007        42.000       -3189.422    95331165.03504
        27.000       -2485.258    23280852.273  
  23505099.086   123520172.51607        42.000        1854.508    96249469.19904
        28.000        1445.074    23505104.547  
  20780315.375   109201226.50008        50.000        1752.461    85091945.80906
        41.000        1365.559    20780318.484  
  21895629.164   115062325.44908        49.000         320.563    89658961.68008
        51.000         249.781    21895630.094  
  21109439.352   110930859.17608        50.000        -422.699    86439627.24608
        51.000        -329.375    21109439.898  
  22469649.023   118078807.14806        37.000        -693.801    92009427.31303
        21.000        -540.629    22469648.891  
  22379376.523   117604445.97306        41.000        1115.039    91639848.67606
        40.000         868.867    22379380.977  
  22892585.164   120301427.03107        46.000        3012.730    93741348.04305
        35.000        2347.582    22892590.398  
  19351933.172   103156732.50808        51.000        1333.195    80232989.44908
        51.000        1036.852    19351934.852  
  22681790.188   121204748.33607        46.000        3986.840    94270312.57008
        48.000        3100.742    22681791.352  
  20714795.219   110615757.82006        41.000       -2919.785    86034481.68007
        43.000       -2271.164    20714797.148  
  20386415.852   109015309.91007        46.000       -2271.570    84789606.23406
        39.000       -1767.328    20386413.313  
  20515603.633   109783088.72308        51.000         791.797    85386881.29308
        49.000         615.785    20515602.148  
 23  7 24 21 25 10.0000000  0 14G24G11G28G25G29G12G20G05G18R14R15R13            
                                R24R17                                          
  23185234.984   121839197.62907        42.000       -3296.914    94939665.50807
        46.000       -2569.023    23185242.500  
  23281454.672   122344776.13307        42.000       -3189.621    95333637.42604
        27.000       -2485.418    23281456.070  
  23504743.281   123518301.82407        42.000        1854.195    96248011.51604
        28.000        1444.832    23504748.539  
  20779978.805   109199457.69108        50.000        1752.277    85090567.51606
        41.000        1365.402    20779981.891  
  21895565.305   115061988.53108        49.000         320.520    89658699.14808
        51.000         249.758    21895565.977  
  21109516.445   110931265.71908        50.000        -423.090    86439944.03108
        51.000        -329.684    21109517.258  
  22469777.828   118079484.53506        36.000        -694.461    92009955.15203
        20.000        -541.148    22469777.875  
  22379161.766   117603314.92206        41.000        1114.492    91638967.34006
        40.000         868.434    22379165.703  
  22892008.773   120298398.07407        46.000        3012.465    93738987.82005
        35.000        2347.375    22892013.977  
  19351679.922   103155383.02708        51.000        1332.516    80231939.84808
        51.000        1036.359    19351681.586  
  22681040.898   121200744.81307        46.000        3986.910    94267198.71908
        48.000        3100.930    22681042.133  
  20715338.969   110618661.17606        41.000       -2920.270    86036739.85207
        43.000       -2271.297    20715340.656  
  20386837.398   109017565.12907        46.000       -2272.047    84791360.28506
        39.000       -1767.293    20386834.438  
  20515452.406   109782280.46108        51.000         791.336    85386252.64808
        49.000         615.473    20515451.078  
 23  7 24 21 25 11.0000000  0 14G24G11G28G25G29G12G20G05G18R14R15R13            
                                R24R17                                          
  23185861.156   121842488.32007        42.000       -3296.754    94942229.68007
        46.000       -2568.938    23185868.664  
  23282060.516   122347959.48807        42.000       -3189.793    95336117.96904
        27.000       -2485.574    23282061.844  
  23504389.391   123516441.91007        42.000        1853.410    96246562.23804
        29.000        1444.211    23504394.570  
  20779644.414   109197699.42608        50.000        1751.973    85089197.44106
        41.000        1365.172    20779647.320  
  21895503.086   115061661.97308        49.000         320.355    89658444.69108
        51.000         249.609    21895503.805  
  21109596.016   110931682.92608        50.000        -423.605    86440269.13308
        51.000        -330.078    21109596.648  
  22469907.930   118080172.77006        36.000        -694.430    92010491.44503
        20.000        -541.094    22469908.906  
  22378948.313   117602194.54306        41.000        1114.113    91638094.32006
        40.000         868.102    22378952.453  
  22891434.563   120295379.72707        46.000        3011.715    93736635.86305
        35.000        2346.809    22891439.594  
  19351428.797   103154044.66408        51.000        1331.742    80230898.89808
        51.000        1035.688    19351430.391  
  22680293.539   121196751.86307        46.000        3986.516    94264093.09408
        48.000        3100.742    22680294.883  
  20715884.820   110621575.57806        41.000       -2921.355    86039006.59807
        43.000       -2271.727    20715886.344  
  20387260.781   109019831.06307        46.000       -2272.367    84793122.67206
        39.000       -1767.500    20387257.617  
  20515303.172   109781483.20308        51.000         790.691    85385632.55908
        49.000         615.055    20515302.250  
 23  7 24 21 25 12.0000000  0 14G24G11G28G25G29G12G20G05G18R14R15R13            
                                R24R17                                          
  23186490.781   121845796.19107        42.000       -3297.199    94944807.23807
        46.000       -2569.281    23186498.094  
  23282669.656   122351160.10507        42.000       -3190.055    95338611.96104
        27.000       -2485.789    23282670.945  
  23504038.781   123514599.57407        42.000        1852.840    96245126.65604
        29.000        1443.750    23504043.977  
  20779313.141   109195958.55108        50.000        1751.406    85087840.92606
        41.000        1364.723    20779316.055  
  21895444.117   115061352.59808        49.000         320.113    89658203.62508
        51.000         249.453    21895444.914  
  21109678.617   110932117.62908        50.000        -424.145    86440607.87108
        51.000        -330.512    21109679.367  
  22470043.734   118080878.68406        36.000        -695.613    92011041.51603
        20.000        -542.039    22470043.234  
  22378738.508   117601091.73806        41.000        1113.016    91637235.00006
        40.000         867.266    22378742.539  
  22890863.242   120292378.79707        46.000        3011.359    93734297.48005
        35.000        2346.508    22890868.484  
  19351181.102   103152724.37108        51.000        1330.641    80229872.00008
        51.000        1034.977    19351182.711  
  22679549.586   121192776.41007        46.000        3986.066    94261001.08208
        48.000        3100.383    22679550.898  
  20716433.953   110624507.90606        41.000       -2921.840    86041287.31307
        43.000       -2272.508    20716435.469  
  20387687.859   109022114.68007        46.000       -2273.000    84794898.79706
        39.000       -1767.766    20387684.617  
  20515157.508   109780703.88308        51.000         789.965    85385026.42208
        49.000         614.555    20515156.648  
 23  7 24 21 25 13.0000000  0 14G24G11G28G25G29G12G20G05G18R14R15R13            
                                R24R17                                          
  23187120.359   121849103.55107        42.000       -3297.535    94947384.39507
        46.000       -2569.520    23187127.469  
  23283278.125   122354360.32807        42.000       -3190.285    95341105.63704
        27.000       -2485.930    23283279.945  
  23503688.211   123512757.17207        42.000        1852.301    96243691.01204
        29.000        1443.355    23503693.375  
  20778981.813   109194217.39508        50.000        1751.125    85086484.17606
        41.000        1364.516    20778984.758  
  21895385.195   115061042.75008        49.000         319.852    89657962.18808
        51.000         249.223    21895385.969  
  21109761.398   110932552.16808        50.000        -424.629    86440946.47308
        51.000        -330.879    21109762.047  
  22470178.102   118081584.58206        36.000        -695.633    92011591.57803
        20.000        -542.086    22470177.563  
  22378528.602   117599988.80107        42.000        1112.781    91636375.57006
        40.000         867.086    22378532.656  
  22890292.242   120289377.63707        46.000        3011.168    93731958.91805
        34.000        2346.352    22890297.344  
  19350933.398   103151404.24208        51.000        1330.004    80228845.23808
        51.000        1034.430    19350935.133  
  22678805.727   121188800.54707        46.000        3985.906    94257908.74607
        47.000        3100.227    22678806.742  
  20716983.078   110627440.27306        41.000       -2922.363    86043568.03507
        43.000       -2272.961    20716984.820  
  20388115.016   109024397.95307        46.000       -2273.160    84796674.69906
        38.000       -1768.051    20388111.828  
  20515012.109   109779924.50808        51.000         789.309    85384420.24608
        49.000         614.059    20515011.180  
 23  7 24 21 25 14.0000000  0 14G24G11G28G25G29G12G20G05G18R14R15R13            
                                R24R17                                          
  23187746.945   121852395.89107        42.000       -3297.020    94949949.84807
        46.000       -2569.102    23187754.000  
  23283884.422   122357545.64507        42.000       -3190.352    95343587.69904
        27.000       -2486.004    23283886.063  
  23503334.617   123510900.18807        42.000        1851.852    96242244.01204
        29.000        1442.984    23503339.969  
  20778647.750   109192461.43808        50.000        1751.078    85085115.89806
        41.000        1364.480    20778650.648  
  21895323.336   115060717.90608        49.000         320.156    89657709.05908
        51.000         249.465    21895324.180  
  21109841.219   110932972.03508        50.000        -424.875    86441273.64108
        51.000        -331.063    21109841.938  
  22470309.117   118082276.05506        36.000        -697.117    92012130.39103
        21.000        -543.238    22470309.273  
  22378316.328   117598871.23807        42.000        1112.488    91635504.73406
        40.000         866.859    22378319.969  
  22889718.352   120286361.73007        46.000        3010.898    93729608.86305
        34.000        2346.148    22889723.359  
  19350683.055   103150069.58608        51.000        1329.445    80227807.17608
        51.000        1033.883    19350684.766  
  22678058.961   121184809.53107        46.000        3986.031    94254804.63307
        47.000        3100.203    22678059.930  
  20717529.594   110630357.85507        42.000       -2922.555    86045837.27307
        43.000       -2273.293    20717531.188  
  20388539.195   109026666.12907        46.000       -2273.258    84798438.84806
        38.000       -1768.176    20388535.789  
  20514863.914   109779130.32808        51.000         788.910    85383802.55108
        49.000         613.641    20514862.945  
 23  7 24 21 25 15.0000000  0 14G24G11G28G25G29G12G20G05G18R14R15R13            
                                R24R17                                          
  23188372.641   121855683.78507        42.000       -3297.203    94952511.84407
        46.000       -2569.246    23188379.664  
  23284489.797   122360726.63307        42.000       -3190.359    95346066.39804
        27.000       -2486.000    23284491.422  
  23502980.773   123509039.19907        42.000        1851.395    96240793.89804
        29.000        1442.641    23502985.781  
  20778312.648   109190701.28108        50.000        1751.023    85083744.34806
        41.000        1364.434    20778315.703  
  21895260.633   115060388.66408        49.000         319.969    89657452.51208
        51.000         249.320    21895261.516  
  21109920.344   110933387.79708        50.000        -424.988    86441597.61308
        51.000        -331.160    21109921.055  
  22470440.203   118082963.52006        36.000        -697.277    92012666.08603
        21.000        -543.375    22470440.148  
  22378102.656   117597749.60207        42.000        1111.926    91634630.74206
        40.000         866.434    22378106.492  
  22889143.547   120283341.66407        46.000        3010.801    93727255.56605
        34.000        2346.074    22889148.586  
  19350431.844   103148731.11308        51.000        1328.828    80226766.13308
        51.000        1033.512    19350433.609  
  22677311.242   121180814.10907        46.000        3985.883    94251697.06608
        48.000        3100.148    22677312.172  
  20718074.867   110633271.47706        41.000       -2923.578    86048103.39807
        43.000       -2273.398    20718076.641  
  20388962.297   109028929.95307        46.000       -2273.406    84800199.57006
        38.000       -1768.215    20388958.852  
  20514714.492   109778332.09808        51.000         788.508    85383181.70708
        49.000         613.410    20514713.813  
 23  7 24 21 25 16.0000000  0 14G24G11G28G25G29G12G20G05G18R14R15R13            
                                R24R17                                          
  23189001.180   121858985.49607        42.000       -3297.207    94955084.60207
        46.000       -2569.270    23189007.945  
  23285098.078   122363921.53507        42.000       -3190.680    95348555.93804
        28.000       -2486.227    23285099.367  
  23502629.102   123507192.45307        42.000        1850.777    96239354.89104
        29.000        1442.121    23502634.297  
  20777980.445   109188955.15608        50.000        1750.289    85082383.73406
        41.000        1363.828    20777983.430  
  21895200.594   115060073.25008        49.000         319.598    89657206.74208
        51.000         249.027    21895201.492  
  21110002.102   110933817.72708        50.000        -425.820    86441932.62908
        51.000        -331.809    21110002.875  
  22470573.984   118083665.35506        36.000        -697.340    92013212.94903
        21.000        -543.406    22470573.805  
  22377891.922   117596642.14507        42.000        1111.941    91633767.79306
        40.000         866.461    22377895.703  
  22888571.680   120280335.67607        46.000        3010.473    93724913.24205
        34.000        2345.813    22888576.547  
  19350183.422   103147407.30508        51.000        1327.848    80225736.50808
        51.000        1032.781    19350185.180  
  22676566.008   121176832.80107        46.000        3985.293    94248600.50008
        48.000        3099.863    22676566.984  
  20718623.164   110636199.63306        41.000       -2924.059    86050380.85907
        43.000       -2273.996    20718624.938  
  20389388.133   109031208.05907        46.000       -2274.020    84801971.44506
        38.000       -1768.914    20389384.438  
  20514567.773   109777548.42608        51.000         787.766    85382572.19108
        49.000         612.574    20514567.461  
 23  7 24 21 25 17.0000000  0 14G24G11G28G25G29G12G20G05G18R14R15R13            
                                R24R17                                          
  23189631.406   121862297.60207        42.000       -3297.730    94957665.45707
        46.000       -2569.648    23189638.234  
  23285707.867   122367126.94907        42.000       -3190.988    95351053.66404
        28.000       -2486.504    23285709.352  
  23502279.953   123505356.55907        42.000        1850.195    96237924.32004
        29.000        1441.684    23502284.953  
  20777650.336   109187219.63308        50.000        1750.098    85081031.38706
        41.000        1363.711    20777653.195  
  21895142.680   115059768.25408        49.000         319.660    89656969.07808
        51.000         249.098    21895143.438  
  21110085.984   110934258.37908        50.000        -426.148    86442275.98808
        51.000        -332.070    21110086.719  
  22470709.750   118084378.12906        36.000        -698.578    92013768.36303
        21.000        -544.414    22470709.555  
  22377683.305   117595545.49207        42.000        1110.855    91632913.26206
        40.000         865.598    22377686.977  
  22888001.563   120277340.36307        46.000        3009.641    93722579.24205
        35.000        2345.176    22888006.531  
  19349937.164   103146094.69908        51.000        1326.973    80224715.58608
        51.000        1032.176    19349938.977  
  22675823.039   121172862.10207        46.000        3985.500    94245512.18807
        47.000        3099.898    22675823.875  
  20719173.555   110639138.89106        41.000       -2925.203    86052666.93807
        42.000       -2274.645    20719175.375  
  20389816.375   109033496.94507        45.000       -2274.402    84803751.67606
        38.000       -1769.016    20389812.148  
  20514423.602   109776775.86708        51.000         787.117    85381971.31308
        49.000         612.188    20514423.070  
 23  7 24 21 25 18.0000000  0 14G24G11G28G25G29G12G20G05G18R14R15R13            
                                R24R17                                          
  23190259.852   121865599.41007        43.000       -3297.617    94960238.28907
        46.000       -2569.563    23190266.609  
  23286315.766   122370322.17207        42.000       -3191.164    95353543.44104
        28.000       -2486.617    23286317.414  
  23501928.594   123503510.78507        43.000        1849.676    96236486.05104
        29.000        1441.301    23501933.641  
  20777318.141   109185474.07408        50.000        1749.652    85079671.20306
        41.000        1363.371    20777321.063  
  21895082.813   115059453.01208        50.000         319.484    89656723.43808
        51.000         248.953    21895083.477  
  21110168.117   110934689.09808        50.000        -426.641    86442611.60908
        51.000        -332.445    21110168.672  
  22470843.117   118085081.10206        36.000        -698.754    92014316.13703
        20.000        -544.461    22470843.328  
  22377473.125   117594438.89807        42.000        1110.895    91632050.97706
        40.000         865.625    22377476.383  
  22887429.836   120274335.04307        46.000        3009.227    93720237.43405
        35.000        2344.852    22887434.602  
  19349689.055   103144772.34808        51.000        1326.148    80223687.09808
        51.000        1031.422    19349690.922  
  22675078.125   121168881.05507        46.000        3985.316    94242415.82007
        47.000        3099.789    22675078.953  
  20719722.008   110642068.21106        41.000       -2925.164    86054945.31307
        42.000       -2275.188    20719723.883  
  20390242.719   109035775.55107        45.000       -2274.457    84805523.94106
        38.000       -1769.000    20390238.484  
  20514277.656   109775993.32008        51.000         786.492    85381362.67208
        49.000         611.582    20514277.031  
 23  7 24 21 25 19.0000000  0 14G24G11G28G25G29G12G20G05G18R14R15R13            
                                R24R17                                          
  23190884.781   121868884.13707        43.000       -3297.348    94962797.80507
        46.000       -2569.371    23190891.688  
  23286920.820   122373500.44507        42.000       -3191.469    95356020.02004
        28.000       -2486.922    23286922.195  
  23501574.039   123501648.39507        42.000        1849.297    96235034.83604
        29.000        1441.000    23501579.250  
  20776982.695   109183711.64808        50.000        1749.832    85078297.88306
        41.000        1363.504    20776985.727  
  21895019.539   115059120.71908        49.000         319.547    89656464.50808
        51.000         248.996    21895020.250  
  21110246.766   110935103.08208        50.000        -426.773    86442934.19108
        51.000        -332.551    21110247.438  
  22470973.531   118085767.52306        36.000        -699.547    92014851.01203
        20.000        -545.172    22470973.898  
  22377259.508   117593315.60507        42.000        1110.910    91631175.68006
        40.000         865.648    22377262.602  
  22886854.805   120271312.89807        46.000        3009.484    93717882.51605
        35.000        2345.043    22886859.477  
  19349437.914   103143433.37108        51.000        1325.758    80222645.67608
        51.000        1031.105    19349439.797  
  22674329.867   121164882.73407        46.000        3985.371    94239306.01207
        47.000        3099.926    22674330.789  
  20720267.758   110644980.73006        41.000       -2925.695    86057210.60907
        42.000       -2275.660    20720269.305  
  20390665.398   109038036.95307        45.000       -2274.340    84807282.81606
        38.000       -1769.180    20390661.508  
  20514128.289   109775193.79708        51.000         786.445    85380740.81608
        49.000         611.645    20514127.805  
 23  7 24 21 25 20.0000000  0 14G24G11G28G25G29G12G20G05G18R14R15R13            
                                R24R17                                          
  23191510.289   121872169.18807        43.000       -3297.402    94965357.58607
        46.000       -2569.430    23191516.789  
  23287525.938   122376679.12107        42.000       -3191.102    95358496.90604
        28.000       -2486.578    23287527.078  
  23501219.969   123499786.74207        42.000        1848.883    96233584.19504
        29.000        1440.711    23501224.977  
  20776647.305   109181949.78108        50.000        1749.293    85076925.00406
        41.000        1363.098    20776650.469  
  21894956.250   115058788.76608        49.000         319.586    89656205.84808
        51.000         249.043    21894957.094  
  21110325.531   110935517.72308        50.000        -427.293    86443257.29308
        51.000        -332.945    21110326.344  
  22471104.969   118086454.76606        36.000        -700.316    92015386.52303
        20.000        -545.703    22471104.586  
  22377045.797   117592193.03107        42.000        1109.801    91630300.95306
        40.000         864.777    22377048.930  
  22886279.680   120268291.35507        46.000        3009.098    93715528.07405
        35.000        2344.734    22886284.484  
  19349186.813   103142095.41008        51.000        1325.023    80221605.03508
        51.000        1030.469    19349188.656  
  22673581.500   121160884.84407        46.000        3985.086    94236196.55507
        47.000        3099.445    22673582.539  
  20720813.266   110647894.11306        41.000       -2926.238    86059476.57407
        42.000       -2276.109    20720814.719  
  20391088.000   109040298.85907        45.000       -2274.473    84809042.06306
        38.000       -1769.309    20391084.461  
  20513978.789   109774395.04708        51.000         785.699    85380119.57008
        50.000         611.230    20513978.570  
